__time,/offboard/controller_debug/angular_velocity,/offboard/controller_debug/pitch_angle,/offboard/controller_debug/pitch_angle_setpoint,/offboard/controller_debug/stamp/nanosec,/offboard/controller_debug/stamp/sec,/offboard/controller_debug/tilt_angle
1748429184.777451,-0.002203566,0.004611100,0.000000000,777402549.000000000,1748429184.000000000,-0.007117106
1748429184.797888,-0.001484171,0.004570786,0.000000000,797719499.000000000,1748429184.000000000,-0.007744677
1748429184.817461,-0.003021564,0.004550359,0.000000000,817408118.000000000,1748429184.000000000,-0.006853887
1748429184.837551,0.000044618,0.004532251,0.000000000,837463096.000000000,1748429184.000000000,-0.009134141
1748429184.857445,0.003272394,0.004565314,0.000000000,857407285.000000000,1748429184.000000000,-0.011618279
1748429184.877461,-0.000447391,0.004535764,0.000000000,877406187.000000000,1748429184.000000000,-0.009208870
1748429184.897545,0.000020179,0.004580204,0.000000000,897488897.000000000,1748429184.000000000,-0.009814655
1748429184.917417,0.000117917,0.004552308,0.000000000,917371671.000000000,1748429184.000000000,-0.010035772
1748429184.937465,-0.003216363,0.004538089,0.000000000,937410478.000000000,1748429184.000000000,-0.007919061
1748429184.957480,0.003281280,0.004561079,0.000000000,957396216.000000000,1748429184.000000000,-0.012635049
1748429184.977517,-0.002835302,0.004553165,0.000000000,977438089.000000000,1748429184.000000000,-0.008615749
1748429184.997421,-0.000520789,0.004578555,0.000000000,997376497.000000000,1748429184.000000000,-0.010458386
1748429185.017424,0.000049179,0.004595674,0.000000000,17384116.000000000,1748429185.000000000,-0.011086624
1748429185.037447,-0.001309709,0.004614281,0.000000000,37411321.000000000,1748429185.000000000,-0.010391098
1748429185.057475,0.000484080,0.004612100,0.000000000,57427255.000000000,1748429185.000000000,-0.011827780
1748429185.077481,-0.002292129,0.004583890,0.000000000,77423813.000000000,1748429185.000000000,-0.010072187
1748429185.097544,-0.002922219,0.004547328,0.000000000,97466919.000000000,1748429185.000000000,-0.009776816
1748429185.117409,-0.005179435,0.004479725,0.000000000,117377966.000000000,1748429185.000000000,-0.008303464
1748429185.137436,-0.003226092,0.004348915,0.000000000,137376026.000000000,1748429185.000000000,-0.009608884
1748429185.157548,-0.007240626,0.004255231,0.000000000,157473654.000000000,1748429185.000000000,-0.006869795
1748429185.177552,-0.002489176,0.004180559,0.000000000,177474720.000000000,1748429185.000000000,-0.010193126
1748429185.197571,-0.007643021,0.004050159,0.000000000,197480335.000000000,1748429185.000000000,-0.006595460
1748429185.217429,-0.009055654,0.003851791,0.000000000,217388998.000000000,1748429185.000000000,-0.005442096
1748429185.237445,-0.010244517,0.003676872,0.000000000,237383121.000000000,1748429185.000000000,-0.004476683
1748429185.257538,-0.013083043,0.003475240,0.000000000,257449460.000000000,1748429185.000000000,-0.002319504
1748429185.277497,-0.013021825,0.003266638,0.000000000,277435468.000000000,1748429185.000000000,-0.002135884
1748429185.297606,-0.010067032,0.003070147,0.000000000,297528467.000000000,1748429185.000000000,-0.003956138
1748429185.317424,-0.012676322,0.002762679,0.000000000,317382778.000000000,1748429185.000000000,-0.001736174
1748429185.337439,-0.015362334,0.002448606,0.000000000,337380408.000000000,1748429185.000000000,0.000562399
1748429185.357477,-0.014579747,0.002077531,0.000000000,357450023.000000000,1748429185.000000000,0.000592430
1748429185.377542,-0.013233563,0.001786469,0.000000000,377440760.000000000,1748429185.000000000,0.000105045
1748429185.397517,-0.017386982,0.001433232,0.000000000,397437247.000000000,1748429185.000000000,0.003528561
1748429185.417393,-0.016574686,0.000980479,0.000000000,417360117.000000000,1748429185.000000000,0.003732802
1748429185.437433,-0.014992075,0.000837113,0.000000000,437383315.000000000,1748429185.000000000,0.002861920
1748429185.457505,-0.015773071,0.000514328,0.000000000,457431650.000000000,1748429185.000000000,0.003951686
1748429185.477474,-0.007410279,0.000303114,0.000000000,477414181.000000000,1748429185.000000000,-0.001439817
1748429185.497508,-0.016598513,-0.000001888,0.000000000,497474178.000000000,1748429185.000000000,0.005426356
1748429185.517489,-0.017372163,-0.000266824,0.000000000,517438966.000000000,1748429185.000000000,0.006442887
1748429185.537512,-0.012355339,-0.000487435,0.000000000,537440944.000000000,1748429185.000000000,0.003405849
1748429185.557498,-0.012535461,-0.000872793,0.000000000,557433855.000000000,1748429185.000000000,0.004255725
1748429185.577500,-0.009995770,-0.000954243,0.000000000,577435964.000000000,1748429185.000000000,0.002696022
1748429185.597467,-0.015347796,-0.001222531,0.000000000,597415169.000000000,1748429185.000000000,0.006911650
1748429185.617418,-0.009173147,-0.001506948,0.000000000,617383674.000000000,1748429185.000000000,0.003237240
1748429185.637461,-0.006646081,-0.001640331,0.000000000,637415067.000000000,1748429185.000000000,0.001809481
1748429185.657475,-0.005739410,-0.001832418,0.000000000,657430651.000000000,1748429185.000000000,0.001609946
1748429185.677478,-0.009412594,-0.002142358,0.000000000,677418282.000000000,1748429185.000000000,0.004785741
1748429185.697576,-0.007418476,-0.002234417,0.000000000,697498046.000000000,1748429185.000000000,0.003677611
1748429185.717419,-0.009620043,-0.002357974,0.000000000,717378105.000000000,1748429185.000000000,0.005518204
1748429185.737508,-0.011569312,-0.002556449,0.000000000,737427502.000000000,1748429185.000000000,0.007327606
1748429185.757422,-0.010386442,-0.002707419,0.000000000,757377913.000000000,1748429185.000000000,0.006903857
1748429185.777483,-0.004580211,-0.002863831,0.000000000,777429344.000000000,1748429185.000000000,0.003315472
1748429185.797686,-0.005562911,-0.002978895,0.000000000,797508397.000000000,1748429185.000000000,0.004329991
1748429185.817454,-0.005004089,-0.003119814,0.000000000,817416328.000000000,1748429185.000000000,0.004336178
1748429185.837482,-0.005050088,-0.003214375,0.000000000,837417965.000000000,1748429185.000000000,0.004680139
1748429185.857531,-0.004694568,-0.003320079,0.000000000,857484926.000000000,1748429185.000000000,0.004772403
1748429185.877577,-0.008096091,-0.003439431,0.000000000,877481043.000000000,1748429185.000000000,0.007479554
1748429185.897571,-0.004932995,-0.003562587,0.000000000,897475857.000000000,1748429185.000000000,0.005681879
1748429185.917448,-0.002452113,-0.003609089,0.000000000,917411921.000000000,1748429185.000000000,0.004219079
1748429185.937470,-0.003130334,-0.003716018,0.000000000,937400274.000000000,1748429185.000000000,0.005042553
1748429185.957441,-0.000490966,-0.003814609,0.000000000,957403674.000000000,1748429185.000000000,0.003572738
1748429185.977477,-0.001677881,-0.003827656,0.000000000,977417034.000000000,1748429185.000000000,0.004583893
1748429185.997586,-0.003407995,-0.003887954,0.000000000,997503440.000000000,1748429185.000000000,0.006055741
1748429186.017916,-0.005393630,-0.003952845,0.000000000,17501862.000000000,1748429186.000000000,0.007714505
1748429186.037502,-0.002533135,-0.003999725,0.000000000,37438728.000000000,1748429186.000000000,0.006008636
1748429186.057511,0.000206070,-0.004066580,0.000000000,57443491.000000000,1748429186.000000000,0.004424824
1748429186.077487,-0.001551967,-0.004082691,0.000000000,77415763.000000000,1748429186.000000000,0.005845834
1748429186.097526,0.003505770,-0.004046807,0.000000000,97478245.000000000,1748429186.000000000,0.002482623
1748429186.117466,0.001295815,-0.004002949,0.000000000,117417064.000000000,1748429186.000000000,0.004104136
1748429186.137486,0.003383135,-0.003992056,0.000000000,137428760.000000000,1748429186.000000000,0.002826967
1748429186.157502,0.004996370,-0.003930010,0.000000000,157453060.000000000,1748429186.000000000,0.001782062
1748429186.177550,-0.002091671,-0.003911341,0.000000000,177478532.000000000,1748429186.000000000,0.006800987
1748429186.197678,0.001722001,-0.003852915,0.000000000,197581340.000000000,1748429186.000000000,0.004244966
1748429186.217430,0.000926276,-0.003808441,0.000000000,217394182.000000000,1748429186.000000000,0.004883550
1748429186.237464,0.006998202,-0.003734585,0.000000000,237410056.000000000,1748429186.000000000,0.000740828
1748429186.257482,0.003738658,-0.003647642,0.000000000,257421653.000000000,1748429186.000000000,0.002991873
1748429186.277491,0.005098464,-0.003552906,0.000000000,277419994.000000000,1748429186.000000000,0.002046217
1748429186.297605,0.004181520,-0.003473101,0.000000000,297551866.000000000,1748429186.000000000,0.002690238
1748429186.317419,0.003341186,-0.003374976,0.000000000,317378745.000000000,1748429186.000000000,0.003244499
1748429186.337470,0.000383408,-0.003361732,0.000000000,337421500.000000000,1748429186.000000000,0.005406482
1748429186.357549,-0.001546535,-0.003328923,0.000000000,357486446.000000000,1748429186.000000000,0.006824871
1748429186.377526,0.001254614,-0.003299324,0.000000000,377450593.000000000,1748429186.000000000,0.004992193
1748429186.397542,-0.003669256,-0.003378965,0.000000000,397483910.000000000,1748429186.000000000,0.008673382
1748429186.417451,-0.008181330,-0.003476772,0.000000000,417398423.000000000,1748429186.000000000,0.012107968
1748429186.437492,-0.002204899,-0.003546258,0.000000000,437428194.000000000,1748429186.000000000,0.008278041
1748429186.457478,-0.002130994,-0.003573821,0.000000000,457427947.000000000,1748429186.000000000,0.008436146
1748429186.477508,-0.003801160,-0.003625067,0.000000000,477425407.000000000,1748429186.000000000,0.009838854
1748429186.497586,-0.000398832,-0.003669106,0.000000000,497512445.000000000,1748429186.000000000,0.007740302
1748429186.517448,-0.003246431,-0.003743206,0.000000000,517412070.000000000,1748429186.000000000,0.009999219
1748429186.537509,-0.000166016,-0.003766298,0.000000000,537416533.000000000,1748429186.000000000,0.008089185
1748429186.557534,-0.003557360,-0.003861429,0.000000000,557461281.000000000,1748429186.000000000,0.010765030
1748429186.577483,0.004260452,-0.003819013,0.000000000,577418606.000000000,1748429186.000000000,0.005480783
1748429186.597584,-0.000052882,-0.003795602,0.000000000,597527855.000000000,1748429186.000000000,0.008576804
1748429186.617446,0.000057522,-0.003783625,0.000000000,617395160.000000000,1748429186.000000000,0.008648697
1748429186.637512,0.001896979,-0.003763893,0.000000000,637442864.000000000,1748429186.000000000,0.007516124
1748429186.657498,0.005906707,-0.003681473,0.000000000,657449811.000000000,1748429186.000000000,0.004774759
1748429186.677567,-0.001055059,-0.003697607,0.000000000,677471456.000000000,1748429186.000000000,0.009759273
1748429186.697466,0.003042045,-0.003676146,0.000000000,697411758.000000000,1748429186.000000000,0.007066205
1748429186.717436,0.002355197,-0.003638805,0.000000000,717401463.000000000,1748429186.000000000,0.007635001
1748429186.737458,0.004316067,-0.003612821,0.000000000,737408942.000000000,1748429186.000000000,0.006400982
1748429186.757581,0.001016656,-0.003574328,0.000000000,757470291.000000000,1748429186.000000000,0.008762544
1748429186.777538,0.006668215,-0.003526332,0.000000000,777460267.000000000,1748429186.000000000,0.004945857
1748429186.797478,0.002783727,-0.003445966,0.000000000,797423943.000000000,1748429186.000000000,0.007629632
1748429186.817469,0.003111710,-0.003409994,0.000000000,817400673.000000000,1748429186.000000000,0.007492329
1748429186.837477,0.001368215,-0.003380151,0.000000000,837431576.000000000,1748429186.000000000,0.008789999
1748429186.857490,-0.000248665,-0.003382606,0.000000000,857449333.000000000,1748429186.000000000,0.010058227
1748429186.877528,-0.003058550,-0.003412801,0.000000000,877476268.000000000,1748429186.000000000,0.012198158
1748429186.897508,-0.001497341,-0.003436145,0.000000000,897437049.000000000,1748429186.000000000,0.011319173
1748429186.917493,-0.003362620,-0.003483112,0.000000000,917418208.000000000,1748429186.000000000,0.012842163
1748429186.937486,-0.000940302,-0.003473195,0.000000000,937435414.000000000,1748429186.000000000,0.011313017
1748429186.957494,-0.004240887,-0.003515132,0.000000000,957441390.000000000,1748429186.000000000,0.013816107
1748429186.977518,-0.001374121,-0.003557777,0.000000000,977444490.000000000,1748429186.000000000,0.012078610
1748429186.997488,-0.000309496,-0.003640357,0.000000000,997449985.000000000,1748429186.000000000,0.011656044
1748429187.017458,-0.004470779,-0.003707964,0.000000000,17410605.000000000,1748429187.000000000,0.014805760
1748429187.037470,-0.003804693,-0.003756539,0.000000000,37409868.000000000,1748429187.000000000,0.014602011
1748429187.057542,-0.001645035,-0.003759786,0.000000000,57475325.000000000,1748429187.000000000,0.013289884
1748429187.077535,0.001434590,-0.003742120,0.000000000,77453859.000000000,1748429187.000000000,0.011306660
1748429187.097594,-0.003057775,-0.003737689,0.000000000,97515800.000000000,1748429187.000000000,0.014557114
1748429187.117462,0.001172902,-0.003702897,0.000000000,117402571.000000000,1748429187.000000000,0.011749569
1748429187.137554,0.003346742,-0.003644856,0.000000000,137448262.000000000,1748429187.000000000,0.010313298
1748429187.157530,0.003484733,-0.003564683,0.000000000,157448677.000000000,1748429187.000000000,0.010234857
1748429187.177590,0.000740116,-0.003557288,0.000000000,177512170.000000000,1748429187.000000000,0.012269336
1748429187.197546,0.004468273,-0.003508901,0.000000000,197475976.000000000,1748429187.000000000,0.009774666
1748429187.217513,0.003177017,-0.003485736,0.000000000,217455883.000000000,1748429187.000000000,0.010777777
1748429187.237512,-0.000246852,-0.003477292,0.000000000,237463221.000000000,1748429187.000000000,0.013274201
1748429187.257591,-0.001036763,-0.003431718,0.000000000,257443929.000000000,1748429187.000000000,0.013889976
1748429187.277524,-0.002176270,-0.003410393,0.000000000,277466095.000000000,1748429187.000000000,0.014788578
1748429187.297470,-0.003768627,-0.003425182,0.000000000,297406918.000000000,1748429187.000000000,0.016063822
1748429187.317521,-0.000832361,-0.003482720,0.000000000,317442199.000000000,1748429187.000000000,0.014301692
1748429187.337500,-0.002877105,-0.003541940,0.000000000,337423288.000000000,1748429187.000000000,0.015972642
1748429187.357494,-0.007563263,-0.003608334,0.000000000,357399347.000000000,1748429187.000000000,0.019476909
1748429187.377486,-0.004360133,-0.003669826,0.000000000,377414480.000000000,1748429187.000000000,0.017546564
1748429187.397583,-0.009281903,-0.003774172,0.000000000,397525072.000000000,1748429187.000000000,0.021288019
1748429187.417459,-0.006524569,-0.003842788,0.000000000,417414488.000000000,1748429187.000000000,0.019684864
1748429187.437485,-0.001221091,-0.003947119,0.000000000,437432487.000000000,1748429187.000000000,0.016398035
1748429187.457509,-0.003263351,-0.004013721,0.000000000,457460634.000000000,1748429187.000000000,0.018101532
1748429187.477545,-0.002164170,-0.004055046,0.000000000,477450048.000000000,1748429187.000000000,0.017600197
1748429187.497605,-0.000161539,-0.004020110,0.000000000,497529762.000000000,1748429187.000000000,0.016339701
1748429187.517524,0.003599269,-0.003939675,0.000000000,517437002.000000000,1748429187.000000000,0.013784703
1748429187.537536,0.011660902,-0.003818187,0.000000000,537455291.000000000,1748429187.000000000,0.008191697
1748429187.557554,0.007394242,-0.003660679,0.000000000,557490942.000000000,1748429187.000000000,0.011010543
1748429187.577554,0.010309811,-0.003441752,0.000000000,577466661.000000000,1748429187.000000000,0.008768024
1748429187.597587,0.015476245,-0.003184732,0.000000000,597539191.000000000,1748429187.000000000,0.004897290
1748429187.617466,0.008815967,-0.003023749,0.000000000,617417106.000000000,1748429187.000000000,0.009328503
1748429187.637507,0.015977217,-0.002683534,0.000000000,637435415.000000000,1748429187.000000000,0.003914427
1748429187.657465,0.011638007,-0.002368289,0.000000000,657427003.000000000,1748429187.000000000,0.006444227
1748429187.677593,0.015612318,-0.002096316,0.000000000,677482843.000000000,1748429187.000000000,0.003318463
1748429187.697595,0.014085830,-0.001859713,0.000000000,697505880.000000000,1748429187.000000000,0.004030266
1748429187.717469,0.011080573,-0.001683288,0.000000000,717431294.000000000,1748429187.000000000,0.005858986
1748429187.737513,0.012480197,-0.001409340,0.000000000,737448200.000000000,1748429187.000000000,0.004470619
1748429187.757550,0.013882625,-0.001157665,0.000000000,757492067.000000000,1748429187.000000000,0.003108772
1748429187.777538,0.005247117,-0.001013167,0.000000000,777448409.000000000,1748429187.000000000,0.008838607
1748429187.797658,0.004003677,-0.000857543,0.000000000,797559222.000000000,1748429187.000000000,0.009455170
1748429187.817491,0.006399219,-0.000741449,0.000000000,817424703.000000000,1748429187.000000000,0.007633019
1748429187.837483,0.003383117,-0.000625012,0.000000000,837439826.000000000,1748429187.000000000,0.009528802
1748429187.857523,0.000523798,-0.000548833,0.000000000,857477180.000000000,1748429187.000000000,0.011385055
1748429187.877512,0.003347046,-0.000453649,0.000000000,877444443.000000000,1748429187.000000000,0.009293000
1748429187.897988,0.002386113,-0.000358215,0.000000000,897790077.000000000,1748429187.000000000,0.009800127
1748429187.917452,0.007625695,-0.000317960,0.000000000,917407262.000000000,1748429187.000000000,0.006137235
1748429187.937492,-0.003327378,-0.000277225,0.000000000,937419239.000000000,1748429187.000000000,0.013613832
1748429187.957548,-0.006954332,-0.000381456,0.000000000,957442777.000000000,1748429187.000000000,0.016312391
1748429187.977506,-0.004988619,-0.000513290,0.000000000,977438343.000000000,1748429187.000000000,0.015217735
1748429187.997576,-0.011016810,-0.000701751,0.000000000,997537143.000000000,1748429187.000000000,0.019733047
1748429188.017514,-0.005148017,-0.000757562,0.000000000,17454272.000000000,1748429188.000000000,0.015828094
1748429188.037530,-0.010148406,-0.000971295,0.000000000,37464616.000000000,1748429188.000000000,0.019693278
1748429188.057569,-0.009770086,-0.001156562,0.000000000,57501589.000000000,1748429188.000000000,0.019814920
1748429188.077556,-0.005787448,-0.001309710,0.000000000,77463071.000000000,1748429188.000000000,0.017406024
1748429188.097634,-0.010302429,-0.001505392,0.000000000,97573022.000000000,1748429188.000000000,0.020928912
1748429188.117466,-0.008923215,-0.001639072,0.000000000,117425930.000000000,1748429188.000000000,0.020291461
1748429188.137467,-0.013830639,-0.001961677,0.000000000,137425083.000000000,1748429188.000000000,0.024331033
1748429188.157498,-0.010427763,-0.002179520,0.000000000,157462718.000000000,1748429188.000000000,0.022475291
1748429188.177543,-0.003420863,-0.002310083,0.000000000,177459206.000000000,1748429188.000000000,0.017989885
1748429188.197650,-0.003567620,-0.002440649,0.000000000,197554509.000000000,1748429188.000000000,0.018432751
1748429188.217505,-0.004905474,-0.002511837,0.000000000,217424619.000000000,1748429188.000000000,0.019592557
1748429188.237476,-0.006387400,-0.002670465,0.000000000,237438650.000000000,1748429188.000000000,0.021014454
1748429188.257545,-0.010792080,-0.002827656,0.000000000,257504768.000000000,1748429188.000000000,0.024451964
1748429188.277534,-0.003501973,-0.002896896,0.000000000,277453977.000000000,1748429188.000000000,0.019688617
1748429188.297629,0.002733585,-0.002920620,0.000000000,297555412.000000000,1748429188.000000000,0.015570835
1748429188.317481,-0.006756552,-0.003024532,0.000000000,317435842.000000000,1748429188.000000000,0.022421487
1748429188.337514,-0.004871559,-0.003111417,0.000000000,337445474.000000000,1748429188.000000000,0.021418441
1748429188.357511,-0.002730271,-0.003123363,0.000000000,357448604.000000000,1748429188.000000000,0.020105997
1748429188.377527,0.003316549,-0.003120319,0.000000000,377466422.000000000,1748429188.000000000,0.016079301
1748429188.397551,0.003630542,-0.003135596,0.000000000,397491554.000000000,1748429188.000000000,0.016030705
1748429188.417489,-0.002347085,-0.003145769,0.000000000,417441053.000000000,1748429188.000000000,0.020302730
1748429188.437510,0.001910083,-0.003072563,0.000000000,437462878.000000000,1748429188.000000000,0.017380295
1748429188.457572,-0.000806368,-0.003080258,0.000000000,457481528.000000000,1748429188.000000000,0.019400954
1748429188.477546,0.002845197,-0.003014541,0.000000000,477490078.000000000,1748429188.000000000,0.016905989
1748429188.497563,0.005619164,-0.002917752,0.000000000,497470475.000000000,1748429188.000000000,0.014955183
1748429188.517547,0.004776672,-0.002886015,0.000000000,517465080.000000000,1748429188.000000000,0.015607400
1748429188.537505,0.001389834,-0.002857204,0.000000000,537448563.000000000,1748429188.000000000,0.018014306
1748429188.557530,0.004313034,-0.002783068,0.000000000,557481980.000000000,1748429188.000000000,0.015995171
1748429188.577525,0.007582904,-0.002683261,0.000000000,577459913.000000000,1748429188.000000000,0.013687268
1748429188.597569,0.004376951,-0.002568704,0.000000000,597511544.000000000,1748429188.000000000,0.015803963
1748429188.617467,0.006397306,-0.002517014,0.000000000,617428252.000000000,1748429188.000000000,0.014434187
1748429188.637557,0.000940530,-0.002504203,0.000000000,637477348.000000000,1748429188.000000000,0.018278150
1748429188.657562,-0.002888648,-0.002485986,0.000000000,657514983.000000000,1748429188.000000000,0.020991715
1748429188.677593,0.003468545,-0.002419265,0.000000000,677517072.000000000,1748429188.000000000,0.016606594
1748429188.697654,0.000198399,-0.002432816,0.000000000,697572801.000000000,1748429188.000000000,0.018989738
1748429188.717476,0.000391553,-0.002341180,0.000000000,717431179.000000000,1748429188.000000000,0.018798189
1748429188.737523,0.000443146,-0.002330999,0.000000000,737473603.000000000,1748429188.000000000,0.018848788
1748429188.757585,-0.001459426,-0.002330343,0.000000000,757458218.000000000,1748429188.000000000,0.020260993
1748429188.777537,-0.000535319,-0.002325854,0.000000000,777488269.000000000,1748429188.000000000,0.019721132
1748429188.797619,0.001467980,-0.002348149,0.000000000,797570778.000000000,1748429188.000000000,0.018487416
1748429188.817962,-0.001217825,-0.002360568,0.000000000,817484300.000000000,1748429188.000000000,0.020463226
1748429188.837535,-0.002805585,-0.002409351,0.000000000,837456462.000000000,1748429188.000000000,0.021750471
1748429188.857556,-0.000875432,-0.002419139,0.000000000,857481333.000000000,1748429188.000000000,0.020547967
1748429188.877551,-0.001224214,-0.002430935,0.000000000,877485946.000000000,1748429188.000000000,0.020917708
1748429188.897614,-0.002292800,-0.002441615,0.000000000,897558487.000000000,1748429188.000000000,0.021781232
1748429188.917508,0.003882708,-0.002392473,0.000000000,917450699.000000000,1748429188.000000000,0.017551266
1748429188.937492,-0.000576532,-0.002447836,0.000000000,937451615.000000000,1748429188.000000000,0.020827828
1748429188.957463,-0.000020881,-0.002472489,0.000000000,957432403.000000000,1748429188.000000000,0.020600002
1748429188.977589,0.000437349,-0.002452484,0.000000000,977523107.000000000,1748429188.000000000,0.020358715
1748429188.997603,0.003921047,-0.002447297,0.000000000,997518253.000000000,1748429188.000000000,0.018061787
1748429189.017587,-0.000875954,-0.002454636,0.000000000,17467281.000000000,1748429189.000000000,0.021485459
1748429189.037536,0.000935807,-0.002491036,0.000000000,37464871.000000000,1748429189.000000000,0.020415075
1748429189.057539,-0.001693062,-0.002494984,0.000000000,57479703.000000000,1748429189.000000000,0.022342619
1748429189.077581,0.000795121,-0.002420946,0.000000000,77504484.000000000,1748429189.000000000,0.020606795
1748429189.097650,0.001303615,-0.002404217,0.000000000,97571233.000000000,1748429189.000000000,0.020334603
1748429189.117481,0.005116257,-0.002337881,0.000000000,117435974.000000000,1748429189.000000000,0.017697435
1748429189.137488,0.001326415,-0.002299812,0.000000000,137451688.000000000,1748429189.000000000,0.020340217
1748429189.157517,0.003834775,-0.002243376,0.000000000,157470487.000000000,1748429189.000000000,0.018613946
1748429189.177519,0.000436088,-0.002212502,0.000000000,177465993.000000000,1748429189.000000000,0.020996496
1748429189.197572,0.005127080,-0.002143419,0.000000000,197492978.000000000,1748429189.000000000,0.017741343
1748429189.217518,0.003506924,-0.002048291,0.000000000,217459249.000000000,1748429189.000000000,0.018778212
1748429189.237506,0.004853138,-0.002042018,0.000000000,237457550.000000000,1748429189.000000000,0.017932022
1748429189.257482,0.005839280,-0.001953105,0.000000000,257448597.000000000,1748429189.000000000,0.017182318
1748429189.277612,-0.003520069,-0.001994577,0.000000000,277464942.000000000,1748429189.000000000,0.023785610
1748429189.297733,0.003890112,-0.001967901,0.000000000,297611973.000000000,1748429189.000000000,0.018727124
1748429189.317465,-0.000883734,-0.001978558,0.000000000,317429394.000000000,1748429189.000000000,0.022119489
1748429189.337528,0.002073269,-0.001942189,0.000000000,337452081.000000000,1748429189.000000000,0.020106802
1748429189.357603,0.005950882,-0.001897228,0.000000000,357467244.000000000,1748429189.000000000,0.017443324
1748429189.377525,0.002128645,-0.001904093,0.000000000,377465806.000000000,1748429189.000000000,0.020170795
1748429189.397657,0.000298589,-0.001885479,0.000000000,397581577.000000000,1748429189.000000000,0.021481199
1748429189.417561,0.002510963,-0.001876240,0.000000000,417449914.000000000,1748429189.000000000,0.020026306
1748429189.437511,-0.000650083,-0.001894993,0.000000000,437431945.000000000,1748429189.000000000,0.022319596
1748429189.457537,-0.001634095,-0.001940024,0.000000000,457481362.000000000,1748429189.000000000,0.023163727
1748429189.477546,-0.003675197,-0.001958216,0.000000000,477468562.000000000,1748429189.000000000,0.024688210
1748429189.497766,-0.001445370,-0.002012739,0.000000000,497633597.000000000,1748429189.000000000,0.023341067
1748429189.517483,-0.000286710,-0.002006073,0.000000000,517443884.000000000,1748429189.000000000,0.022621628
1748429189.537544,-0.002498737,-0.002054648,0.000000000,537457504.000000000,1748429189.000000000,0.024322195
1748429189.557522,0.001046357,-0.002039276,0.000000000,557441449.000000000,1748429189.000000000,0.021946615
1748429189.577543,0.004955364,-0.002008391,0.000000000,577492118.000000000,1748429189.000000000,0.019291595
1748429189.597687,0.001455376,-0.001934396,0.000000000,597586339.000000000,1748429189.000000000,0.021654550
1748429189.617513,0.001310561,-0.001947322,0.000000000,617439418.000000000,1748429189.000000000,0.021864325
1748429189.637521,0.003752682,-0.001875186,0.000000000,637461664.000000000,1748429189.000000000,0.020139182
1748429189.657537,0.002637033,-0.001778290,0.000000000,657459153.000000000,1748429189.000000000,0.020813668
1748429189.677587,0.003056332,-0.001717659,0.000000000,677507558.000000000,1748429189.000000000,0.020493893
1748429189.697651,0.002394114,-0.001688813,0.000000000,697545404.000000000,1748429189.000000000,0.020973673
1748429189.717511,0.002639459,-0.001663848,0.000000000,717445450.000000000,1748429189.000000000,0.020834761
1748429189.737471,0.001596573,-0.001633567,0.000000000,737436638.000000000,1748429189.000000000,0.021571452
1748429189.757488,0.003266395,-0.001584259,0.000000000,757464505.000000000,1748429189.000000000,0.020405410
1748429189.777587,-0.001279364,-0.001587238,0.000000000,777507490.000000000,1748429189.000000000,0.023609640
1748429189.797603,0.001179968,-0.001555638,0.000000000,797521961.000000000,1748429189.000000000,0.021930618
1748429189.817511,0.001142089,-0.001567140,0.000000000,817446714.000000000,1748429189.000000000,0.022047270
1748429189.837511,0.000052601,-0.001596170,0.000000000,837460194.000000000,1748429189.000000000,0.022920076
1748429189.857513,0.000649873,-0.001645757,0.000000000,857475737.000000000,1748429189.000000000,0.022671083
1748429189.877533,0.001983706,-0.001668216,0.000000000,877438271.000000000,1748429189.000000000,0.021867912
1748429189.897646,-0.004680301,-0.001722933,0.000000000,897570464.000000000,1748429189.000000000,0.026628003
1748429189.917461,0.001340049,-0.001775556,0.000000000,917428331.000000000,1748429189.000000000,0.022658605
1748429189.937525,-0.008064441,-0.001841744,0.000000000,937469673.000000000,1748429189.000000000,0.029330183
1748429189.957496,-0.002430341,-0.001892183,0.000000000,957456553.000000000,1748429189.000000000,0.025627889
1748429189.977524,-0.003652991,-0.001943931,0.000000000,977449935.000000000,1748429189.000000000,0.026648372
1748429189.997648,0.002354036,-0.001878752,0.000000000,997493711.000000000,1748429189.000000000,0.022482777
1748429190.017541,0.001912233,-0.001890892,0.000000000,17464751.000000000,1748429190.000000000,0.022892985
1748429190.037482,0.001896501,-0.001821238,0.000000000,37433406.000000000,1748429190.000000000,0.022861103
1748429190.057549,-0.001437674,-0.001756681,0.000000000,57496950.000000000,1748429190.000000000,0.025118839
1748429190.077554,0.007397319,-0.001725334,0.000000000,77483539.000000000,1748429190.000000000,0.019060761
1748429190.097637,0.007225795,-0.001603587,0.000000000,97595614.000000000,1748429190.000000000,0.019033490
1748429190.117516,0.002268693,-0.001522890,0.000000000,117452219.000000000,1748429190.000000000,0.022368735
1748429190.137522,0.002447776,-0.001423805,0.000000000,137467752.000000000,1748429190.000000000,0.022132566
1748429190.157583,0.007956695,-0.001336749,0.000000000,157531567.000000000,1748429190.000000000,0.018246483
1748429190.177500,0.008656465,-0.001232505,0.000000000,177430752.000000000,1748429190.000000000,0.017634274
1748429190.197568,0.003695323,-0.001146215,0.000000000,197511487.000000000,1748429190.000000000,0.020945486
1748429190.217494,0.003522470,-0.001093958,0.000000000,217454294.000000000,1748429190.000000000,0.021020204
1748429190.237518,0.003681873,-0.000995252,0.000000000,237463897.000000000,1748429190.000000000,0.020779084
1748429190.257546,0.002223855,-0.000963989,0.000000000,257507623.000000000,1748429190.000000000,0.021769732
1748429190.277525,0.005528884,-0.000908466,0.000000000,277460198.000000000,1748429190.000000000,0.019437199
1748429190.297668,0.001882397,-0.000838279,0.000000000,297612869.000000000,1748429190.000000000,0.021858731
1748429190.317488,0.002756337,-0.000775431,0.000000000,317437574.000000000,1748429190.000000000,0.021180023
1748429190.337511,0.000580292,-0.000796845,0.000000000,337451244.000000000,1748429190.000000000,0.022751167
1748429190.357533,0.000978451,-0.000762824,0.000000000,357494139.000000000,1748429190.000000000,0.022450669
1748429190.377499,-0.001727903,-0.000769827,0.000000000,377431065.000000000,1748429190.000000000,0.024359822
1748429190.397553,-0.002521966,-0.000771382,0.000000000,397516650.000000000,1748429190.000000000,0.024943484
1748429190.417480,0.001811655,-0.000742429,0.000000000,417435412.000000000,1748429190.000000000,0.021943115
1748429190.437505,-0.001819532,-0.000783808,0.000000000,437462477.000000000,1748429190.000000000,0.024550546
1748429190.457552,-0.001694225,-0.000796634,0.000000000,457491846.000000000,1748429190.000000000,0.024522813
1748429190.477557,-0.002313278,-0.000842582,0.000000000,477488615.000000000,1748429190.000000000,0.025068367
1748429190.497655,-0.000065893,-0.000891967,0.000000000,497612752.000000000,1748429190.000000000,0.023649860
1748429190.517497,0.001509651,-0.000917032,0.000000000,517446915.000000000,1748429190.000000000,0.022651419
1748429190.537521,0.002240634,-0.000880296,0.000000000,537461777.000000000,1748429190.000000000,0.022122316
1748429190.557573,0.001325964,-0.000835815,0.000000000,557521233.000000000,1748429190.000000000,0.022709792
1748429190.577547,-0.000849634,-0.000842579,0.000000000,577496130.000000000,1748429190.000000000,0.024256559
1748429190.597561,0.004448021,-0.000871891,0.000000000,597491917.000000000,1748429190.000000000,0.020702485
1748429190.617501,-0.003654435,-0.000855641,0.000000000,617439472.000000000,1748429190.000000000,0.026287086
1748429190.637490,0.003860298,-0.000787854,0.000000000,637417666.000000000,1748429190.000000000,0.021030601
1748429190.657537,0.000908510,-0.000745479,0.000000000,657493412.000000000,1748429190.000000000,0.023019532
1748429190.677535,0.005736229,-0.000651956,0.000000000,677483358.000000000,1748429190.000000000,0.019560033
1748429190.697621,0.003390684,-0.000557649,0.000000000,697569844.000000000,1748429190.000000000,0.021030838
1748429190.717537,0.007603678,-0.000465882,0.000000000,717469310.000000000,1748429190.000000000,0.017989136
1748429190.737532,-0.000373082,-0.000473610,0.000000000,737450859.000000000,1748429190.000000000,0.023512904
1748429190.757545,0.001175162,-0.000463852,0.000000000,757512399.000000000,1748429190.000000000,0.022450905
1748429190.777546,0.003148200,-0.000416193,0.000000000,777490192.000000000,1748429190.000000000,0.021026922
1748429190.797632,0.001233150,-0.000359000,0.000000000,797594372.000000000,1748429190.000000000,0.022258775
1748429190.817477,0.002706155,-0.000300416,0.000000000,817428404.000000000,1748429190.000000000,0.021154206
1748429190.837541,0.001593395,-0.000249100,0.000000000,837481468.000000000,1748429190.000000000,0.021839567
1748429190.857565,0.006977251,-0.000122703,0.000000000,857490249.000000000,1748429190.000000000,0.017915120
1748429190.877593,-0.000740943,-0.000126687,0.000000000,877500373.000000000,1748429190.000000000,0.023238776
1748429190.897506,-0.000593878,-0.000115566,0.000000000,897445784.000000000,1748429190.000000000,0.023122927
1748429190.917475,-0.000952975,-0.000078773,0.000000000,917426502.000000000,1748429190.000000000,0.023307964
1748429190.937536,0.001764499,-0.000054773,0.000000000,937459729.000000000,1748429190.000000000,0.021397738
1748429190.957591,0.001000945,-0.000021726,0.000000000,957507042.000000000,1748429190.000000000,0.021865206
1748429190.977543,-0.001958182,-0.000081065,0.000000000,977458004.000000000,1748429190.000000000,0.024010777
1748429190.997691,-0.002464070,-0.000119598,0.000000000,997579637.000000000,1748429190.000000000,0.024432912
1748429191.017499,-0.001756569,-0.000154453,0.000000000,17451361.000000000,1748429191.000000000,0.024015117
1748429191.037562,0.001650161,-0.000209929,0.000000000,37485549.000000000,1748429191.000000000,0.021779221
1748429191.057560,-0.002651705,-0.000298154,0.000000000,57497576.000000000,1748429191.000000000,0.024909932
1748429191.077604,-0.003653316,-0.000348747,0.000000000,77468756.000000000,1748429191.000000000,0.025704917
1748429191.097705,-0.003613581,-0.000386636,0.000000000,97585460.000000000,1748429191.000000000,0.025762405
1748429191.117492,-0.001955429,-0.000452957,0.000000000,117434300.000000000,1748429191.000000000,0.024759904
1748429191.137540,0.000411823,-0.000463518,0.000000000,137461054.000000000,1748429191.000000000,0.023170553
1748429191.157525,-0.002470650,-0.000494100,0.000000000,157478151.000000000,1748429191.000000000,0.025230590
1748429191.177511,-0.002243242,-0.000550565,0.000000000,177454852.000000000,1748429191.000000000,0.025199383
1748429191.197556,0.001892994,-0.000560771,0.000000000,197512143.000000000,1748429191.000000000,0.022396509
1748429191.217568,-0.003089644,-0.000584492,0.000000000,217514512.000000000,1748429191.000000000,0.025893485
1748429191.237506,0.000302304,-0.000619760,0.000000000,237461347.000000000,1748429191.000000000,0.023650067
1748429191.257502,-0.004140382,-0.000608842,0.000000000,257463355.000000000,1748429191.000000000,0.026714846
1748429191.277563,0.000038807,-0.000617412,0.000000000,277482134.000000000,1748429191.000000000,0.023882035
1748429191.297637,0.001297521,-0.000597820,0.000000000,297527574.000000000,1748429191.000000000,0.023007728
1748429191.317487,-0.000235864,-0.000573245,0.000000000,317443320.000000000,1748429191.000000000,0.024044681
1748429191.337517,-0.001866034,-0.000580291,0.000000000,337472649.000000000,1748429191.000000000,0.025204912
1748429191.357486,-0.002284899,-0.000584202,0.000000000,357449841.000000000,1748429191.000000000,0.025526231
1748429191.377557,-0.002663140,-0.000633859,0.000000000,377498847.000000000,1748429191.000000000,0.025903361
1748429191.397621,-0.005008595,-0.000657925,0.000000000,397571909.000000000,1748429191.000000000,0.027589589
1748429191.417481,0.000855554,-0.000704368,0.000000000,417428924.000000000,1748429191.000000000,0.023668755
1748429191.437541,0.000541083,-0.000741617,0.000000000,437478261.000000000,1748429191.000000000,0.023984704
1748429191.457542,-0.001512031,-0.000789201,0.000000000,457493364.000000000,1748429191.000000000,0.025517564
1748429191.477618,0.000162424,-0.000791337,0.000000000,477526621.000000000,1748429191.000000000,0.024404570
1748429191.497644,0.002485660,-0.000830553,0.000000000,497561751.000000000,1748429191.000000000,0.022913000
1748429191.517515,0.001416960,-0.000879342,0.000000000,517439095.000000000,1748429191.000000000,0.023774663
1748429191.537526,-0.001746570,-0.000867544,0.000000000,537463675.000000000,1748429191.000000000,0.025969256
1748429191.557553,-0.001827045,-0.000934623,0.000000000,557490380.000000000,1748429191.000000000,0.026185999
1748429191.577564,-0.001350359,-0.000962893,0.000000000,577475366.000000000,1748429191.000000000,0.025951445
1748429191.597587,-0.002572963,-0.000953410,0.000000000,597510887.000000000,1748429191.000000000,0.026818452
1748429191.617484,-0.000216035,-0.001013894,0.000000000,617435079.000000000,1748429191.000000000,0.025349807
1748429191.637586,0.000021628,-0.000994076,0.000000000,637492210.000000000,1748429191.000000000,0.025195403
1748429191.657527,-0.001839343,-0.000998731,0.000000000,657490271.000000000,1748429191.000000000,0.026528900
1748429191.677549,-0.000405362,-0.001016148,0.000000000,677470047.000000000,1748429191.000000000,0.025618669
1748429191.697628,0.000478553,-0.000978350,0.000000000,697586661.000000000,1748429191.000000000,0.024986824
1748429191.717659,0.000852788,-0.000935900,0.000000000,717553613.000000000,1748429191.000000000,0.024695503
1748429191.738118,-0.000598608,-0.000895047,0.000000000,737522078.000000000,1748429191.000000000,0.025661414
1748429191.757604,0.002128616,-0.000823948,0.000000000,757518155.000000000,1748429191.000000000,0.023694929
1748429191.777588,-0.002060207,-0.000829609,0.000000000,777502340.000000000,1748429191.000000000,0.026624449
1748429191.797652,0.003145591,-0.000819884,0.000000000,797573137.000000000,1748429191.000000000,0.023061672
1748429191.817487,0.004435153,-0.000783210,0.000000000,817442556.000000000,1748429191.000000000,0.022143979
1748429191.837482,0.000303630,-0.000773219,0.000000000,837448221.000000000,1748429191.000000000,0.025003651
1748429191.857550,0.003139849,-0.000711757,0.000000000,857499702.000000000,1748429191.000000000,0.022974325
1748429191.877533,-0.000318528,-0.000744977,0.000000000,877482564.000000000,1748429191.000000000,0.025446564
1748429191.897685,-0.005136876,-0.000832656,0.000000000,897617021.000000000,1748429191.000000000,0.028955597
1748429191.917473,0.000313980,-0.000894503,0.000000000,917431376.000000000,1748429191.000000000,0.025355108
1748429191.937520,-0.004123708,-0.000949421,0.000000000,937472027.000000000,1748429191.000000000,0.028549032
1748429191.957534,0.000860311,-0.000987793,0.000000000,957489183.000000000,1748429191.000000000,0.025232103
1748429191.977536,-0.003763388,-0.001000985,0.000000000,977463449.000000000,1748429191.000000000,0.028481951
1748429191.997701,-0.003458001,-0.001063772,0.000000000,997617283.000000000,1748429191.000000000,0.028431306
1748429192.017510,-0.001869777,-0.001109962,0.000000000,17443551.000000000,1748429192.000000000,0.027470423
1748429192.037531,-0.002220295,-0.001078469,0.000000000,37455968.000000000,1748429192.000000000,0.027703708
1748429192.057556,0.000970426,-0.001049989,0.000000000,57510485.000000000,1748429192.000000000,0.025504366
1748429192.077546,0.001489980,-0.001068688,0.000000000,77469993.000000000,1748429192.000000000,0.025227984
1748429192.097591,-0.002253024,-0.001065870,0.000000000,97513469.000000000,1748429192.000000000,0.027846189
1748429192.117517,0.000963775,-0.001076892,0.000000000,117468309.000000000,1748429192.000000000,0.025700517
1748429192.137522,0.004136772,-0.001046158,0.000000000,137452884.000000000,1748429192.000000000,0.023509180
1748429192.157550,0.004159947,-0.001014734,0.000000000,157501039.000000000,1748429192.000000000,0.023482602
1748429192.177582,0.003059244,-0.000928930,0.000000000,177533183.000000000,1748429192.000000000,0.024128594
1748429192.197754,0.003435677,-0.000874265,0.000000000,197687417.000000000,1748429192.000000000,0.023811229
1748429192.217486,0.003056455,-0.000859556,0.000000000,217437642.000000000,1748429192.000000000,0.024084395
1748429192.237519,0.002751324,-0.000818567,0.000000000,237465960.000000000,1748429192.000000000,0.024257900
1748429192.257590,-0.000394677,-0.000813005,0.000000000,257542939.000000000,1748429192.000000000,0.026449110
1748429192.277541,-0.001591238,-0.000873084,0.000000000,277448055.000000000,1748429192.000000000,0.027418599
1748429192.297577,-0.000864186,-0.000890604,0.000000000,297528069.000000000,1748429192.000000000,0.026989374
1748429192.317472,-0.002823879,-0.000881069,0.000000000,317436442.000000000,1748429192.000000000,0.028360248
1748429192.337550,-0.000293044,-0.000836742,0.000000000,337478896.000000000,1748429192.000000000,0.026577188
1748429192.357550,-0.001717539,-0.000865134,0.000000000,357504919.000000000,1748429192.000000000,0.027646683
1748429192.377532,0.000048042,-0.000855591,0.000000000,377480938.000000000,1748429192.000000000,0.026453042
1748429192.397632,0.001439200,-0.000847984,0.000000000,397589627.000000000,1748429192.000000000,0.025520146
1748429192.417554,-0.001715729,-0.000847384,0.000000000,417486467.000000000,1748429192.000000000,0.027727880
1748429192.437482,0.004068073,-0.000774712,0.000000000,437445875.000000000,1748429192.000000000,0.023653155
1748429192.457481,-0.002265422,-0.000795417,0.000000000,457444397.000000000,1748429192.000000000,0.028083712
1748429192.477517,-0.000179059,-0.000846842,0.000000000,477457826.000000000,1748429192.000000000,0.026777623
1748429192.497595,0.000114065,-0.000761124,0.000000000,497544674.000000000,1748429192.000000000,0.026457172
1748429192.517505,0.001421404,-0.000726921,0.000000000,517457714.000000000,1748429192.000000000,0.025529135
1748429192.537474,-0.001971631,-0.000692726,0.000000000,537436409.000000000,1748429192.000000000,0.027833909
1748429192.557523,-0.000099321,-0.000693398,0.000000000,557466019.000000000,1748429192.000000000,0.026577782
1748429192.577570,-0.003398367,-0.000724414,0.000000000,577493585.000000000,1748429192.000000000,0.028935540
1748429192.597705,0.001274887,-0.000727374,0.000000000,597593827.000000000,1748429192.000000000,0.025757680
1748429192.617485,-0.002854320,-0.000796021,0.000000000,617446575.000000000,1748429192.000000000,0.028756948
1748429192.637543,0.001307084,-0.000802559,0.000000000,637471817.000000000,1748429192.000000000,0.025941031
1748429192.657578,-0.000614252,-0.000820998,0.000000000,657534769.000000000,1748429192.000000000,0.027332686
1748429192.677558,-0.003488519,-0.000829833,0.000000000,677477546.000000000,1748429192.000000000,0.029363332
1748429192.697689,-0.000400843,-0.000931563,0.000000000,697629326.000000000,1748429192.000000000,0.027461698
1748429192.717526,0.001054289,-0.000957519,0.000000000,717466744.000000000,1748429192.000000000,0.026549511
1748429192.737552,-0.004052082,-0.001015589,0.000000000,737466017.000000000,1748429192.000000000,0.030212134
1748429192.757618,0.003988432,-0.000988076,0.000000000,757519753.000000000,1748429192.000000000,0.024674604
1748429192.777550,-0.000420794,-0.001007496,0.000000000,777471937.000000000,1748429192.000000000,0.027788267
1748429192.797639,0.003699232,-0.000939196,0.000000000,797546782.000000000,1748429192.000000000,0.024873534
1748429192.817550,-0.002181933,-0.000910693,0.000000000,817485952.000000000,1748429192.000000000,0.028910287
1748429192.837535,0.000818519,-0.000945071,0.000000000,837460759.000000000,1748429192.000000000,0.026949218
1748429192.857515,-0.004331276,-0.000950210,0.000000000,857437830.000000000,1748429192.000000000,0.030544447
1748429192.877573,0.000002869,-0.000959329,0.000000000,877493158.000000000,1748429192.000000000,0.027621280
1748429192.897616,0.000960880,-0.000914565,0.000000000,897552013.000000000,1748429192.000000000,0.026923181
1748429192.917511,-0.003336169,-0.000906413,0.000000000,917461477.000000000,1748429192.000000000,0.029905986
1748429192.937518,0.004160689,-0.000918254,0.000000000,937444600.000000000,1748429192.000000000,0.024809569
1748429192.957560,0.000473589,-0.000885966,0.000000000,957513724.000000000,1748429192.000000000,0.027328731
1748429192.977581,0.001416907,-0.000908238,0.000000000,977498079.000000000,1748429192.000000000,0.026759954
1748429192.997600,0.001135120,-0.000896718,0.000000000,997538309.000000000,1748429192.000000000,0.026973419
1748429193.017497,0.003316557,-0.000830152,0.000000000,17446391.000000000,1748429193.000000000,0.025390845
1748429193.037539,0.002576194,-0.000848256,0.000000000,37474648.000000000,1748429193.000000000,0.025970494
1748429193.057564,0.003532076,-0.000863332,0.000000000,57510439.000000000,1748429193.000000000,0.025378235
1748429193.077564,-0.001586121,-0.000888844,0.000000000,77493983.000000000,1748429193.000000000,0.028985292
1748429193.097671,-0.001512519,-0.000908278,0.000000000,97571683.000000000,1748429193.000000000,0.029009908
1748429193.117478,0.002995966,-0.000898119,0.000000000,117436594.000000000,1748429193.000000000,0.025929675
1748429193.137515,0.000834223,-0.000910768,0.000000000,137466935.000000000,1748429193.000000000,0.027480451
1748429193.157549,-0.001832515,-0.000958228,0.000000000,157508046.000000000,1748429193.000000000,0.029442888
1748429193.177588,-0.004521854,-0.001036812,0.000000000,177493053.000000000,1748429193.000000000,0.031479862
1748429193.197672,0.002850817,-0.001024306,0.000000000,197607432.000000000,1748429193.000000000,0.026430245
1748429193.217508,0.000166847,-0.001078210,0.000000000,217461412.000000000,1748429193.000000000,0.028421389
1748429193.237514,-0.005530957,-0.001141516,0.000000000,237453742.000000000,1748429193.000000000,0.032505941
1748429193.257580,-0.003289054,-0.001219473,0.000000000,257512186.000000000,1748429193.000000000,0.031156782
1748429193.277603,-0.002188358,-0.001276090,0.000000000,277539952.000000000,1748429193.000000000,0.030557385
1748429193.297691,-0.002207996,-0.001283558,0.000000000,297568380.000000000,1748429193.000000000,0.030641610
1748429193.317515,0.000573325,-0.001299332,0.000000000,317456264.000000000,1748429193.000000000,0.028814010
1748429193.337539,0.000511288,-0.001271178,0.000000000,337492376.000000000,1748429193.000000000,0.028863363
1748429193.357483,0.001288804,-0.001243778,0.000000000,357442456.000000000,1748429193.000000000,0.028335137
1748429193.377563,-0.000617666,-0.001257385,0.000000000,377465554.000000000,1748429193.000000000,0.029727466
1748429193.397697,0.000727481,-0.001206374,0.000000000,397553834.000000000,1748429193.000000000,0.028764896
1748429193.417482,0.007232012,-0.001131214,0.000000000,417435115.000000000,1748429193.000000000,0.024205748
1748429193.437497,0.000009264,-0.001086671,0.000000000,437446501.000000000,1748429193.000000000,0.029144920
1748429193.457593,-0.001017307,-0.001047829,0.000000000,457523460.000000000,1748429193.000000000,0.029828928
1748429193.477580,0.004771223,-0.000986486,0.000000000,477471246.000000000,1748429193.000000000,0.025780616
1748429193.497579,0.002253324,-0.000935789,0.000000000,497512308.000000000,1748429193.000000000,0.027464664
1748429193.517579,0.003741415,-0.000924672,0.000000000,517471315.000000000,1748429193.000000000,0.026462246
1748429193.537556,-0.000119611,-0.000905638,0.000000000,537466350.000000000,1748429193.000000000,0.029125590
1748429193.557567,0.003940320,-0.000864804,0.000000000,557524964.000000000,1748429193.000000000,0.026297843
1748429193.577571,-0.000463957,-0.000835454,0.000000000,577505131.000000000,1748429193.000000000,0.029313471
1748429193.597979,-0.001392108,-0.000812973,0.000000000,597845104.000000000,1748429193.000000000,0.029948415
1748429193.617517,-0.002399982,-0.000866548,0.000000000,617446149.000000000,1748429193.000000000,0.030776186
1748429193.637528,-0.004083158,-0.000923807,0.000000000,637472583.000000000,1748429193.000000000,0.032077760
1748429193.657558,-0.002121258,-0.000913218,0.000000000,657485141.000000000,1748429193.000000000,0.030749742
1748429193.677756,0.002293495,-0.000907967,0.000000000,677648181.000000000,1748429193.000000000,0.027743196
1748429193.697677,-0.000461446,-0.000901350,0.000000000,697612809.000000000,1748429193.000000000,0.029667385
1748429193.717472,-0.000807487,-0.000913017,0.000000000,717431994.000000000,1748429193.000000000,0.029967126
1748429193.737561,-0.008202427,-0.000979297,0.000000000,737516868.000000000,1748429193.000000000,0.035217524
1748429193.757536,-0.004811619,-0.001118064,0.000000000,757487807.000000000,1748429193.000000000,0.033181660
1748429193.777575,-0.003047654,-0.001161302,0.000000000,777491859.000000000,1748429193.000000000,0.032096885
1748429193.797608,-0.003584425,-0.001212338,0.000000000,797508735.000000000,1748429193.000000000,0.032611426
1748429193.817526,-0.002479573,-0.001233186,0.000000000,817470738.000000000,1748429193.000000000,0.031943489
1748429193.837477,-0.000062069,-0.001258113,0.000000000,837419696.000000000,1748429193.000000000,0.030380704
1748429193.857642,0.000510759,-0.001312086,0.000000000,857515290.000000000,1748429193.000000000,0.030141424
1748429193.877595,0.000037851,-0.001290976,0.000000000,877509604.000000000,1748429193.000000000,0.030486939
1748429193.897653,0.000443716,-0.001318065,0.000000000,897588997.000000000,1748429193.000000000,0.030314896
1748429193.917562,-0.000661330,-0.001288329,0.000000000,917477392.000000000,1748429193.000000000,0.031079892
1748429193.937496,-0.000535425,-0.001307376,0.000000000,937447640.000000000,1748429193.000000000,0.031085677
1748429193.957529,0.002111621,-0.001247851,0.000000000,957470247.000000000,1748429193.000000000,0.029213946
1748429193.977552,0.001828474,-0.001215418,0.000000000,977471444.000000000,1748429193.000000000,0.029405324
1748429193.997644,0.005753369,-0.001193054,0.000000000,997547871.000000000,1748429193.000000000,0.026718097
1748429194.017538,0.002826823,-0.001162960,0.000000000,17462155.000000000,1748429194.000000000,0.028730219
1748429194.037603,0.001393675,-0.001160976,0.000000000,37506572.000000000,1748429194.000000000,0.029764753
1748429194.057506,0.003185037,-0.001051632,0.000000000,57447676.000000000,1748429194.000000000,0.028384244
1748429194.077620,0.002138682,-0.000988180,0.000000000,77563548.000000000,1748429194.000000000,0.029035330
1748429194.097539,0.000484538,-0.000915334,0.000000000,97482069.000000000,1748429194.000000000,0.030084636
1748429194.117573,0.000979853,-0.000839699,0.000000000,117509735.000000000,1748429194.000000000,0.029646542
1748429194.137595,-0.004083666,-0.000853139,0.000000000,137516593.000000000,1748429194.000000000,0.033192858
1748429194.157601,-0.005633425,-0.000866959,0.000000000,157504254.000000000,1748429194.000000000,0.034322657
1748429194.177601,-0.003694337,-0.000917560,0.000000000,177543061.000000000,1748429194.000000000,0.033119600
1748429194.197662,-0.002747119,-0.000926908,0.000000000,197579053.000000000,1748429194.000000000,0.032525934
1748429194.217535,-0.002972207,-0.001012444,0.000000000,217499117.000000000,1748429194.000000000,0.032878567
1748429194.237625,-0.002962866,-0.001045832,0.000000000,237519920.000000000,1748429194.000000000,0.032978423
1748429194.257517,-0.001731538,-0.001033230,0.000000000,257439353.000000000,1748429194.000000000,0.032154888
1748429194.277624,0.002411409,-0.001032467,0.000000000,277517675.000000000,1748429194.000000000,0.029348942
1748429194.297715,-0.003051575,-0.001050072,0.000000000,297613890.000000000,1748429194.000000000,0.033186361
1748429194.317562,-0.001811214,-0.001092238,0.000000000,317498147.000000000,1748429194.000000000,0.032456879
1748429194.337580,-0.001706053,-0.001138128,0.000000000,337506617.000000000,1748429194.000000000,0.032517217
1748429194.357629,0.002278014,-0.001093169,0.000000000,357548480.000000000,1748429194.000000000,0.029744530
1748429194.377643,0.001458399,-0.001149165,0.000000000,377547813.000000000,1748429194.000000000,0.030459711
1748429194.397655,-0.000066300,-0.001169258,0.000000000,397573836.000000000,1748429194.000000000,0.031596966
1748429194.417576,-0.001611952,-0.001201038,0.000000000,417511583.000000000,1748429194.000000000,0.032770887
1748429194.437589,-0.001326721,-0.001211559,0.000000000,437504985.000000000,1748429194.000000000,0.032647558
1748429194.457535,-0.000570233,-0.001271937,0.000000000,457488659.000000000,1748429194.000000000,0.032291528
1748429194.477630,0.000758731,-0.001201196,0.000000000,477533467.000000000,1748429194.000000000,0.031304691
1748429194.497668,-0.005544647,-0.001208663,0.000000000,497626717.000000000,1748429194.000000000,0.035709411
1748429194.517639,0.000709156,-0.001266375,0.000000000,517589181.000000000,1748429194.000000000,0.031565674
1748429194.537612,-0.003402541,-0.001303345,0.000000000,537523191.000000000,1748429194.000000000,0.034519117
1748429194.557558,-0.002804871,-0.001274651,0.000000000,557528365.000000000,1748429194.000000000,0.034113720
1748429194.577635,-0.002340200,-0.001266371,0.000000000,577552314.000000000,1748429194.000000000,0.033835858
1748429194.597775,0.002110088,-0.001254720,0.000000000,597628582.000000000,1748429194.000000000,0.030808959
1748429194.617550,-0.001358897,-0.001294436,0.000000000,617505104.000000000,1748429194.000000000,0.033324651
1748429194.637543,-0.003390081,-0.001330250,0.000000000,637502233.000000000,1748429194.000000000,0.034845639
1748429194.657590,-0.003480756,-0.001379780,0.000000000,657512537.000000000,1748429194.000000000,0.035058025
1748429194.677586,-0.002435510,-0.001416851,0.000000000,677513984.000000000,1748429194.000000000,0.034468237
1748429194.697684,-0.002905222,-0.001448522,0.000000000,697607443.000000000,1748429194.000000000,0.034912683
1748429194.717556,-0.003567958,-0.001503075,0.000000000,717494966.000000000,1748429194.000000000,0.035533171
1748429194.737578,-0.003051364,-0.001551446,0.000000000,737495802.000000000,1748429194.000000000,0.035333306
1748429194.757630,-0.000173995,-0.001548611,0.000000000,757557453.000000000,1748429194.000000000,0.033417594
1748429194.777611,-0.002798144,-0.001562751,0.000000000,777533752.000000000,1748429194.000000000,0.035318363
1748429194.797675,0.000834082,-0.001569852,0.000000000,797591575.000000000,1748429194.000000000,0.032901891
1748429194.817560,0.002606901,-0.001532168,0.000000000,817502192.000000000,1748429194.000000000,0.031683367
1748429194.837581,0.000124448,-0.001519654,0.000000000,837506864.000000000,1748429194.000000000,0.033437196
1748429194.857681,0.000493003,-0.001529518,0.000000000,857540933.000000000,1748429194.000000000,0.033269577
1748429194.877621,0.001512589,-0.001489141,0.000000000,877539354.000000000,1748429194.000000000,0.032562628
1748429194.897694,-0.002779548,-0.001452519,0.000000000,897590905.000000000,1748429194.000000000,0.035515729
1748429194.917557,0.002510729,-0.001442353,0.000000000,917482726.000000000,1748429194.000000000,0.031921871
1748429194.937577,0.003048583,-0.001369010,0.000000000,937514691.000000000,1748429194.000000000,0.031482264
1748429194.957588,0.000764799,-0.001332991,0.000000000,957535164.000000000,1748429194.000000000,0.033049148
1748429194.977622,0.000286985,-0.001286803,0.000000000,977547190.000000000,1748429194.000000000,0.033353150
1748429194.998001,-0.002883678,-0.001247985,0.000000000,997882615.000000000,1748429194.000000000,0.035521504
1748429195.017580,0.001524489,-0.001230844,0.000000000,17506693.000000000,1748429195.000000000,0.032512736
1748429195.037606,-0.002126784,-0.001211764,0.000000000,37521365.000000000,1748429195.000000000,0.035045359
1748429195.057588,-0.000861753,-0.001133964,0.000000000,57503045.000000000,1748429195.000000000,0.034086924
1748429195.077634,-0.002658046,-0.001179187,0.000000000,77536001.000000000,1748429195.000000000,0.035456300
1748429195.097706,-0.002538026,-0.001254631,0.000000000,97629190.000000000,1748429195.000000000,0.035564303
1748429195.117545,-0.006386944,-0.001339060,0.000000000,117509620.000000000,1748429195.000000000,0.038423121
1748429195.137587,-0.001403898,-0.001429347,0.000000000,137515866.000000000,1748429195.000000000,0.035219148
1748429195.157593,-0.005424017,-0.001530269,0.000000000,157539805.000000000,1748429195.000000000,0.038233720
1748429195.177619,-0.006526375,-0.001596838,0.000000000,177542034.000000000,1748429195.000000000,0.039182328
1748429195.197724,-0.002702211,-0.001649572,0.000000000,197632147.000000000,1748429195.000000000,0.036718689
1748429195.217606,-0.001829807,-0.001641823,0.000000000,217534668.000000000,1748429195.000000000,0.036178000
1748429195.237633,-0.000666364,-0.001657333,0.000000000,237535133.000000000,1748429195.000000000,0.035479203
1748429195.257631,0.004096747,-0.001548180,0.000000000,257551579.000000000,1748429195.000000000,0.032076381
1748429195.277626,0.006190547,-0.001467104,0.000000000,277558797.000000000,1748429195.000000000,0.030556729
1748429195.297719,0.005772843,-0.001383515,0.000000000,297606481.000000000,1748429195.000000000,0.030757027
1748429195.317577,0.001970046,-0.001237691,0.000000000,317503802.000000000,1748429195.000000000,0.033169154
1748429195.337601,0.000863902,-0.001165845,0.000000000,337527962.000000000,1748429195.000000000,0.033854365
1748429195.357596,0.003869156,-0.001048283,0.000000000,357552031.000000000,1748429195.000000000,0.031623777
1748429195.377660,0.007392976,-0.000948373,0.000000000,377550442.000000000,1748429195.000000000,0.029063359
1748429195.397739,0.001539358,-0.000866518,0.000000000,397589209.000000000,1748429195.000000000,0.032984078
1748429195.417574,0.003784304,-0.000744926,0.000000000,417525204.000000000,1748429195.000000000,0.031255905
1748429195.437586,0.002343270,-0.000692241,0.000000000,437532852.000000000,1748429195.000000000,0.032184530
1748429195.457624,0.000755394,-0.000698616,0.000000000,457542184.000000000,1748429195.000000000,0.033319756
1748429195.477600,0.002005268,-0.000667926,0.000000000,477530466.000000000,1748429195.000000000,0.032434888
1748429195.497709,-0.003109629,-0.000646917,0.000000000,497647230.000000000,1748429195.000000000,0.035945930
1748429195.517598,-0.003417042,-0.000700860,0.000000000,517536266.000000000,1748429195.000000000,0.036284953
1748429195.537603,-0.003387867,-0.000772752,0.000000000,537534547.000000000,1748429195.000000000,0.036427587
1748429195.557672,-0.004662632,-0.000880959,0.000000000,557608841.000000000,1748429195.000000000,0.037537027
1748429195.577645,-0.009150756,-0.001002440,0.000000000,577564512.000000000,1748429195.000000000,0.040886678
1748429195.597663,-0.008217364,-0.001120043,0.000000000,597563354.000000000,1748429195.000000000,0.040504128
1748429195.617595,-0.001664101,-0.001214087,0.000000000,617536538.000000000,1748429195.000000000,0.036216758
1748429195.637599,-0.001605710,-0.001250376,0.000000000,637529819.000000000,1748429195.000000000,0.036297183
1748429195.657583,-0.005327275,-0.001272242,0.000000000,657543449.000000000,1748429195.000000000,0.038953863
1748429195.677658,-0.000820092,-0.001337094,0.000000000,677578680.000000000,1748429195.000000000,0.036027871
1748429195.697753,-0.003182529,-0.001372569,0.000000000,697667471.000000000,1748429195.000000000,0.037778083
1748429195.717585,0.004198848,-0.001320362,0.000000000,717519507.000000000,1748429195.000000000,0.032664947
1748429195.737595,0.005010332,-0.001273027,0.000000000,737556551.000000000,1748429195.000000000,0.032079127
1748429195.757587,0.001148671,-0.001188892,0.000000000,757555353.000000000,1748429195.000000000,0.034639530
1748429195.777590,0.001325558,-0.001160807,0.000000000,777524750.000000000,1748429195.000000000,0.034519669
