__time,/fmu/out/sensor_combined/accel_calibration_count,/fmu/out/sensor_combined/accelerometer_clipping,/fmu/out/sensor_combined/accelerometer_integral_dt,/fmu/out/sensor_combined/accelerometer_m_s2[0],/fmu/out/sensor_combined/accelerometer_m_s2[1],/fmu/out/sensor_combined/accelerometer_m_s2[2],/fmu/out/sensor_combined/accelerometer_timestamp_relative,/fmu/out/sensor_combined/gyro_calibration_count,/fmu/out/sensor_combined/gyro_clipping,/fmu/out/sensor_combined/gyro_integral_dt,/fmu/out/sensor_combined/gyro_rad[0],/fmu/out/sensor_combined/gyro_rad[1],/fmu/out/sensor_combined/gyro_rad[2],/fmu/out/sensor_combined/timestamp
1748429168.716991,7.000000000,0.000000000,4870.000000000,-0.108654335,-0.926616788,-9.697309494,0.000000000,1.000000000,0.000000000,5001.000000000,0.004501949,-0.007282399,0.000793970,1748429168717298.000000000
1748429168.726977,7.000000000,0.000000000,4872.000000000,-0.023094395,-0.983552337,-9.695428848,0.000000000,1.000000000,0.000000000,5002.000000000,0.003596857,-0.004618622,0.004787430,1748429168727301.000000000
1748429168.736977,7.000000000,0.000000000,4870.000000000,0.028985545,-1.053772807,-9.695426941,0.000000000,1.000000000,0.000000000,5002.000000000,0.003327892,-0.001635549,0.000047645,1748429168737304.000000000
1748429168.748946,7.000000000,0.000000000,4871.000000000,0.019685507,-1.013918996,-9.702948570,0.000000000,1.000000000,0.000000000,5001.000000000,0.000987655,-0.000890668,-0.005438122,1748429168742305.000000000
1748429168.757029,7.000000000,0.000000000,4872.000000000,-0.002634431,-0.901944697,-9.695428848,0.000000000,1.000000000,0.000000000,5002.000000000,0.002744641,-0.003979472,-0.013801425,1748429168757310.000000000
1748429168.767987,7.000000000,0.000000000,4873.000000000,0.045724697,-0.919025898,-9.693550110,0.000000000,1.000000000,0.000000000,5001.000000000,0.000612972,0.002890296,-0.008741416,1748429168767312.000000000
1748429168.776982,7.000000000,0.000000000,4872.000000000,0.135005400,-0.917127550,-9.682269096,0.000000000,1.000000000,0.000000000,5001.000000000,-0.002368794,-0.007015630,-0.011404905,1748429168777315.000000000
1748429168.786997,7.000000000,0.000000000,4870.000000000,0.159185380,-0.892455459,-9.733026505,0.000000000,1.000000000,0.000000000,5002.000000000,-0.004339363,-0.000836946,0.002816708,1748429168787318.000000000
1748429168.797968,7.000000000,0.000000000,4871.000000000,0.036427435,-0.835521102,-9.751823425,0.000000000,1.000000000,0.000000000,5002.000000000,0.005620856,-0.004245788,0.015919443,1748429168797321.000000000
1748429168.806988,7.000000000,0.000000000,4871.000000000,0.032703608,-0.881070316,-9.719868660,0.000000000,1.000000000,0.000000000,5001.000000000,-0.002368522,0.005128634,0.008036288,1748429168807324.000000000
1748429168.816967,7.000000000,0.000000000,4871.000000000,0.034567807,-0.924715817,-9.684150696,0.000000000,1.000000000,0.000000000,5002.000000000,0.002265273,0.005820965,0.005426588,1748429168817327.000000000
1748429168.830048,7.000000000,0.000000000,7307.000000000,0.071767531,-0.979124188,-9.670992851,0.000000000,1.000000000,0.000000000,5001.000000000,-0.001249890,-0.002647939,0.004788053,1748429168827329.000000000
1748429168.838933,7.000000000,0.000000000,4871.000000000,0.040139798,-0.983553588,-9.693543434,0.000000000,1.000000000,0.000000000,5002.000000000,-0.004179557,0.007152549,0.000845952,1748429168832331.000000000
1748429168.848935,7.000000000,0.000000000,4871.000000000,-0.062150586,-0.915212154,-9.719863892,0.000000000,1.000000000,0.000000000,5001.000000000,-0.003220663,-0.000890765,-0.000326873,1748429168847335.000000000
1748429168.858987,7.000000000,0.000000000,4872.000000000,-0.006354463,-0.930412471,-9.691668510,0.000000000,1.000000000,0.000000000,5002.000000000,0.002052214,-0.001369581,-0.005865208,1748429168857338.000000000
1748429168.867040,7.000000000,0.000000000,4871.000000000,-0.017514417,-0.936103702,-9.680390358,0.000000000,1.000000000,0.000000000,5001.000000000,-0.000769582,-0.000731342,-0.010445395,1748429168867341.000000000
1748429168.876985,7.000000000,0.000000000,4871.000000000,0.068044715,-0.951289654,-9.716109276,0.000000000,1.000000000,0.000000000,5002.000000000,0.003437084,0.000494634,-0.013535107,1748429168877344.000000000
1748429168.886986,7.000000000,0.000000000,4870.000000000,0.043865498,-0.913331807,-9.740547180,0.000000000,1.000000000,0.000000000,5002.000000000,-0.000664217,-0.002754417,-0.007250052,1748429168887347.000000000
1748429168.898956,7.000000000,0.000000000,4872.000000000,0.002945574,-0.854498386,-9.734908104,0.000000000,1.000000000,0.000000000,5001.000000000,0.001466993,-0.002062140,-0.001764228,1748429168897349.000000000
1748429168.906994,7.000000000,0.000000000,4871.000000000,0.006666707,-0.875374854,-9.704828262,0.000000000,1.000000000,0.000000000,5003.000000000,0.002956248,0.000976719,0.001268808,1748429168907354.000000000
1748429168.917021,7.000000000,0.000000000,7307.000000000,0.037045352,-0.944962978,-9.684777260,0.000000000,1.000000000,0.000000000,5001.000000000,0.003011059,-0.000037647,-0.000273860,1748429168917355.000000000
1748429168.927976,7.000000000,0.000000000,4871.000000000,0.053166267,-0.930416048,-9.727386475,0.000000000,1.000000000,0.000000000,5001.000000000,0.002959595,0.001826334,-0.002243200,1748429168927358.000000000
1748429168.938086,7.000000000,0.000000000,4871.000000000,0.023407074,-0.928514719,-9.723628998,0.000000000,1.000000000,0.000000000,5001.000000000,0.002745352,0.002091797,0.009047772,1748429168932359.000000000
1748429168.948004,7.000000000,0.000000000,4871.000000000,-0.008216318,-0.975961387,-9.704826355,0.000000000,1.000000000,0.000000000,5003.000000000,-0.003273168,-0.003340037,0.005638710,1748429168947365.000000000
1748429168.957110,7.000000000,0.000000000,4870.000000000,-0.021234421,-0.985450208,-9.667228699,0.000000000,1.000000000,0.000000000,5001.000000000,-0.003380697,-0.004352616,-0.002883854,1748429168957366.000000000
1748429168.967016,7.000000000,0.000000000,4870.000000000,0.032705519,-0.983552337,-9.663469315,0.000000000,1.000000000,0.000000000,5001.000000000,0.003010654,-0.000144629,-0.002136828,1748429168967369.000000000
1748429168.977000,7.000000000,0.000000000,4872.000000000,0.055025481,-0.975960970,-9.734908104,0.000000000,1.000000000,0.000000000,5001.000000000,0.004395777,-0.003659421,0.003561647,1748429168977372.000000000
1748429168.987024,7.000000000,0.000000000,4871.000000000,0.032710526,-0.894351721,-9.716107368,0.000000000,1.000000000,0.000000000,5001.000000000,-0.000025612,-0.000197280,-0.000751852,1748429168987375.000000000
1748429168.998055,7.000000000,0.000000000,4872.000000000,0.032705519,-0.877272606,-9.721748352,0.000000000,1.000000000,0.000000000,5002.000000000,0.004395788,-0.004405587,-0.002296573,1748429168997378.000000000
1748429169.008957,7.000000000,0.000000000,4871.000000000,0.014107468,-0.879168093,-9.676626205,0.000000000,1.000000000,0.000000000,5001.000000000,0.002798521,0.005128209,-0.000006054,1748429169007380.000000000
1748429169.019393,7.000000000,0.000000000,4871.000000000,0.058748934,-0.888659418,-9.725507736,0.000000000,1.000000000,0.000000000,5001.000000000,0.000719132,0.004483217,0.005476564,1748429169017383.000000000
1748429169.030119,7.000000000,0.000000000,4874.000000000,0.006660224,-0.911426961,-9.734906197,0.000000000,1.000000000,0.000000000,5001.000000000,-0.003061082,0.000919849,0.008569065,1748429169027386.000000000
1748429169.038032,7.000000000,0.000000000,4870.000000000,0.010385524,-0.871579051,-9.736786842,0.000000000,1.000000000,0.000000000,5002.000000000,-0.002155580,-0.000464102,0.003988488,1748429169037389.000000000
1748429169.048098,7.000000000,0.000000000,4871.000000000,-0.017513636,-0.911433637,-9.736786842,0.000000000,1.000000000,0.000000000,5001.000000000,0.001891519,-0.000197531,0.001859690,1748429169042390.000000000
1748429169.057931,7.000000000,0.000000000,4870.000000000,-0.039834414,-0.962675929,-9.659709930,0.000000000,1.000000000,0.000000000,5002.000000000,-0.002368639,-0.008080735,-0.003681416,1748429169057395.000000000
1748429169.066998,7.000000000,0.000000000,4870.000000000,0.025265509,-0.987347901,-9.680389404,0.000000000,1.000000000,0.000000000,5002.000000000,-0.004712211,0.003211066,-0.003468363,1748429169067398.000000000
1748429169.077970,7.000000000,0.000000000,4872.000000000,0.047585502,-0.958880305,-9.734907150,0.000000000,1.000000000,0.000000000,5001.000000000,-0.000984406,0.002784932,-0.001816954,1748429169077400.000000000
1748429169.086975,7.000000000,0.000000000,4871.000000000,0.042003997,-0.892456591,-9.717988968,0.000000000,1.000000000,0.000000000,5001.000000000,-0.002581654,-0.003393966,-0.000273902,1748429169087403.000000000
1748429169.100916,7.000000000,0.000000000,4871.000000000,0.042010102,-0.922815204,-9.691674232,0.000000000,1.000000000,0.000000000,5002.000000000,0.002531579,-0.000783687,-0.009061003,1748429169092405.000000000
1748429169.109021,7.000000000,0.000000000,7308.000000000,0.045722440,-0.947494805,-9.687280655,0.000000000,1.000000000,0.000000000,5003.000000000,-0.007269027,-0.000623796,0.006970792,1748429169107410.000000000
1748429169.118077,7.000000000,0.000000000,4868.000000000,0.034563988,-0.945591450,-9.684151649,0.000000000,1.000000000,0.000000000,5000.000000000,0.003490319,0.000974018,0.003509118,1748429169112410.000000000
1748429169.127930,7.000000000,0.000000000,4871.000000000,0.036422834,-0.850701571,-9.736786842,0.000000000,1.000000000,0.000000000,5001.000000000,-0.001888722,0.003796473,0.004519366,1748429169122413.000000000
1748429169.138028,7.000000000,0.000000000,4871.000000000,-0.023092482,-0.831726074,-9.733027458,0.000000000,1.000000000,0.000000000,5001.000000000,-0.003541411,0.000548012,0.005533998,1748429169137417.000000000
1748429169.147079,7.000000000,0.000000000,4871.000000000,0.008522484,-0.966472447,-9.691666603,0.000000000,1.000000000,0.000000000,5001.000000000,-0.006256563,-0.002542699,-0.000698819,1748429169147420.000000000
1748429169.157034,7.000000000,0.000000000,4871.000000000,-0.017515169,-0.956983626,-9.678506851,0.000000000,1.000000000,0.000000000,5001.000000000,0.002477207,0.002305469,-0.001764541,1748429169157423.000000000
1748429169.167003,7.000000000,0.000000000,4871.000000000,-0.019376330,-0.932312667,-9.702948570,0.000000000,1.000000000,0.000000000,5002.000000000,-0.002262103,-0.002647889,-0.000379102,1748429169167426.000000000
1748429169.179987,7.000000000,0.000000000,4871.000000000,-0.011935568,-0.898148239,-9.712346077,0.000000000,1.000000000,0.000000000,5002.000000000,0.001679384,0.000814220,-0.003255305,1748429169177453.000000000
1748429169.187067,7.000000000,0.000000000,4871.000000000,0.015966313,-0.972161710,-9.695426941,0.000000000,1.000000000,0.000000000,5001.000000000,-0.005191537,-0.002008912,-0.007622780,1748429169187455.000000000
1748429169.197090,7.000000000,0.000000000,4871.000000000,0.038283240,-0.983551145,-9.678508759,0.000000000,1.000000000,0.000000000,5001.000000000,0.002532275,-0.005257742,-0.007676096,1748429169197458.000000000
1748429169.208056,7.000000000,0.000000000,4870.000000000,0.034565493,-0.975960910,-9.687909126,0.000000000,1.000000000,0.000000000,5001.000000000,0.005089146,0.000441815,0.006173022,1748429169207461.000000000
1748429169.217984,7.000000000,0.000000000,4870.000000000,0.014105558,-0.924718976,-9.695427895,0.000000000,1.000000000,0.000000000,5001.000000000,-0.003220257,-0.000091763,0.004201593,1748429169212462.000000000
1748429169.228008,7.000000000,0.000000000,4871.000000000,0.012242488,-0.896250844,-9.736785889,0.000000000,1.000000000,0.000000000,5001.000000000,0.002637653,-0.001103403,0.003402419,1748429169227467.000000000
1748429169.237921,7.000000000,0.000000000,4871.000000000,0.012244021,-0.896255434,-9.736788750,0.000000000,1.000000000,0.000000000,5002.000000000,-0.003913260,-0.001156531,0.008941968,1748429169237470.000000000
1748429169.247045,7.000000000,0.000000000,4871.000000000,0.008524800,-0.934208572,-9.704826355,0.000000000,1.000000000,0.000000000,5002.000000000,-0.002262113,0.006406853,0.005799430,1748429169247473.000000000
1748429169.256991,7.000000000,0.000000000,4870.000000000,0.008525523,-0.941799760,-9.704828262,0.000000000,1.000000000,0.000000000,5002.000000000,0.004182738,-0.000836932,0.007077754,1748429169257476.000000000
1748429169.267004,7.000000000,0.000000000,4871.000000000,0.023409359,-0.900049627,-9.723627090,0.000000000,1.000000000,0.000000000,5001.000000000,0.000241094,-0.001049494,-0.000804107,1748429169267478.000000000
1748429169.277016,7.000000000,0.000000000,4870.000000000,0.030845515,-0.930412471,-9.708588600,0.000000000,1.000000000,0.000000000,5001.000000000,-0.002847567,0.003263374,0.001538995,1748429169277481.000000000
1748429169.287935,7.000000000,0.000000000,4870.000000000,0.053165514,-0.932310283,-9.714227676,0.000000000,1.000000000,0.000000000,5002.000000000,0.000241263,0.004382857,-0.010818684,1748429169287484.000000000
1748429169.297078,7.000000000,0.000000000,4871.000000000,0.040144369,-0.989245117,-9.672867775,0.000000000,1.000000000,0.000000000,5002.000000000,0.000134741,0.000547902,-0.002190047,1748429169297487.000000000
1748429169.309985,7.000000000,0.000000000,4871.000000000,-0.004494057,-0.970268965,-9.689787865,0.000000000,1.000000000,0.000000000,5002.000000000,-0.003646945,0.001559916,-0.006024996,1748429169307490.000000000
1748429169.318040,7.000000000,0.000000000,4871.000000000,0.021543628,-0.901947856,-9.706708908,0.000000000,1.000000000,0.000000000,5001.000000000,-0.001568825,-0.001370922,0.002763818,1748429169312491.000000000
1748429169.327937,7.000000000,0.000000000,4871.000000000,-0.019375548,-0.896251559,-9.731145859,0.000000000,1.000000000,0.000000000,5001.000000000,0.004928822,-0.001794780,0.004574548,1748429169327495.000000000
1748429169.336995,7.000000000,0.000000000,4870.000000000,-0.010074438,-0.917127430,-9.684147835,0.000000000,1.000000000,0.000000000,5001.000000000,0.004556620,-0.002275134,0.001698232,1748429169337498.000000000
1748429169.347075,7.000000000,0.000000000,4870.000000000,-0.002634460,-0.871579051,-9.699187279,0.000000000,1.000000000,0.000000000,5001.000000000,-0.002582039,-0.001156508,0.002232166,1748429169347501.000000000
1748429169.357970,7.000000000,0.000000000,4871.000000000,0.002920744,-0.896257043,-9.697308540,0.000000000,1.000000000,0.000000000,5001.000000000,-0.005671431,0.000601186,0.000366541,1748429169357504.000000000
1748429169.367003,7.000000000,0.000000000,4870.000000000,0.015965531,-0.875374854,-9.757464409,0.000000000,1.000000000,0.000000000,5002.000000000,0.004076232,0.000228325,-0.010712158,1748429169367507.000000000
1748429169.376986,7.000000000,0.000000000,4872.000000000,-0.008218257,-0.924709558,-9.719871521,0.000000000,1.000000000,0.000000000,5002.000000000,-0.002688211,0.005820959,-0.007250052,1748429169377510.000000000
1748429169.388958,7.000000000,0.000000000,7306.000000000,0.039525822,-0.952554524,-9.716107368,0.000000000,1.000000000,0.000000000,5001.000000000,0.005781326,-0.003127595,-0.002669048,1748429169387512.000000000
1748429169.398027,7.000000000,0.000000000,4871.000000000,0.073622048,-0.962677598,-9.665352821,0.000000000,1.000000000,0.000000000,5002.000000000,-0.004073053,-0.003340318,0.000632903,1748429169392514.000000000
1748429169.407996,7.000000000,0.000000000,4871.000000000,0.030844765,-0.955083013,-9.695428848,0.000000000,1.000000000,0.000000000,5002.000000000,0.001466324,-0.002594629,-0.004320573,1748429169402517.000000000
1748429169.417974,7.000000000,0.000000000,4871.000000000,0.032706678,-0.936102092,-9.706707001,0.000000000,1.000000000,0.000000000,5001.000000000,0.004076399,0.003850091,0.001803751,1748429169417521.000000000
1748429169.427924,7.000000000,0.000000000,4871.000000000,0.042007063,-0.924721241,-9.738667488,0.000000000,1.000000000,0.000000000,5002.000000000,-0.002421903,-0.000037985,0.003296057,1748429169427524.000000000
1748429169.437026,7.000000000,0.000000000,4870.000000000,0.045725472,-0.928514659,-9.733026505,0.000000000,1.000000000,0.000000000,5001.000000000,0.000615550,-0.002061063,0.002709262,1748429169432525.000000000
1748429169.448034,7.000000000,0.000000000,4870.000000000,0.008525523,-0.903842628,-9.689788818,0.000000000,1.000000000,0.000000000,5001.000000000,0.002638729,0.004596636,0.003934028,1748429169447529.000000000
1748429169.457949,7.000000000,0.000000000,4871.000000000,-0.008211745,-0.920927167,-9.691666603,0.000000000,1.000000000,0.000000000,5001.000000000,0.007325571,-0.003181149,0.007398290,1748429169457532.000000000
1748429169.467908,7.000000000,0.000000000,4871.000000000,0.019686317,-0.862089455,-9.736785889,0.000000000,1.000000000,0.000000000,5001.000000000,-0.000610847,0.004916031,-0.002562465,1748429169467535.000000000
1748429169.477006,7.000000000,0.000000000,4871.000000000,0.017824404,-0.867784202,-9.712346077,0.000000000,1.000000000,0.000000000,5002.000000000,-0.000397888,-0.001476089,-0.004746682,1748429169477538.000000000
1748429169.487996,7.000000000,0.000000000,7306.000000000,0.018450772,-0.923447728,-9.681022644,0.000000000,1.000000000,0.000000000,5001.000000000,-0.000878104,-0.000836167,-0.002988911,1748429169482539.000000000
1748429169.498953,7.000000000,0.000000000,4870.000000000,0.030845545,-0.941799581,-9.686030388,0.000000000,1.000000000,0.000000000,5001.000000000,-0.006044658,0.006459475,0.003082533,1748429169497543.000000000
1748429169.510039,7.000000000,0.000000000,4871.000000000,0.021543628,-0.985452533,-9.697306633,0.000000000,1.000000000,0.000000000,5001.000000000,0.004289423,-0.000090760,-0.002777391,1748429169507546.000000000
1748429169.518043,7.000000000,0.000000000,4871.000000000,0.045724750,-0.951288879,-9.719867706,0.000000000,1.000000000,0.000000000,5002.000000000,-0.001463159,0.000015269,-0.001763939,1748429169512548.000000000
1748429169.529021,7.000000000,0.000000000,4871.000000000,0.019687850,-0.956982076,-9.704830170,0.000000000,1.000000000,0.000000000,5001.000000000,0.005141248,0.000227696,0.001165278,1748429169527552.000000000
1748429169.538921,7.000000000,0.000000000,4870.000000000,-0.011934440,-0.939901710,-9.693549156,0.000000000,1.000000000,0.000000000,5001.000000000,-0.000770432,-0.002328984,0.000953508,1748429169537555.000000000
1748429169.547035,7.000000000,0.000000000,4871.000000000,0.004807834,-0.926617920,-9.704830170,0.000000000,1.000000000,0.000000000,5002.000000000,0.007326580,-0.005310163,0.000954471,1748429169547558.000000000
1748429169.557008,7.000000000,0.000000000,4871.000000000,-0.004493276,-0.877275407,-9.714227676,0.000000000,1.000000000,0.000000000,5001.000000000,-0.001888843,0.003317833,-0.001390673,1748429169557560.000000000
1748429169.568974,7.000000000,0.000000000,4872.000000000,0.002945545,-0.875374794,-9.734906197,0.000000000,1.000000000,0.000000000,5001.000000000,0.000029488,-0.005043729,-0.002616548,1748429169567563.000000000
1748429169.578068,7.000000000,0.000000000,4870.000000000,0.051305480,-0.924718857,-9.714227676,0.000000000,1.000000000,0.000000000,5001.000000000,-0.000610235,-0.002699807,-0.003255278,1748429169577566.000000000
1748429169.586942,7.000000000,0.000000000,4871.000000000,0.028985919,-0.928515375,-9.670992851,0.000000000,1.000000000,0.000000000,5001.000000000,-0.000398207,-0.005738512,-0.003254531,1748429169582567.000000000
1748429169.597974,7.000000000,0.000000000,7302.000000000,0.025868205,-0.937378049,-9.708591461,0.000000000,1.000000000,0.000000000,5002.000000000,0.003703376,-0.002807695,-0.002935735,1748429169592571.000000000
1748429169.607033,7.000000000,0.000000000,4871.000000000,0.012247090,-0.919029713,-9.714228630,0.000000000,1.000000000,0.000000000,5001.000000000,-0.004233650,0.001452624,-0.007516026,1748429169602573.000000000
1748429169.618952,7.000000000,0.000000000,4871.000000000,0.056886252,-0.949389815,-9.716107368,0.000000000,1.000000000,0.000000000,5001.000000000,0.000507996,0.000546909,0.000100549,1748429169612576.000000000
1748429169.629001,7.000000000,0.000000000,4870.000000000,0.055025510,-0.987347901,-9.686030388,0.000000000,1.000000000,0.000000000,5002.000000000,-0.003380665,0.008697159,-0.008315327,1748429169627581.000000000
1748429169.638989,7.000000000,0.000000000,4871.000000000,0.021544380,-0.970267355,-9.686029434,0.000000000,1.000000000,0.000000000,5001.000000000,-0.000984605,-0.001581708,0.003989698,1748429169637583.000000000
1748429169.648129,7.000000000,0.000000000,4870.000000000,0.001085544,-0.913331807,-9.697309494,0.000000000,1.000000000,0.000000000,5001.000000000,0.001946395,-0.003979616,-0.003150732,1748429169647586.000000000
1748429169.657031,7.000000000,0.000000000,4871.000000000,0.015967844,-0.901939988,-9.731148720,0.000000000,1.000000000,0.000000000,5001.000000000,-0.000770719,-0.004032281,-0.004213335,1748429169657589.000000000
1748429169.667011,7.000000000,0.000000000,4871.000000000,0.053163979,-0.909536839,-9.699184418,0.000000000,1.000000000,0.000000000,5002.000000000,-0.000877263,0.001346847,0.000899223,1748429169667592.000000000
1748429169.678938,7.000000000,0.000000000,4872.000000000,0.042005531,-0.901944697,-9.702947617,0.000000000,1.000000000,0.000000000,5002.000000000,0.002265268,-0.001422837,-0.000219307,1748429169677595.000000000
1748429169.687993,7.000000000,0.000000000,7306.000000000,0.030843955,-0.876647711,-9.694793701,0.000000000,1.000000000,0.000000000,5002.000000000,-0.004499173,-0.001902206,-0.004160776,1748429169687598.000000000
1748429169.698969,7.000000000,0.000000000,4871.000000000,0.014109000,-0.886758804,-9.729267120,0.000000000,1.000000000,0.000000000,5001.000000000,-0.002371986,-0.001424065,-0.001334549,1748429169697600.000000000
1748429169.708057,7.000000000,0.000000000,4870.000000000,0.060605459,-0.871579051,-9.723626137,0.000000000,1.000000000,0.000000000,5002.000000000,-0.004445889,-0.001316318,0.001591651,1748429169702602.000000000
1748429169.718036,7.000000000,0.000000000,4872.000000000,0.073618591,-0.947497904,-9.744300842,0.000000000,1.000000000,0.000000000,5001.000000000,0.002744160,-0.000410274,0.001752041,1748429169717606.000000000
1748429169.727011,7.000000000,0.000000000,4871.000000000,0.012248624,-0.945594847,-9.672865868,0.000000000,1.000000000,0.000000000,5002.000000000,-0.000131577,-0.004991477,-0.005971733,1748429169727609.000000000
1748429169.737041,7.000000000,0.000000000,4871.000000000,-0.004496343,-0.958881736,-9.693550110,0.000000000,1.000000000,0.000000000,5002.000000000,-0.001409897,0.000867482,-0.001337835,1748429169737612.000000000
1748429169.747953,7.000000000,0.000000000,4871.000000000,-0.019374795,-0.955084562,-9.702948570,0.000000000,1.000000000,0.000000000,5002.000000000,-0.001037049,-0.001369569,-0.002935731,1748429169747615.000000000
1748429169.757034,7.000000000,0.000000000,4870.000000000,-0.006354406,-0.920923233,-9.710467339,0.000000000,1.000000000,0.000000000,5001.000000000,0.007697925,0.003157692,-0.004853346,1748429169757617.000000000
1748429169.767938,7.000000000,0.000000000,4871.000000000,-0.008212527,-0.926620305,-9.723628998,0.000000000,1.000000000,0.000000000,5001.000000000,0.004876584,0.001719176,-0.003257698,1748429169767620.000000000
1748429169.780952,7.000000000,0.000000000,7306.000000000,-0.012558667,-0.896887124,-9.682271957,0.000000000,1.000000000,0.000000000,5001.000000000,0.000667943,0.001399414,0.012563562,1748429169777623.000000000
1748429169.788026,7.000000000,0.000000000,4870.000000000,-0.004494432,-0.924718857,-9.702946663,0.000000000,1.000000000,0.000000000,5001.000000000,-0.006575569,-0.001316945,-0.003681644,1748429169782624.000000000
1748429169.797994,7.000000000,0.000000000,4870.000000000,-0.008214437,-0.892455459,-9.725506783,0.000000000,1.000000000,0.000000000,5001.000000000,0.001305314,0.002943520,-0.009540562,1748429169792627.000000000
1748429169.808924,7.000000000,0.000000000,4870.000000000,0.040145524,-0.924718976,-9.706707001,0.000000000,1.000000000,0.000000000,5002.000000000,-0.002954533,0.000441374,-0.004693413,1748429169807632.000000000
1748429169.817930,7.000000000,0.000000000,4870.000000000,0.055023201,-0.928516269,-9.704824448,0.000000000,1.000000000,0.000000000,5002.000000000,0.005461047,0.002465379,-0.008262060,1748429169817635.000000000
1748429169.827049,7.000000000,0.000000000,4870.000000000,0.043864723,-0.943691254,-9.691663742,0.000000000,1.000000000,0.000000000,5001.000000000,-0.002847742,-0.000942871,-0.000966100,1748429169827637.000000000
1748429169.837026,7.000000000,0.000000000,4870.000000000,0.036425494,-0.917127430,-9.670989037,0.000000000,1.000000000,0.000000000,5001.000000000,0.000879987,-0.005789381,0.008676659,1748429169837640.000000000
1748429169.848964,7.000000000,0.000000000,4870.000000000,0.001085544,-0.909536123,-9.725507736,0.000000000,1.000000000,0.000000000,5001.000000000,-0.004073967,-0.002009315,0.007343950,1748429169842641.000000000
1748429169.857942,7.000000000,0.000000000,4871.000000000,0.006660630,-0.898153722,-9.723625183,0.000000000,1.000000000,0.000000000,5002.000000000,-0.002954527,-0.001902204,0.002869960,1748429169857646.000000000
1748429169.867012,7.000000000,0.000000000,4870.000000000,0.001085544,-0.964573741,-9.704828262,0.000000000,1.000000000,0.000000000,5002.000000000,0.003117488,-0.004725156,0.001804691,1748429169867649.000000000
1748429169.877970,7.000000000,0.000000000,7306.000000000,-0.032394405,-0.939891398,-9.676005363,0.000000000,1.000000000,0.000000000,5001.000000000,-0.004871872,0.001080659,0.005693174,1748429169872650.000000000
1748429169.887012,7.000000000,0.000000000,4871.000000000,-0.024954395,-0.930409789,-9.691670418,0.000000000,1.000000000,0.000000000,5001.000000000,0.002585256,-0.001742248,0.006067563,1748429169882653.000000000
1748429169.899075,7.000000000,0.000000000,4871.000000000,-0.041700117,-0.943700552,-9.678508759,0.000000000,1.000000000,0.000000000,5002.000000000,0.000773898,-0.003073995,0.000473114,1748429169892656.000000000
1748429169.907917,7.000000000,0.000000000,4871.000000000,0.014105180,-0.841214240,-9.740544319,0.000000000,1.000000000,0.000000000,5002.000000000,0.002212011,-0.003659891,0.001325319,1748429169907660.000000000
1748429169.917014,7.000000000,0.000000000,4870.000000000,0.040145524,-0.949391007,-9.689788818,0.000000000,1.000000000,0.000000000,5001.000000000,0.003862993,-0.002008148,-0.001443904,1748429169917663.000000000
1748429169.927997,7.000000000,0.000000000,4870.000000000,0.042005498,-0.913331807,-9.691666603,0.000000000,1.000000000,0.000000000,5002.000000000,0.005993686,-0.002008734,-0.005971740,1748429169927666.000000000
1748429169.937029,7.000000000,0.000000000,4871.000000000,0.058746632,-0.875372469,-9.727386475,0.000000000,1.000000000,0.000000000,5001.000000000,-0.006096777,-0.001049010,-0.003254395,1748429169937668.000000000
1748429169.947061,7.000000000,0.000000000,4871.000000000,0.051301315,-0.936109185,-9.723623276,0.000000000,1.000000000,0.000000000,5001.000000000,-0.001623024,-0.003392644,-0.000697241,1748429169947671.000000000
1748429169.957032,7.000000000,0.000000000,4871.000000000,0.049445480,-0.896249950,-9.721748352,0.000000000,1.000000000,0.000000000,5002.000000000,0.000931789,-0.002914543,0.002714959,1748429169957675.000000000
1748429169.968007,7.000000000,0.000000000,4871.000000000,-0.011934787,-0.956985176,-9.712347984,0.000000000,1.000000000,0.000000000,5002.000000000,0.002105479,0.003104556,0.010433332,1748429169967677.000000000
1748429169.978925,7.000000000,0.000000000,4870.000000000,-0.013794413,-0.964573741,-9.663471222,0.000000000,1.000000000,0.000000000,5001.000000000,0.001200892,0.004702643,-0.004107313,1748429169972678.000000000
1748429169.987021,7.000000000,0.000000000,4870.000000000,-0.036114410,-0.975960910,-9.697308540,0.000000000,1.000000000,0.000000000,5004.000000000,-0.001300345,-0.001106409,-0.002026765,1748429169982684.000000000
1748429169.998122,7.000000000,0.000000000,4871.000000000,-0.021231383,-0.949390709,-9.729267120,0.000000000,1.000000000,0.000000000,5001.000000000,-0.000611004,0.003689940,-0.001711256,1748429169992684.000000000
1748429170.009102,7.000000000,0.000000000,4872.000000000,-0.002634460,-0.920923293,-9.712346077,0.000000000,1.000000000,0.000000000,5001.000000000,0.002106029,0.000387712,0.005799423,1748429170007688.000000000
1748429170.017040,7.000000000,0.000000000,4871.000000000,0.043862842,-0.917129099,-9.697310448,0.000000000,1.000000000,0.000000000,5001.000000000,-0.001623994,0.002890669,0.000581024,1748429170017691.000000000
1748429170.027954,7.000000000,0.000000000,4871.000000000,0.034565546,-0.867781043,-9.721748352,0.000000000,1.000000000,0.000000000,5001.000000000,0.001732781,0.001667051,0.011018646,1748429170027694.000000000
1748429170.037022,7.000000000,0.000000000,4871.000000000,0.047584377,-0.915229261,-9.701065063,0.000000000,1.000000000,0.000000000,5002.000000000,0.001413061,-0.000197788,0.002443859,1748429170037697.000000000
1748429170.047979,7.000000000,0.000000000,4871.000000000,0.081068143,-0.913334191,-9.710468292,0.000000000,1.000000000,0.000000000,5002.000000000,-0.008973263,0.000228348,-0.001657407,1748429170047700.000000000
1748429170.058953,7.000000000,0.000000000,7306.000000000,0.068045452,-0.905740023,-9.691042900,0.000000000,1.000000000,0.000000000,5002.000000000,-0.004499160,-0.002221782,0.000632901,1748429170057703.000000000
1748429170.068022,7.000000000,0.000000000,4871.000000000,0.056883216,-0.938004315,-9.684150696,0.000000000,1.000000000,0.000000000,5001.000000000,0.007964314,-0.001956128,-0.000698824,1748429170062704.000000000
1748429170.077945,7.000000000,0.000000000,4871.000000000,-0.008212497,-0.945598125,-9.695429802,0.000000000,1.000000000,0.000000000,5002.000000000,-0.001995793,-0.001422845,-0.003521624,1748429170072707.000000000
1748429170.088913,7.000000000,0.000000000,4871.000000000,0.038287785,-0.955081403,-9.729269028,0.000000000,1.000000000,0.000000000,5001.000000000,0.004874450,-0.002541784,-0.005065742,1748429170087711.000000000
1748429170.099005,7.000000000,0.000000000,4871.000000000,0.032706678,-0.941797674,-9.716109276,0.000000000,1.000000000,0.000000000,5002.000000000,-0.004818746,0.005288311,-0.011564380,1748429170092713.000000000
1748429170.109017,7.000000000,0.000000000,4870.000000000,0.004805547,-0.947493136,-9.706707001,0.000000000,1.000000000,0.000000000,5002.000000000,0.004449067,0.003317582,-0.001018261,1748429170107717.000000000
1748429170.117008,7.000000000,0.000000000,4871.000000000,-0.011936322,-0.936104476,-9.708587646,0.000000000,1.000000000,0.000000000,5001.000000000,-0.004074557,-0.005578199,-0.000805549,1748429170117719.000000000
1748429170.126925,7.000000000,0.000000000,4870.000000000,-0.028674399,-0.884864032,-9.712347031,0.000000000,1.000000000,0.000000000,5002.000000000,0.002957690,-0.004352313,-0.000325835,1748429170122721.000000000
1748429170.138010,7.000000000,0.000000000,4871.000000000,0.004805577,-0.913329542,-9.719868660,0.000000000,1.000000000,0.000000000,5001.000000000,0.002105661,-0.003127605,-0.000859316,1748429170137725.000000000
1748429170.147054,7.000000000,0.000000000,4871.000000000,0.056882445,-0.909537673,-9.706709862,0.000000000,1.000000000,0.000000000,5001.000000000,-0.003914136,-0.000196940,0.002124697,1748429170147728.000000000
1748429170.158023,7.000000000,0.000000000,7306.000000000,0.034563988,-0.893085182,-9.714859009,0.000000000,1.000000000,0.000000000,5001.000000000,-0.000664937,0.004276920,0.006757685,1748429170152729.000000000
1748429170.167933,7.000000000,0.000000000,4870.000000000,0.032705519,-0.941799760,-9.702946663,0.000000000,1.000000000,0.000000000,5001.000000000,0.000561017,0.001505841,0.002816515,1748429170162732.000000000
1748429170.180018,7.000000000,0.000000000,4871.000000000,0.010389751,-0.892458200,-9.719868660,0.000000000,1.000000000,0.000000000,5002.000000000,0.001785898,0.000494641,-0.003894469,1748429170177755.000000000
1748429170.190978,7.000000000,0.000000000,4871.000000000,0.043865904,-0.919024229,-9.686031342,0.000000000,1.000000000,0.000000000,5001.000000000,-0.004924429,-0.003126776,-0.008739243,1748429170187757.000000000
1748429170.201006,7.000000000,0.000000000,4871.000000000,0.004804043,-0.977855682,-9.708585739,0.000000000,1.000000000,0.000000000,5001.000000000,-0.004870773,0.002146478,-0.003308254,1748429170197760.000000000
1748429170.209991,7.000000000,0.000000000,4870.000000000,-0.002634460,-0.924718857,-9.719868660,0.000000000,1.000000000,0.000000000,5001.000000000,0.003223866,0.002518109,0.008675658,1748429170207763.000000000
1748429170.218934,7.000000000,0.000000000,4871.000000000,-0.054713614,-0.958884120,-9.661590576,0.000000000,1.000000000,0.000000000,5001.000000000,0.000561678,0.002944664,-0.001551818,1748429170217766.000000000
1748429170.227923,7.000000000,0.000000000,4871.000000000,-0.008211745,-0.924716651,-9.686031342,0.000000000,1.000000000,0.000000000,5002.000000000,-0.001409896,0.001400104,-0.005279316,1748429170227769.000000000
1748429170.240043,7.000000000,0.000000000,4871.000000000,0.014103648,-0.941801608,-9.702949524,0.000000000,1.000000000,0.000000000,5001.000000000,-0.001356376,0.002038728,0.003562413,1748429170237771.000000000
1748429170.247973,7.000000000,0.000000000,4870.000000000,0.040145494,-0.926616788,-9.729268074,0.000000000,1.000000000,0.000000000,5002.000000000,0.004029815,0.010614219,0.003721005,1748429170247775.000000000
1748429170.258026,7.000000000,0.000000000,4870.000000000,0.040145494,-0.877272606,-9.702946663,0.000000000,1.000000000,0.000000000,5001.000000000,0.001306042,-0.000464484,-0.000965185,1748429170257777.000000000
1748429170.266996,7.000000000,0.000000000,4871.000000000,0.014105934,-0.873471916,-9.687909126,0.000000000,1.000000000,0.000000000,5002.000000000,-0.000238104,0.002092534,0.002177535,1748429170262779.000000000
1748429170.277972,7.000000000,0.000000000,4870.000000000,0.066185459,-0.922821045,-9.727386475,0.000000000,1.000000000,0.000000000,5001.000000000,-0.000078206,0.001720001,-0.000272477,1748429170277783.000000000
1748429170.287928,7.000000000,0.000000000,4870.000000000,0.049445506,-0.924718857,-9.697309494,0.000000000,1.000000000,0.000000000,5002.000000000,0.003863181,0.006193795,-0.003734683,1748429170287786.000000000
1748429170.297073,7.000000000,0.000000000,4871.000000000,0.053164732,-0.924718201,-9.708587646,0.000000000,1.000000000,0.000000000,5002.000000000,-0.004019788,0.001879490,-0.009167527,1748429170297789.000000000
1748429170.307060,7.000000000,0.000000000,4871.000000000,0.001086325,-0.938004971,-9.702948570,0.000000000,1.000000000,0.000000000,5001.000000000,-0.001994640,-0.000198157,-0.000644855,1748429170307791.000000000
1748429170.317026,7.000000000,0.000000000,4867.000000000,-0.002638280,-0.972178876,-9.691658974,0.000000000,1.000000000,0.000000000,5001.000000000,-0.001090428,-0.006269845,-0.002934208,1748429170317794.000000000
1748429170.327934,7.000000000,0.000000000,4870.000000000,0.023405537,-0.947493136,-9.680389404,0.000000000,1.000000000,0.000000000,5001.000000000,-0.003114393,0.000547503,-0.004319066,1748429170327797.000000000
1748429170.340970,7.000000000,0.000000000,7306.000000000,0.032084852,-0.948758304,-9.722373962,0.000000000,1.000000000,0.000000000,5002.000000000,0.002797904,0.004223060,-0.002882469,1748429170337800.000000000
1748429170.348976,7.000000000,0.000000000,4870.000000000,0.021545535,-0.928514659,-9.721746445,0.000000000,1.000000000,0.000000000,5001.000000000,-0.000504248,0.000387983,0.000101636,1748429170342801.000000000
1748429170.358155,7.000000000,0.000000000,4870.000000000,-0.004494433,-0.898148954,-9.714227676,0.000000000,1.000000000,0.000000000,5001.000000000,-0.001942163,-0.004457853,0.004309081,1748429170352804.000000000
1748429170.369940,7.000000000,0.000000000,4871.000000000,0.001085573,-0.888659418,-9.702947617,0.000000000,1.000000000,0.000000000,5001.000000000,-0.002847993,-0.005470212,0.007556671,1748429170362807.000000000
1748429170.378023,7.000000000,0.000000000,4870.000000000,0.008525551,-0.919025481,-9.702946663,0.000000000,1.000000000,0.000000000,5001.000000000,0.003969369,-0.001636629,0.001432953,1748429170377811.000000000
1748429170.388971,7.000000000,0.000000000,4870.000000000,0.047585502,-0.938003898,-9.706707001,0.000000000,1.000000000,0.000000000,5002.000000000,0.000294536,0.000654430,0.003988490,1748429170382813.000000000
1748429170.396935,7.000000000,0.000000000,4870.000000000,0.086645439,-0.915229619,-9.712347031,0.000000000,1.000000000,0.000000000,5002.000000000,0.003330531,0.002092538,0.002656898,1748429170392816.000000000
1748429170.407971,7.000000000,0.000000000,4871.000000000,0.040148187,-0.932310343,-9.712346077,0.000000000,1.000000000,0.000000000,5001.000000000,0.002478421,-0.010850115,-0.003682569,1748429170407820.000000000
1748429170.417917,7.000000000,0.000000000,4871.000000000,0.034563236,-0.930411279,-9.712347984,0.000000000,1.000000000,0.000000000,5002.000000000,0.002797897,-0.004352316,-0.001444359,1748429170417823.000000000
1748429170.429142,7.000000000,0.000000000,7305.000000000,0.039525554,-0.932310283,-9.701067924,0.000000000,1.000000000,0.000000000,5001.000000000,-0.003699910,0.001665776,0.006810202,1748429170427825.000000000
1748429170.438018,7.000000000,0.000000000,4871.000000000,0.012245555,-0.955086946,-9.693549156,0.000000000,1.000000000,0.000000000,5002.000000000,0.007911150,0.003850213,-0.004001015,1748429170432827.000000000
1748429170.447010,7.000000000,0.000000000,4870.000000000,0.001085543,-0.920923233,-9.736786842,0.000000000,1.000000000,0.000000000,5001.000000000,0.002690729,0.004116627,0.000365770,1748429170442830.000000000
1748429170.458040,7.000000000,0.000000000,4871.000000000,-0.030537063,-0.915232420,-9.686027527,0.000000000,1.000000000,0.000000000,5002.000000000,-0.002954525,0.000547911,0.002923215,1748429170452833.000000000
1748429170.467975,7.000000000,0.000000000,4870.000000000,0.015965531,-0.926616788,-9.716107368,0.000000000,1.000000000,0.000000000,5001.000000000,0.000294129,0.001452462,0.001698147,1748429170467837.000000000
1748429170.477941,7.000000000,0.000000000,4870.000000000,0.001085544,-0.932310283,-9.684148788,0.000000000,1.000000000,0.000000000,5002.000000000,-0.000291372,-0.002807690,0.003722167,1748429170477840.000000000
1748429170.487071,7.000000000,0.000000000,4870.000000000,0.032705519,-0.911434054,-9.714227676,0.000000000,1.000000000,0.000000000,5002.000000000,-0.002741460,0.007046020,0.001804683,1748429170487843.000000000
1748429170.499041,7.000000000,0.000000000,4870.000000000,0.014105529,-0.911434054,-9.714227676,0.000000000,1.000000000,0.000000000,5001.000000000,0.001307467,-0.004459235,0.003401694,1748429170497845.000000000
1748429170.507946,7.000000000,0.000000000,4870.000000000,0.028986298,-0.934213698,-9.716107368,0.000000000,1.000000000,0.000000000,5001.000000000,0.008018231,0.005448467,-0.000592547,1748429170507848.000000000
1748429170.519932,7.000000000,0.000000000,4870.000000000,0.045725472,-0.934208155,-9.712347031,0.000000000,1.000000000,0.000000000,5002.000000000,0.001253267,-0.003233787,-0.002988994,1748429170512850.000000000
1748429170.531016,7.000000000,0.000000000,4870.000000000,0.045725472,-0.907638311,-9.701066971,0.000000000,1.000000000,0.000000000,5000.000000000,0.002052050,-0.001901076,0.001590234,1748429170527854.000000000
1748429170.539029,7.000000000,0.000000000,4870.000000000,0.032705490,-0.900046885,-9.723626137,0.000000000,1.000000000,0.000000000,5001.000000000,-0.002421331,-0.001102388,0.006758084,1748429170532855.000000000
1748429170.548918,7.000000000,0.000000000,4871.000000000,0.045726284,-0.928514719,-9.725506783,0.000000000,1.000000000,0.000000000,5001.000000000,0.002424835,-0.003021072,0.002284587,1748429170542858.000000000
1748429170.557976,7.000000000,0.000000000,4871.000000000,0.008527810,-0.913331807,-9.712346077,0.000000000,1.000000000,0.000000000,5002.000000000,0.004076220,0.004489379,0.003242798,1748429170557863.000000000
1748429170.567983,7.000000000,0.000000000,4871.000000000,0.040144369,-0.919025779,-9.710468292,0.000000000,1.000000000,0.000000000,5001.000000000,-0.001675978,-0.001103516,-0.000273329,1748429170567865.000000000
1748429170.577073,7.000000000,0.000000000,4870.000000000,0.021545535,-0.896251202,-9.714227676,0.000000000,1.000000000,0.000000000,5001.000000000,-0.003913200,-0.003766341,0.002018579,1748429170577868.000000000
1748429170.587025,7.000000000,0.000000000,4870.000000000,0.014103242,-0.896255016,-9.714227676,0.000000000,1.000000000,0.000000000,5001.000000000,-0.003593836,0.001613406,0.003881483,1748429170587871.000000000
1748429170.597087,7.000000000,0.000000000,4870.000000000,0.015965503,-0.905740380,-9.706707001,0.000000000,1.000000000,0.000000000,5002.000000000,-0.002208843,-0.006376310,-0.001444369,1748429170597874.000000000
1748429170.607021,7.000000000,0.000000000,4871.000000000,-0.006355968,-0.909536839,-9.699189186,0.000000000,1.000000000,0.000000000,5002.000000000,-0.002581679,0.005181807,-0.000112781,1748429170607877.000000000
1748429170.617934,7.000000000,0.000000000,4870.000000000,0.023405507,-0.932310283,-9.699188232,0.000000000,1.000000000,0.000000000,5001.000000000,0.002850576,-0.002648197,-0.000752052,1748429170617880.000000000
1748429170.627027,7.000000000,0.000000000,4871.000000000,0.019687850,-0.909534574,-9.689789772,0.000000000,1.000000000,0.000000000,5001.000000000,-0.004393136,-0.004352402,-0.000590926,1748429170622881.000000000
1748429170.638189,7.000000000,0.000000000,5358.000000000,0.032163978,-0.911858320,-9.694517136,0.000000000,1.000000000,0.000000000,5001.000000000,0.005194694,-0.001370156,-0.003041162,1748429170637885.000000000
1748429170.649126,7.000000000,0.000000000,4870.000000000,0.015965531,-0.951288819,-9.695427895,0.000000000,1.000000000,0.000000000,5001.000000000,0.002051830,0.001506397,-0.001763972,1748429170647888.000000000
1748429170.658942,7.000000000,0.000000000,4871.000000000,0.036426682,-0.924718857,-9.693549156,0.000000000,1.000000000,0.000000000,5002.000000000,0.002531589,-0.003926202,0.000419851,1748429170657891.000000000
1748429170.668926,7.000000000,0.000000000,4870.000000000,0.028985545,-0.928514659,-9.702946663,0.000000000,1.000000000,0.000000000,5001.000000000,-0.001729237,0.003317722,-0.003895804,1748429170662892.000000000
1748429170.678931,7.000000000,0.000000000,4870.000000000,0.019685533,-0.930412471,-9.699188232,0.000000000,1.000000000,0.000000000,5002.000000000,-0.011796205,0.002412145,0.003296067,1748429170677897.000000000
1748429170.688946,7.000000000,0.000000000,4871.000000000,0.019685507,-0.907637119,-9.725509644,0.000000000,1.000000000,0.000000000,5001.000000000,-0.005511353,-0.002541868,0.001964663,1748429170687899.000000000
1748429170.698929,7.000000000,0.000000000,4870.000000000,0.017825505,-0.894353330,-9.714227676,0.000000000,1.000000000,0.000000000,5001.000000000,-0.006576842,0.000069288,0.002977911,1748429170697902.000000000
1748429170.707983,7.000000000,0.000000000,4871.000000000,0.006662858,-0.919025004,-9.689789772,0.000000000,1.000000000,0.000000000,5001.000000000,-0.003113970,0.002199417,0.002708986,1748429170707905.000000000
1748429170.718941,7.000000000,0.000000000,4870.000000000,0.027125511,-0.941799581,-9.727386475,0.000000000,1.000000000,0.000000000,5001.000000000,0.000507518,-0.004673287,0.007984979,1748429170717908.000000000
1748429170.730087,7.000000000,0.000000000,7305.000000000,0.028376771,-0.937370181,-9.688535690,0.000000000,1.000000000,0.000000000,5002.000000000,-0.004712220,0.001772939,0.003189540,1748429170727911.000000000
1748429170.738926,7.000000000,0.000000000,4871.000000000,0.032704391,-0.943699121,-9.697306633,0.000000000,1.000000000,0.000000000,5001.000000000,0.004822793,-0.001742026,-0.003414460,1748429170732912.000000000
1748429170.748022,7.000000000,0.000000000,4871.000000000,-0.013795166,-0.962680638,-9.717988014,0.000000000,1.000000000,0.000000000,5002.000000000,-0.003221034,-0.004406171,0.004043965,1748429170742916.000000000
1748429170.758000,7.000000000,0.000000000,4870.000000000,0.036425494,-0.949391007,-9.691666603,0.000000000,1.000000000,0.000000000,5001.000000000,-0.000236900,-0.001103877,0.000473023,1748429170752918.000000000
1748429170.767996,7.000000000,0.000000000,4870.000000000,0.015965531,-0.909536004,-9.716107368,0.000000000,1.000000000,0.000000000,5001.000000000,0.002585099,-0.005045440,-0.005066506,1748429170767922.000000000
1748429170.777998,7.000000000,0.000000000,4870.000000000,0.032705519,-0.894353330,-9.736786842,0.000000000,1.000000000,0.000000000,5001.000000000,0.006046915,-0.001103226,-0.002667909,1748429170777925.000000000
1748429170.787942,7.000000000,0.000000000,4870.000000000,0.002945516,-0.900046885,-9.719868660,0.000000000,1.000000000,0.000000000,5001.000000000,-0.008760672,-0.004032471,-0.003095994,1748429170787928.000000000
1748429170.799917,7.000000000,0.000000000,4871.000000000,-0.008213279,-0.901944757,-9.721748352,0.000000000,1.000000000,0.000000000,5002.000000000,-0.000823995,-0.003553369,0.002923223,1748429170797931.000000000
1748429170.807952,7.000000000,0.000000000,4871.000000000,-0.011934817,-0.913327992,-9.716108322,0.000000000,1.000000000,0.000000000,5001.000000000,0.001467441,-0.001795462,0.002762919,1748429170807933.000000000
1748429170.817950,7.000000000,0.000000000,7306.000000000,0.013483850,-0.928516269,-9.706082344,0.000000000,1.000000000,0.000000000,5001.000000000,0.001092939,0.003531227,-0.002775513,1748429170817936.000000000
1748429170.828992,7.000000000,0.000000000,4872.000000000,0.023405539,-0.926616848,-9.706707954,0.000000000,1.000000000,0.000000000,5002.000000000,0.001892441,0.002625155,0.006971233,1748429170822938.000000000
1748429170.838012,7.000000000,0.000000000,4871.000000000,0.019684782,-0.905738056,-9.708587646,0.000000000,1.000000000,0.000000000,5002.000000000,0.002158737,-0.006908950,0.000313327,1748429170832941.000000000
1748429170.848025,7.000000000,0.000000000,4872.000000000,0.040145498,-0.930412471,-9.687909126,0.000000000,1.000000000,0.000000000,5001.000000000,0.003010444,-0.001742356,0.001696783,1748429170842943.000000000
1748429170.857997,7.000000000,0.000000000,4871.000000000,0.047586665,-0.964573503,-9.699188232,0.000000000,1.000000000,0.000000000,5001.000000000,-0.001570029,-0.004404966,-0.002083506,1748429170852946.000000000
1748429170.868043,7.000000000,0.000000000,4871.000000000,0.032705925,-0.917128325,-9.716107368,0.000000000,1.000000000,0.000000000,5002.000000000,0.000347794,0.002252319,0.002284070,1748429170867951.000000000
1748429170.877935,7.000000000,0.000000000,4870.000000000,0.021545535,-0.926616788,-9.699188232,0.000000000,1.000000000,0.000000000,5001.000000000,-0.001037770,0.004223685,0.001697768,1748429170877953.000000000
1748429170.887965,7.000000000,0.000000000,4871.000000000,0.036426682,-0.911431313,-9.697307587,0.000000000,1.000000000,0.000000000,5001.000000000,0.002053310,0.006405893,-0.003096042,1748429170887956.000000000
1748429170.898115,7.000000000,0.000000000,4870.000000000,-0.002634460,-0.938003898,-9.716107368,0.000000000,1.000000000,0.000000000,5001.000000000,0.003809576,0.001612964,-0.003681170,1748429170897959.000000000
1748429170.907953,7.000000000,0.000000000,4870.000000000,0.012244022,-0.909540772,-9.680391312,0.000000000,1.000000000,0.000000000,5002.000000000,-0.002528428,-0.003287046,-0.001763938,1748429170907962.000000000
1748429170.918001,7.000000000,0.000000000,4870.000000000,-0.004494433,-0.919025362,-9.719868660,0.000000000,1.000000000,0.000000000,5001.000000000,0.000507302,0.000813390,-0.007623247,1748429170917965.000000000
1748429170.928943,7.000000000,0.000000000,4870.000000000,-0.002639033,-0.939904809,-9.708595276,0.000000000,1.000000000,0.000000000,5001.000000000,-0.002262200,-0.002488207,0.005425657,1748429170922966.000000000
1748429170.937946,7.000000000,0.000000000,4878.000000000,-0.013806656,-0.919016063,-9.717977524,0.000000000,1.000000000,0.000000000,5001.000000000,-0.002421505,-0.008133240,0.001483899,1748429170932969.000000000
1748429170.947045,7.000000000,0.000000000,4870.000000000,-0.004494433,-0.947493136,-9.710467339,0.000000000,1.000000000,0.000000000,5002.000000000,0.000827161,-0.002541363,0.002869959,1748429170942972.000000000
1748429170.958929,7.000000000,0.000000000,4870.000000000,0.027125511,-0.968369484,-9.697309494,0.000000000,1.000000000,0.000000000,5001.000000000,0.000720610,0.004490268,-0.005758318,1748429170957976.000000000
1748429170.968001,7.000000000,0.000000000,4870.000000000,0.025265509,-0.943697512,-9.691669464,0.000000000,1.000000000,0.000000000,5001.000000000,0.000346456,-0.003713518,0.006705269,1748429170967979.000000000
1748429170.977941,7.000000000,0.000000000,4870.000000000,0.038285527,-0.922821045,-9.712347031,0.000000000,1.000000000,0.000000000,5002.000000000,-0.002208840,-0.001316308,0.000260066,1748429170977982.000000000
1748429170.988009,7.000000000,0.000000000,4871.000000000,0.056883186,-0.920923293,-9.697308540,0.000000000,1.000000000,0.000000000,5002.000000000,-0.005564416,-0.002754421,-0.005439111,1748429170987985.000000000
1748429170.997974,7.000000000,0.000000000,4870.000000000,0.047585532,-0.917127430,-9.712347031,0.000000000,1.000000000,0.000000000,5001.000000000,-0.000237729,0.002678489,-0.004959825,1748429170997987.000000000
1748429171.008053,7.000000000,0.000000000,7306.000000000,0.037044685,-0.903209925,-9.706081390,0.000000000,1.000000000,0.000000000,5001.000000000,0.002371634,0.003477929,-0.000805587,1748429171007990.000000000
1748429171.018044,7.000000000,0.000000000,4870.000000000,0.014106310,-0.871577561,-9.714225769,0.000000000,1.000000000,0.000000000,5002.000000000,0.000241267,-0.000996731,0.001644906,1748429171012992.000000000
1748429171.028044,7.000000000,0.000000000,4870.000000000,0.008525523,-0.932310283,-9.721746445,0.000000000,1.000000000,0.000000000,5002.000000000,-0.004552419,0.000707704,-0.005705419,1748429171022995.000000000
1748429171.038027,7.000000000,0.000000000,4871.000000000,0.023407074,-0.903841436,-9.712346077,0.000000000,1.000000000,0.000000000,4998.000000000,0.001360821,0.002996714,0.005588955,1748429171032997.000000000
1748429171.048986,7.000000000,0.000000000,4871.000000000,0.017825939,-0.936104476,-9.697310448,0.000000000,1.000000000,0.000000000,5002.000000000,0.005407797,-0.001742414,0.002230802,1748429171048002.000000000
1748429171.058936,7.000000000,0.000000000,4871.000000000,0.019686317,-0.922819912,-9.687908173,0.000000000,1.000000000,0.000000000,5001.000000000,-0.002474655,-0.001049426,-0.004213699,1748429171053003.000000000
1748429171.067943,7.000000000,0.000000000,4870.000000000,0.045725472,-0.947493136,-9.717987061,0.000000000,1.000000000,0.000000000,5002.000000000,0.002851166,0.008430848,-0.002722694,1748429171068008.000000000
1748429171.077045,7.000000000,0.000000000,4871.000000000,0.034567025,-0.905741930,-9.706708908,0.000000000,1.000000000,0.000000000,5001.000000000,0.000719939,-0.003607360,0.000313770,1748429171073009.000000000
1748429171.088011,7.000000000,0.000000000,4871.000000000,0.008526333,-0.926614881,-9.678510666,0.000000000,1.000000000,0.000000000,5002.000000000,-0.001145966,-0.007122268,-0.002775355,1748429171088014.000000000
1748429171.098014,7.000000000,0.000000000,7306.000000000,0.030846531,-0.917127550,-9.722371101,0.000000000,1.000000000,0.000000000,5001.000000000,0.003223579,-0.001155942,0.007292074,1748429171098016.000000000
1748429171.110015,7.000000000,0.000000000,4870.000000000,0.049445506,-0.930412471,-9.725507736,0.000000000,1.000000000,0.000000000,5001.000000000,-0.003115238,0.006034102,-0.006291297,1748429171103017.000000000
1748429171.119015,7.000000000,0.000000000,4870.000000000,0.015965560,-0.907638192,-9.697309494,0.000000000,1.000000000,0.000000000,5001.000000000,0.000454791,0.007099360,-0.002031924,1748429171113020.000000000
1748429171.129987,7.000000000,0.000000000,4871.000000000,0.012244022,-0.882966220,-9.693547249,0.000000000,1.000000000,0.000000000,5001.000000000,-0.000239477,0.000441735,-0.005546456,1748429171123023.000000000
1748429171.139951,7.000000000,0.000000000,4871.000000000,0.053166267,-0.915229261,-9.710464478,0.000000000,1.000000000,0.000000000,5002.000000000,-0.003593681,-0.002488093,0.001059006,1748429171133026.000000000
1748429171.149951,7.000000000,0.000000000,4870.000000000,0.012245554,-0.926616788,-9.725506783,0.000000000,1.000000000,0.000000000,5001.000000000,0.003703662,-0.001635717,-0.001337185,1748429171148030.000000000
1748429171.157978,7.000000000,0.000000000,4870.000000000,-0.013794413,-0.926616788,-9.721746445,0.000000000,1.000000000,0.000000000,5002.000000000,0.000241259,-0.010743899,0.001964481,1748429171158033.000000000
1748429171.167999,7.000000000,0.000000000,4870.000000000,0.030845515,-0.938003898,-9.721746445,0.000000000,1.000000000,0.000000000,5002.000000000,-0.006736219,0.000654427,0.006385327,1748429171168036.000000000
1748429171.177948,7.000000000,0.000000000,4871.000000000,0.042007785,-0.947493911,-9.689787865,0.000000000,1.000000000,0.000000000,5002.000000000,0.001093473,0.002944738,-0.007729428,1748429171178039.000000000
1748429171.188012,7.000000000,0.000000000,4870.000000000,0.038280923,-0.932301044,-9.706728935,0.000000000,1.000000000,0.000000000,5001.000000000,0.003916248,-0.001582891,0.002018173,1748429171188062.000000000
1748429171.199032,7.000000000,0.000000000,4869.000000000,0.056886256,-0.934209287,-9.691666603,0.000000000,1.000000000,0.000000000,5002.000000000,-0.006256845,-0.000091258,0.003029753,1748429171198066.000000000
1748429171.208992,7.000000000,0.000000000,4871.000000000,0.030843230,-0.909537673,-9.719866753,0.000000000,1.000000000,0.000000000,5001.000000000,0.001359620,0.003371508,0.001965560,1748429171203067.000000000
1748429171.217970,7.000000000,0.000000000,4870.000000000,0.068045475,-0.930412471,-9.691669464,0.000000000,1.000000000,0.000000000,5002.000000000,-0.002102301,-0.008187270,0.001911223,1748429171213070.000000000
1748429171.227000,7.000000000,0.000000000,4870.000000000,0.015965531,-0.894353330,-9.714227676,0.000000000,1.000000000,0.000000000,5001.000000000,0.000560212,-0.000409994,0.001911524,1748429171223072.000000000
1748429171.238036,7.000000000,0.000000000,4871.000000000,-0.002632897,-0.901946306,-9.699184418,0.000000000,1.000000000,0.000000000,5002.000000000,-0.001090319,0.002838219,-0.002243309,1748429171238077.000000000
1748429171.247959,7.000000000,0.000000000,4871.000000000,-0.002634431,-0.919024229,-9.702949524,0.000000000,1.000000000,0.000000000,5001.000000000,-0.002155610,0.003477252,0.004414752,1748429171248079.000000000
1748429171.257969,7.000000000,0.000000000,4871.000000000,0.010384426,-0.907638729,-9.699188232,0.000000000,1.000000000,0.000000000,5001.000000000,0.005087652,-0.001689678,0.006117921,1748429171258082.000000000
1748429171.267935,7.000000000,0.000000000,4871.000000000,0.010384396,-0.911437511,-9.723627090,0.000000000,1.000000000,0.000000000,5001.000000000,0.002797985,-0.004937593,0.001644446,1748429171268085.000000000
1748429171.279039,7.000000000,0.000000000,4870.000000000,0.055025481,-0.909536123,-9.734905243,0.000000000,1.000000000,0.000000000,5002.000000000,0.000773897,-0.005737159,0.001059003,1748429171278088.000000000
1748429171.290047,7.000000000,0.000000000,4872.000000000,0.043865502,-0.958880305,-9.667229652,0.000000000,1.000000000,0.000000000,5002.000000000,0.004236009,-0.000464094,0.002923220,1748429171288091.000000000
1748429171.298991,7.000000000,0.000000000,4870.000000000,0.034565546,-0.953186750,-9.706707001,0.000000000,1.000000000,0.000000000,5002.000000000,-0.001199037,-0.004030658,-0.002080098,1748429171293093.000000000
1748429171.308029,7.000000000,0.000000000,4871.000000000,0.047585882,-0.901943982,-9.693547249,0.000000000,1.000000000,0.000000000,5001.000000000,0.001253790,-0.002541754,0.006544960,1748429171303095.000000000
1748429171.318999,7.000000000,0.000000000,4871.000000000,0.045727819,-0.955085337,-9.727386475,0.000000000,1.000000000,0.000000000,5001.000000000,-0.000184351,-0.004618524,0.002283625,1748429171318099.000000000
1748429171.328005,7.000000000,0.000000000,4870.000000000,0.030845515,-0.936106086,-9.706707001,0.000000000,1.000000000,0.000000000,5002.000000000,-0.005564411,0.007844972,-0.003628145,1748429171323101.000000000
1748429171.338991,7.000000000,0.000000000,4869.000000000,-0.000773301,-0.884862959,-9.719867706,0.000000000,1.000000000,0.000000000,5001.000000000,-0.001942901,-0.000411040,-0.002136848,1748429171338105.000000000
1748429171.348030,7.000000000,0.000000000,4871.000000000,0.002944417,-0.936102092,-9.697311401,0.000000000,1.000000000,0.000000000,5001.000000000,-0.001677488,-0.001316796,0.001698422,1748429171343106.000000000
1748429171.357966,7.000000000,0.000000000,4870.000000000,-0.004494432,-0.926616788,-9.691669464,0.000000000,1.000000000,0.000000000,5002.000000000,0.009722138,0.005181776,0.003775427,1748429171358111.000000000
1748429171.368107,7.000000000,0.000000000,4870.000000000,-0.017511351,-0.884875000,-9.695437431,0.000000000,1.000000000,0.000000000,5001.000000000,-0.003060954,0.004436817,0.000207292,1748429171368113.000000000
1748429171.378995,7.000000000,0.000000000,7305.000000000,0.015962493,-0.950020432,-9.712347984,0.000000000,1.000000000,0.000000000,5001.000000000,0.003916400,0.004009724,0.004735205,1748429171378116.000000000
1748429171.387988,7.000000000,0.000000000,4871.000000000,-0.011934787,-0.890559912,-9.699187279,0.000000000,1.000000000,0.000000000,5002.000000000,-0.003860001,0.000920745,0.000952487,1748429171383118.000000000
1748429171.397083,7.000000000,0.000000000,4870.000000000,0.040145524,-0.926616788,-9.702948570,0.000000000,1.000000000,0.000000000,5002.000000000,0.002531579,-0.004192522,-0.001497624,1748429171393121.000000000
1748429171.407991,7.000000000,0.000000000,4870.000000000,0.038285527,-0.932310283,-9.714227676,0.000000000,1.000000000,0.000000000,5002.000000000,0.004236001,-0.001955455,0.007557123,1748429171403124.000000000
1748429171.417998,7.000000000,0.000000000,4869.000000000,0.036427405,-0.938003659,-9.702948570,0.000000000,1.000000000,0.000000000,5001.000000000,-0.000983461,0.001133749,0.001433528,1748429171413126.000000000
1748429171.429045,7.000000000,0.000000000,4870.000000000,0.025265509,-0.953186631,-9.687909126,0.000000000,1.000000000,0.000000000,5002.000000000,0.004449052,0.001879461,-0.007463116,1748429171428131.000000000
1748429171.437937,7.000000000,0.000000000,4871.000000000,0.055026643,-0.926614881,-9.701065063,0.000000000,1.000000000,0.000000000,5001.000000000,0.001945582,-0.003500114,-0.007675498,1748429171438133.000000000
1748429171.447984,7.000000000,0.000000000,4870.000000000,0.006665550,-0.924718857,-9.725507736,0.000000000,1.000000000,0.000000000,5001.000000000,-0.003168153,-0.000090840,0.001751616,1748429171448136.000000000
1748429171.457996,7.000000000,0.000000000,4871.000000000,-0.002632116,-0.871582150,-9.716107368,0.000000000,1.000000000,0.000000000,5001.000000000,0.004129078,-0.004513313,-0.001764091,1748429171458139.000000000
1748429171.469934,7.000000000,0.000000000,4870.000000000,-0.030534429,-0.949391007,-9.708588600,0.000000000,1.000000000,0.000000000,5001.000000000,-0.002048807,0.000867385,-0.003520838,1748429171463140.000000000
1748429171.477158,7.000000000,0.000000000,7305.000000000,-0.032394405,-0.875374794,-9.717359543,0.000000000,1.000000000,0.000000000,5003.000000000,-0.006628823,0.008697622,-0.001073248,1748429171473145.000000000
1748429171.488966,7.000000000,0.000000000,4870.000000000,-0.002634431,-0.922821045,-9.680389404,0.000000000,1.000000000,0.000000000,5001.000000000,-0.003807531,-0.004725042,0.009367663,1748429171483146.000000000
1748429171.497957,7.000000000,0.000000000,4870.000000000,-0.028674399,-0.987347901,-9.725507736,0.000000000,1.000000000,0.000000000,5001.000000000,0.006260460,0.000016695,-0.004106523,1748429171493149.000000000
1748429171.507028,7.000000000,0.000000000,4871.000000000,0.023406290,-0.900048018,-9.716105461,0.000000000,1.000000000,0.000000000,4998.000000000,0.004340622,-0.005736508,0.003932666,1748429171503152.000000000
1748429171.517987,7.000000000,0.000000000,4871.000000000,0.077345088,-0.938004971,-9.699189186,0.000000000,1.000000000,0.000000000,5001.000000000,0.005727143,0.009976344,0.007183572,1748429171518156.000000000
