__time,/fmu/out/sensor_accel/clip_counter[0],/fmu/out/sensor_accel/clip_counter[1],/fmu/out/sensor_accel/clip_counter[2],/fmu/out/sensor_accel/device_id,/fmu/out/sensor_accel/error_count,/fmu/out/sensor_accel/samples,/fmu/out/sensor_accel/temperature,/fmu/out/sensor_accel/timestamp,/fmu/out/sensor_accel/timestamp_sample,/fmu/out/sensor_accel/x,/fmu/out/sensor_accel/y,/fmu/out/sensor_accel/z
1748429168.722919,0.000000000,0.000000000,0.000000000,4259850.000000000,0.000000000,5.000000000,32.000000000,1748429168700691.000000000,1748429168700624.000000000,-10.120769501,-0.344765037,0.321780711
1748429168.732956,0.000000000,0.000000000,0.000000000,4259850.000000000,0.000000000,5.000000000,32.000000000,1748429168710433.000000000,1748429168710367.000000000,-10.120769501,-0.360087931,0.429040939
1748429168.735980,0.000000000,0.000000000,0.000000000,4259850.000000000,0.000000000,5.000000000,32.000000000,1748429168720174.000000000,1748429168720107.000000000,-10.120769501,-0.406056613,0.367749393
1748429168.746033,0.000000000,0.000000000,0.000000000,4259850.000000000,0.000000000,5.000000000,32.000000000,1748429168729960.000000000,1748429168729850.000000000,-10.067139626,-0.528639734,0.314119279
1748429168.755919,0.000000000,0.000000000,0.000000000,4259850.000000000,0.000000000,5.000000000,32.000000000,1748429168739660.000000000,1748429168739592.000000000,-10.105446815,-0.452025294,0.298796386
1748429168.766033,0.000000000,0.000000000,0.000000000,4259850.000000000,0.000000000,5.000000000,32.000000000,1748429168749402.000000000,1748429168749335.000000000,-10.128431320,-0.444363832,0.306457818
1748429168.783930,0.000000000,0.000000000,0.000000000,4259850.000000000,0.000000000,5.000000000,32.000000000,1748429168759144.000000000,1748429168759075.000000000,-10.113107681,-0.360087931,0.306457818
1748429168.794012,0.000000000,0.000000000,0.000000000,4259850.000000000,0.000000000,5.000000000,32.000000000,1748429168768887.000000000,1748429168768819.000000000,-10.097784996,-0.429040939,0.275812030
1748429168.803941,0.000000000,0.000000000,0.000000000,4259850.000000000,0.000000000,5.000000000,32.000000000,1748429168781063.000000000,1748429168780997.000000000,-10.128431320,-0.367749393,0.145567462
1748429168.814060,0.000000000,0.000000000,0.000000000,4259850.000000000,0.000000000,5.000000000,32.000000000,1748429168790808.000000000,1748429168790739.000000000,-10.143754005,-0.321780711,0.260489136
1748429168.822984,0.000000000,0.000000000,0.000000000,4259850.000000000,0.000000000,5.000000000,32.000000000,1748429168800548.000000000,1748429168800482.000000000,-10.113107681,-0.321780711,0.229843363
1748429168.828070,0.000000000,0.000000000,0.000000000,4259850.000000000,0.000000000,5.000000000,32.000000000,1748429168810292.000000000,1748429168810224.000000000,-10.105446815,-0.375410825,0.252827704
1748429168.837027,0.000000000,0.000000000,0.000000000,4259850.000000000,0.000000000,5.000000000,32.000000000,1748429168820033.000000000,1748429168819967.000000000,-10.051816940,-0.436702400,0.275812030
1748429168.847027,0.000000000,0.000000000,0.000000000,4259850.000000000,0.000000000,5.000000000,32.000000000,1748429168829951.000000000,1748429168829711.000000000,-10.097784996,-0.475009620,0.283473492
1748429168.857002,0.000000000,0.000000000,0.000000000,4259850.000000000,0.000000000,5.000000000,32.000000000,1748429168839520.000000000,1748429168839452.000000000,-10.159076691,-0.406056613,0.337103605
1748429168.873925,0.000000000,0.000000000,0.000000000,4259850.000000000,0.000000000,5.000000000,32.000000000,1748429168849263.000000000,1748429168849194.000000000,-10.120769501,-0.383072287,0.367749393
1748429168.883972,0.000000000,0.000000000,0.000000000,4259850.000000000,0.000000000,5.000000000,32.000000000,1748429168859005.000000000,1748429168858936.000000000,-10.082462311,-0.429040939,0.314119279
1748429168.894025,0.000000000,0.000000000,0.000000000,4259850.000000000,0.000000000,5.000000000,32.000000000,1748429168871180.000000000,1748429168871112.000000000,-10.113107681,-0.421379507,0.245166257
1748429168.897094,0.000000000,0.000000000,0.000000000,4259850.000000000,0.000000000,5.000000000,32.000000000,1748429168878488.000000000,1748429168878419.000000000,-10.097784996,-0.429040939,0.245166257
1748429168.913013,0.000000000,0.000000000,0.000000000,4259850.000000000,0.000000000,5.000000000,32.000000000,1748429168890663.000000000,1748429168890595.000000000,-10.159076691,-0.321780711,0.298796386
1748429168.922996,0.000000000,0.000000000,0.000000000,4259850.000000000,0.000000000,5.000000000,32.000000000,1748429168900433.000000000,1748429168900338.000000000,-10.113107681,-0.367749393,0.314119279
1748429168.926988,0.000000000,0.000000000,0.000000000,4259850.000000000,0.000000000,5.000000000,32.000000000,1748429168910146.000000000,1748429168910080.000000000,-10.105446815,-0.390733719,0.268150598
1748429168.936015,0.000000000,0.000000000,0.000000000,4259850.000000000,0.000000000,5.000000000,32.000000000,1748429168919892.000000000,1748429168919823.000000000,-10.082462311,-0.413718045,0.260489136
1748429168.946011,0.000000000,0.000000000,0.000000000,4259850.000000000,0.000000000,5.000000000,32.000000000,1748429168929635.000000000,1748429168929565.000000000,-10.128431320,-0.421379507,0.291134924
1748429168.964143,0.000000000,0.000000000,0.000000000,4259850.000000000,0.000000000,5.000000000,32.000000000,1748429168939376.000000000,1748429168939306.000000000,-10.151414871,-0.398395181,0.321780711
1748429168.974052,0.000000000,0.000000000,0.000000000,4259850.000000000,0.000000000,5.000000000,32.000000000,1748429168949116.000000000,1748429168949048.000000000,-10.090124130,-0.436702400,0.352426499
1748429168.983999,0.000000000,0.000000000,0.000000000,4259850.000000000,0.000000000,5.000000000,32.000000000,1748429168958858.000000000,1748429168958789.000000000,-10.082462311,-0.490332514,0.314119279
1748429168.994002,0.000000000,0.000000000,0.000000000,4259850.000000000,0.000000000,5.000000000,32.000000000,1748429168971033.000000000,1748429168970965.000000000,-10.143754005,-0.444363832,0.260489136
1748429169.004008,0.000000000,0.000000000,0.000000000,4259850.000000000,0.000000000,5.000000000,32.000000000,1748429168980777.000000000,1748429168980708.000000000,-10.113107681,-0.406056613,0.329442143
1748429169.015000,0.000000000,0.000000000,0.000000000,4259850.000000000,0.000000000,5.000000000,32.000000000,1748429168990516.000000000,1748429168990450.000000000,-10.143754005,-0.352426499,0.268150598
1748429169.019347,0.000000000,0.000000000,0.000000000,4259850.000000000,0.000000000,5.000000000,32.000000000,1748429169000259.000000000,1748429169000192.000000000,-10.074800491,-0.337103605,0.260489136
1748429169.027986,0.000000000,0.000000000,0.000000000,4259850.000000000,0.000000000,5.000000000,32.000000000,1748429169007566.000000000,1748429169007499.000000000,-10.136092186,-0.406056613,0.183874696
1748429169.035970,0.000000000,0.000000000,0.000000000,4259850.000000000,0.000000000,5.000000000,32.000000000,1748429169019744.000000000,1748429169019675.000000000,-10.136092186,-0.344765037,0.275812030
1748429169.046001,0.000000000,0.000000000,0.000000000,4259850.000000000,0.000000000,5.000000000,32.000000000,1748429169029483.000000000,1748429169029416.000000000,-10.128431320,-0.337103605,0.268150598
1748429169.055960,0.000000000,0.000000000,0.000000000,4259850.000000000,0.000000000,5.000000000,32.000000000,1748429169039225.000000000,1748429169039158.000000000,-10.136092186,-0.398395181,0.321780711
1748429169.073919,0.000000000,0.000000000,0.000000000,4259850.000000000,0.000000000,5.000000000,32.000000000,1748429169048966.000000000,1748429169048899.000000000,-10.059477806,-0.459686726,0.283473492
1748429169.084934,0.000000000,0.000000000,0.000000000,4259850.000000000,0.000000000,5.000000000,32.000000000,1748429169061144.000000000,1748429169061076.000000000,-10.113107681,-0.505655408,0.314119279
1748429169.093008,0.000000000,0.000000000,0.000000000,4259850.000000000,0.000000000,5.000000000,32.000000000,1748429169070886.000000000,1748429169070817.000000000,-10.120769501,-0.413718045,0.237504810
1748429169.096013,0.000000000,0.000000000,0.000000000,4259850.000000000,0.000000000,5.000000000,32.000000000,1748429169078193.000000000,1748429169078124.000000000,-10.143754005,-0.383072287,0.275812030
1748429169.107930,0.000000000,0.000000000,0.000000000,4259850.000000000,0.000000000,5.000000000,32.000000000,1748429169090369.000000000,1748429169090301.000000000,-10.074800491,-0.413718045,0.275812030
1748429169.117954,0.000000000,0.000000000,0.000000000,4259850.000000000,0.000000000,5.000000000,32.000000000,1748429169100109.000000000,1748429169100043.000000000,-10.067139626,-0.398395181,0.268150598
1748429169.126061,0.000000000,0.000000000,0.000000000,4259850.000000000,0.000000000,5.000000000,32.000000000,1748429169109850.000000000,1748429169109784.000000000,-10.105446815,-0.429040939,0.283473492
1748429169.136904,0.000000000,0.000000000,0.000000000,4259850.000000000,0.000000000,5.000000000,32.000000000,1748429169119593.000000000,1748429169119525.000000000,-10.143754005,-0.306457818,0.268150598
1748429169.153921,0.000000000,0.000000000,0.000000000,4259850.000000000,0.000000000,5.000000000,32.000000000,1748429169129339.000000000,1748429169129268.000000000,-10.097784996,-0.321780711,0.337103605
1748429169.164033,0.000000000,0.000000000,0.000000000,4259850.000000000,0.000000000,5.000000000,32.000000000,1748429169139081.000000000,1748429169139009.000000000,-10.113107681,-0.306457818,0.337103605
1748429169.175946,0.000000000,0.000000000,0.000000000,4259850.000000000,0.000000000,5.000000000,32.000000000,1748429169158587.000000000,1748429169158517.000000000,-10.097784996,-0.475009620,0.275812030
1748429169.178011,0.000000000,0.000000000,0.000000000,4259850.000000000,0.000000000,5.000000000,32.000000000,1748429169161018.000000000,1748429169160952.000000000,-10.128431320,-0.444363832,0.337103605
1748429169.193084,0.000000000,0.000000000,0.000000000,4259850.000000000,0.000000000,5.000000000,32.000000000,1748429169170764.000000000,1748429169170695.000000000,-10.128431320,-0.406056613,0.283473492
1748429169.203034,0.000000000,0.000000000,0.000000000,4259850.000000000,0.000000000,5.000000000,32.000000000,1748429169180503.000000000,1748429169180435.000000000,-10.105446815,-0.452025294,0.329442143
1748429169.206971,0.000000000,0.000000000,0.000000000,4259850.000000000,0.000000000,5.000000000,32.000000000,1748429169190244.000000000,1748429169190176.000000000,-10.074800491,-0.452025294,0.298796386
1748429169.216002,0.000000000,0.000000000,0.000000000,4259850.000000000,0.000000000,5.000000000,32.000000000,1748429169200022.000000000,1748429169199917.000000000,-10.120769501,-0.452025294,0.260489136
1748429169.225996,0.000000000,0.000000000,0.000000000,4259850.000000000,0.000000000,5.000000000,32.000000000,1748429169209728.000000000,1748429169209658.000000000,-10.090124130,-0.383072287,0.291134924
1748429169.236006,0.000000000,0.000000000,0.000000000,4259850.000000000,0.000000000,5.000000000,32.000000000,1748429169219469.000000000,1748429169219399.000000000,-10.143754005,-0.329442143,0.329442143
1748429169.253944,0.000000000,0.000000000,0.000000000,4259850.000000000,0.000000000,5.000000000,32.000000000,1748429169229209.000000000,1748429169229141.000000000,-10.113107681,-0.337103605,0.283473492
1748429169.264035,0.000000000,0.000000000,0.000000000,4259850.000000000,0.000000000,5.000000000,32.000000000,1748429169241384.000000000,1748429169241317.000000000,-10.136092186,-0.398395181,0.283473492
1748429169.273038,0.000000000,0.000000000,0.000000000,4259850.000000000,0.000000000,5.000000000,32.000000000,1748429169251124.000000000,1748429169251058.000000000,-10.090124130,-0.429040939,0.260489136
1748429169.282999,0.000000000,0.000000000,0.000000000,4259850.000000000,0.000000000,5.000000000,32.000000000,1748429169260867.000000000,1748429169260798.000000000,-10.151414871,-0.398395181,0.252827704
1748429169.293951,0.000000000,0.000000000,0.000000000,4259850.000000000,0.000000000,5.000000000,32.000000000,1748429169270607.000000000,1748429169270540.000000000,-10.143754005,-0.390733719,0.275812030
1748429169.296068,0.000000000,0.000000000,0.000000000,4259850.000000000,0.000000000,5.000000000,32.000000000,1748429169280348.000000000,1748429169280281.000000000,-10.105446815,-0.406056613,0.283473492
1748429169.306022,0.000000000,0.000000000,0.000000000,4259850.000000000,0.000000000,5.000000000,32.000000000,1748429169287653.000000000,1748429169287586.000000000,-10.105446815,-0.413718045,0.260489136
1748429169.316000,0.000000000,0.000000000,0.000000000,4259850.000000000,0.000000000,5.000000000,32.000000000,1748429169299833.000000000,1748429169299763.000000000,-10.113107681,-0.475009620,0.237504810
1748429169.325919,0.000000000,0.000000000,0.000000000,4259850.000000000,0.000000000,5.000000000,32.000000000,1748429169309574.000000000,1748429169309505.000000000,-10.120769501,-0.344765037,0.268150598
1748429169.343943,0.000000000,0.000000000,0.000000000,4259850.000000000,0.000000000,5.000000000,32.000000000,1748429169319316.000000000,1748429169319247.000000000,-10.120769501,-0.398395181,0.275812030
1748429169.353993,0.000000000,0.000000000,0.000000000,4259850.000000000,0.000000000,5.000000000,32.000000000,1748429169331490.000000000,1748429169331423.000000000,-10.082462311,-0.367749393,0.321780711
1748429169.364026,0.000000000,0.000000000,0.000000000,4259850.000000000,0.000000000,5.000000000,32.000000000,1748429169341231.000000000,1748429169341164.000000000,-10.090124130,-0.367749393,0.298796386
1748429169.372989,0.000000000,0.000000000,0.000000000,4259850.000000000,0.000000000,5.000000000,32.000000000,1748429169351065.000000000,1748429169350904.000000000,-10.105446815,-0.383072287,0.367749393
1748429169.383018,0.000000000,0.000000000,0.000000000,4259850.000000000,0.000000000,5.000000000,32.000000000,1748429169360714.000000000,1748429169360646.000000000,-10.128431320,-0.329442143,0.291134924
1748429169.386985,0.000000000,0.000000000,0.000000000,4259850.000000000,0.000000000,5.000000000,32.000000000,1748429169370453.000000000,1748429169370386.000000000,-10.082462311,-0.459686726,0.298796386
1748429169.397009,0.000000000,0.000000000,0.000000000,4259850.000000000,0.000000000,5.000000000,32.000000000,1748429169380193.000000000,1748429169380127.000000000,-10.159076691,-0.398395181,0.275812030
1748429169.405980,0.000000000,0.000000000,0.000000000,4259850.000000000,0.000000000,5.000000000,32.000000000,1748429169389938.000000000,1748429169389869.000000000,-10.067139626,-0.444363832,0.229843363
1748429169.416052,0.000000000,0.000000000,0.000000000,4259850.000000000,0.000000000,5.000000000,32.000000000,1748429169399677.000000000,1748429169399609.000000000,-10.090124130,-0.421379507,0.291134924
1748429169.425942,0.000000000,0.000000000,0.000000000,4259850.000000000,0.000000000,5.000000000,32.000000000,1748429169409419.000000000,1748429169409351.000000000,-10.120769501,-0.367749393,0.229843363
1748429169.438933,0.000000000,0.000000000,0.000000000,4259850.000000000,0.000000000,5.000000000,32.000000000,1748429169419161.000000000,1748429169419093.000000000,-10.113107681,-0.413718045,0.245166257
1748429169.446054,0.000000000,0.000000000,0.000000000,4259850.000000000,0.000000000,5.000000000,32.000000000,1748429169428903.000000000,1748429169428834.000000000,-10.166738510,-0.375410825,0.252827704
1748429169.464034,0.000000000,0.000000000,0.000000000,4259850.000000000,0.000000000,5.000000000,32.000000000,1748429169441075.000000000,1748429169441009.000000000,-10.082462311,-0.367749393,0.283473492
1748429169.474941,0.000000000,0.000000000,0.000000000,4259850.000000000,0.000000000,5.000000000,32.000000000,1748429169450819.000000000,1748429169450750.000000000,-10.097784996,-0.436702400,0.298796386
1748429169.482977,0.000000000,0.000000000,0.000000000,4259850.000000000,0.000000000,5.000000000,32.000000000,1748429169460558.000000000,1748429169460492.000000000,-10.143754005,-0.337103605,0.321780711
1748429169.489013,0.000000000,0.000000000,0.000000000,4259850.000000000,0.000000000,5.000000000,32.000000000,1748429169470300.000000000,1748429169470233.000000000,-10.082462311,-0.360087931,0.260489136
1748429169.497029,0.000000000,0.000000000,0.000000000,4259850.000000000,0.000000000,5.000000000,32.000000000,1748429169480046.000000000,1748429169479975.000000000,-10.059477806,-0.398395181,0.291134924
1748429169.509941,0.000000000,0.000000000,0.000000000,4259850.000000000,0.000000000,5.000000000,32.000000000,1748429169490269.000000000,1748429169490203.000000000,-10.090124130,-0.390733719,0.237504810
1748429169.517955,0.000000000,0.000000000,0.000000000,4259850.000000000,0.000000000,5.000000000,32.000000000,1748429169500013.000000000,1748429169499945.000000000,-10.082462311,-0.406056613,0.183874696
1748429169.527035,0.000000000,0.000000000,0.000000000,4259850.000000000,0.000000000,5.000000000,32.000000000,1748429169509754.000000000,1748429169509686.000000000,-10.120769501,-0.421379507,0.275812030
1748429169.536935,0.000000000,0.000000000,0.000000000,4259850.000000000,0.000000000,5.000000000,32.000000000,1748429169519498.000000000,1748429169519429.000000000,-10.097784996,-0.429040939,0.298796386
1748429169.553996,0.000000000,0.000000000,0.000000000,4259850.000000000,0.000000000,5.000000000,32.000000000,1748429169529239.000000000,1748429169529170.000000000,-10.082462311,-0.390733719,0.298796386
1748429169.564015,0.000000000,0.000000000,0.000000000,4259850.000000000,0.000000000,5.000000000,32.000000000,1748429169541416.000000000,1748429169541347.000000000,-10.128431320,-0.413718045,0.283473492
1748429169.567085,0.000000000,0.000000000,0.000000000,4259850.000000000,0.000000000,5.000000000,32.000000000,1748429169548722.000000000,1748429169548653.000000000,-10.120769501,-0.367749393,0.344765037
1748429169.576029,0.000000000,0.000000000,0.000000000,4259850.000000000,0.000000000,5.000000000,32.000000000,1748429169558463.000000000,1748429169558394.000000000,-10.128431320,-0.352426499,0.306457818
1748429169.587073,0.000000000,0.000000000,0.000000000,4259850.000000000,0.000000000,5.000000000,32.000000000,1748429169568206.000000000,1748429169568135.000000000,-10.113107681,-0.344765037,0.245166257
1748429169.596987,0.000000000,0.000000000,0.000000000,4259850.000000000,0.000000000,5.000000000,32.000000000,1748429169580378.000000000,1748429169580312.000000000,-10.059477806,-0.390733719,0.283473492
1748429169.605984,0.000000000,0.000000000,0.000000000,4259850.000000000,0.000000000,5.000000000,32.000000000,1748429169590215.000000000,1748429169590052.000000000,-10.128431320,-0.429040939,0.321780711
1748429169.616946,0.000000000,0.000000000,0.000000000,4259850.000000000,0.000000000,5.000000000,32.000000000,1748429169599863.000000000,1748429169599794.000000000,-10.128431320,-0.383072287,0.298796386
1748429169.626966,0.000000000,0.000000000,0.000000000,4259850.000000000,0.000000000,5.000000000,32.000000000,1748429169609607.000000000,1748429169609536.000000000,-10.128431320,-0.429040939,0.252827704
1748429169.637920,0.000000000,0.000000000,0.000000000,4259850.000000000,0.000000000,5.000000000,32.000000000,1748429169619348.000000000,1748429169619278.000000000,-10.097784996,-0.421379507,0.260489136
1748429169.653994,0.000000000,0.000000000,0.000000000,4259850.000000000,0.000000000,5.000000000,32.000000000,1748429169631525.000000000,1748429169631456.000000000,-10.105446815,-0.444363832,0.260489136
1748429169.664229,0.000000000,0.000000000,0.000000000,4259850.000000000,0.000000000,5.000000000,32.000000000,1748429169641265.000000000,1748429169641197.000000000,-10.067139626,-0.398395181,0.291134924
1748429169.673013,0.000000000,0.000000000,0.000000000,4259850.000000000,0.000000000,5.000000000,32.000000000,1748429169651006.000000000,1748429169650938.000000000,-10.136092186,-0.360087931,0.268150598
1748429169.684062,0.000000000,0.000000000,0.000000000,4259850.000000000,0.000000000,5.000000000,32.000000000,1748429169660748.000000000,1748429169660680.000000000,-10.136092186,-0.383072287,0.245166257
1748429169.686974,0.000000000,0.000000000,0.000000000,4259850.000000000,0.000000000,5.000000000,32.000000000,1748429169670488.000000000,1748429169670421.000000000,-10.113107681,-0.344765037,0.260489136
1748429169.697017,0.000000000,0.000000000,0.000000000,4259850.000000000,0.000000000,5.000000000,32.000000000,1748429169677795.000000000,1748429169677728.000000000,-10.128431320,-0.413718045,0.245166257
1748429169.706034,0.000000000,0.000000000,0.000000000,4259850.000000000,0.000000000,5.000000000,32.000000000,1748429169689973.000000000,1748429169689904.000000000,-10.090124130,-0.375410825,0.275812030
1748429169.716976,0.000000000,0.000000000,0.000000000,4259850.000000000,0.000000000,5.000000000,32.000000000,1748429169699716.000000000,1748429169699646.000000000,-10.143754005,-0.352426499,0.237504810
1748429169.734015,0.000000000,0.000000000,0.000000000,4259850.000000000,0.000000000,5.000000000,32.000000000,1748429169709456.000000000,1748429169709386.000000000,-10.120769501,-0.390733719,0.245166257
1748429169.743982,0.000000000,0.000000000,0.000000000,4259850.000000000,0.000000000,5.000000000,32.000000000,1748429169719196.000000000,1748429169719126.000000000,-10.059477806,-0.413718045,0.291134924
1748429169.754034,0.000000000,0.000000000,0.000000000,4259850.000000000,0.000000000,5.000000000,32.000000000,1748429169731373.000000000,1748429169731302.000000000,-10.097784996,-0.452025294,0.306457818
1748429169.763981,0.000000000,0.000000000,0.000000000,4259850.000000000,0.000000000,5.000000000,32.000000000,1748429169741254.000000000,1748429169741043.000000000,-10.105446815,-0.406056613,0.321780711
1748429169.773929,0.000000000,0.000000000,0.000000000,4259850.000000000,0.000000000,5.000000000,32.000000000,1748429169750854.000000000,1748429169750785.000000000,-10.120769501,-0.383072287,0.337103605
1748429169.778924,0.000000000,0.000000000,0.000000000,4259850.000000000,0.000000000,5.000000000,32.000000000,1748429169760592.000000000,1748429169760525.000000000,-10.128431320,-0.421379507,0.298796386
1748429169.787099,0.000000000,0.000000000,0.000000000,4259850.000000000,0.000000000,5.000000000,32.000000000,1748429169770336.000000000,1748429169770267.000000000,-10.082462311,-0.367749393,0.329442143
1748429169.796078,0.000000000,0.000000000,0.000000000,4259850.000000000,0.000000000,5.000000000,32.000000000,1748429169780075.000000000,1748429169780008.000000000,-10.105446815,-0.413718045,0.291134924
1748429169.805978,0.000000000,0.000000000,0.000000000,4259850.000000000,0.000000000,5.000000000,32.000000000,1748429169789818.000000000,1748429169789748.000000000,-10.136092186,-0.337103605,0.314119279
1748429169.815985,0.000000000,0.000000000,0.000000000,4259850.000000000,0.000000000,5.000000000,32.000000000,1748429169799556.000000000,1748429169799489.000000000,-10.136092186,-0.314119279,0.283473492
1748429169.833986,0.000000000,0.000000000,0.000000000,4259850.000000000,0.000000000,5.000000000,32.000000000,1748429169809297.000000000,1748429169809229.000000000,-10.105446815,-0.367749393,0.298796386
1748429169.843970,0.000000000,0.000000000,0.000000000,4259850.000000000,0.000000000,5.000000000,32.000000000,1748429169821470.000000000,1748429169821403.000000000,-10.067139626,-0.398395181,0.252827704
1748429169.846033,0.000000000,0.000000000,0.000000000,4259850.000000000,0.000000000,5.000000000,32.000000000,1748429169828785.000000000,1748429169828708.000000000,-10.113107681,-0.321780711,0.214520469
1748429169.863123,0.000000000,0.000000000,0.000000000,4259850.000000000,0.000000000,5.000000000,32.000000000,1748429169840953.000000000,1748429169840883.000000000,-10.120769501,-0.436702400,0.352426499
1748429169.873025,0.000000000,0.000000000,0.000000000,4259850.000000000,0.000000000,5.000000000,32.000000000,1748429169850691.000000000,1748429169850624.000000000,-10.143754005,-0.352426499,0.229843363
1748429169.877012,0.000000000,0.000000000,0.000000000,4259850.000000000,0.000000000,5.000000000,32.000000000,1748429169860432.000000000,1748429169860366.000000000,-10.120769501,-0.452025294,0.306457818
1748429169.886030,0.000000000,0.000000000,0.000000000,4259850.000000000,0.000000000,5.000000000,32.000000000,1748429169870174.000000000,1748429169870107.000000000,-10.059477806,-0.482671082,0.321780711
1748429169.897039,0.000000000,0.000000000,0.000000000,4259850.000000000,0.000000000,5.000000000,32.000000000,1748429169879916.000000000,1748429169879849.000000000,-10.090124130,-0.444363832,0.344765037
1748429169.905954,0.000000000,0.000000000,0.000000000,4259850.000000000,0.000000000,5.000000000,32.000000000,1748429169889778.000000000,1748429169889590.000000000,-10.059477806,-0.413718045,0.360087931
1748429169.923985,0.000000000,0.000000000,0.000000000,4259850.000000000,0.000000000,5.000000000,32.000000000,1748429169899400.000000000,1748429169899331.000000000,-10.143754005,-0.375410825,0.275812030
1748429169.933999,0.000000000,0.000000000,0.000000000,4259850.000000000,0.000000000,5.000000000,32.000000000,1748429169909141.000000000,1748429169909073.000000000,-10.136092186,-0.398395181,0.222181916
1748429169.943986,0.000000000,0.000000000,0.000000000,4259850.000000000,0.000000000,5.000000000,32.000000000,1748429169921323.000000000,1748429169921249.000000000,-10.074800491,-0.360087931,0.291134924
1748429169.953038,0.000000000,0.000000000,0.000000000,4259850.000000000,0.000000000,5.000000000,32.000000000,1748429169931059.000000000,1748429169930990.000000000,-10.113107681,-0.337103605,0.237504810
1748429169.963169,0.000000000,0.000000000,0.000000000,4259850.000000000,0.000000000,5.000000000,32.000000000,1748429169940800.000000000,1748429169940731.000000000,-10.159076691,-0.367749393,0.229843363
1748429169.966922,0.000000000,0.000000000,0.000000000,4259850.000000000,0.000000000,5.000000000,32.000000000,1748429169950541.000000000,1748429169950473.000000000,-10.151414871,-0.367749393,0.252827704
1748429169.976921,0.000000000,0.000000000,0.000000000,4259850.000000000,0.000000000,5.000000000,32.000000000,1748429169957845.000000000,1748429169957779.000000000,-10.090124130,-0.436702400,0.321780711
1748429169.986000,0.000000000,0.000000000,0.000000000,4259850.000000000,0.000000000,5.000000000,32.000000000,1748429169970025.000000000,1748429169969955.000000000,-10.059477806,-0.429040939,0.344765037
1748429169.995966,0.000000000,0.000000000,0.000000000,4259850.000000000,0.000000000,5.000000000,32.000000000,1748429169979766.000000000,1748429169979696.000000000,-10.097784996,-0.444363832,0.344765037
1748429170.007038,0.000000000,0.000000000,0.000000000,4259850.000000000,0.000000000,5.000000000,32.000000000,1748429169989506.000000000,1748429169989437.000000000,-10.120769501,-0.421379507,0.329442143
1748429170.024009,0.000000000,0.000000000,0.000000000,4259850.000000000,0.000000000,5.000000000,32.000000000,1748429169999249.000000000,1748429169999179.000000000,-10.128431320,-0.398395181,0.260489136
1748429170.033950,0.000000000,0.000000000,0.000000000,4259850.000000000,0.000000000,5.000000000,32.000000000,1748429170011425.000000000,1748429170011355.000000000,-10.105446815,-0.375410825,0.214520469
1748429170.043069,0.000000000,0.000000000,0.000000000,4259850.000000000,0.000000000,5.000000000,32.000000000,1748429170021164.000000000,1748429170021096.000000000,-10.136092186,-0.329442143,0.283473492
1748429170.053927,0.000000000,0.000000000,0.000000000,4259850.000000000,0.000000000,5.000000000,32.000000000,1748429170030905.000000000,1748429170030838.000000000,-10.113107681,-0.367749393,0.229843363
1748429170.056993,0.000000000,0.000000000,0.000000000,4259850.000000000,0.000000000,5.000000000,32.000000000,1748429170040647.000000000,1748429170040579.000000000,-10.074800491,-0.329442143,0.237504810
1748429170.067911,0.000000000,0.000000000,0.000000000,4259850.000000000,0.000000000,5.000000000,32.000000000,1748429170050389.000000000,1748429170050320.000000000,-10.097784996,-0.352426499,0.214520469
1748429170.076028,0.000000000,0.000000000,0.000000000,4259850.000000000,0.000000000,5.000000000,32.000000000,1748429170060132.000000000,1748429170060062.000000000,-10.090124130,-0.406056613,0.260489136
1748429170.086027,0.000000000,0.000000000,0.000000000,4259850.000000000,0.000000000,5.000000000,32.000000000,1748429170069874.000000000,1748429170069804.000000000,-10.090124130,-0.390733719,0.329442143
1748429170.095983,0.000000000,0.000000000,0.000000000,4259850.000000000,0.000000000,5.000000000,32.000000000,1748429170079615.000000000,1748429170079546.000000000,-10.120769501,-0.398395181,0.260489136
1748429170.107032,0.000000000,0.000000000,0.000000000,4259850.000000000,0.000000000,5.000000000,32.000000000,1748429170089359.000000000,1748429170089289.000000000,-10.113107681,-0.413718045,0.275812030
1748429170.123983,0.000000000,0.000000000,0.000000000,4259850.000000000,0.000000000,5.000000000,32.000000000,1748429170101536.000000000,1748429170101467.000000000,-10.113107681,-0.390733719,0.314119279
1748429170.127019,0.000000000,0.000000000,0.000000000,4259850.000000000,0.000000000,5.000000000,32.000000000,1748429170108840.000000000,1748429170108772.000000000,-10.105446815,-0.429040939,0.298796386
1748429170.143989,0.000000000,0.000000000,0.000000000,4259850.000000000,0.000000000,5.000000000,32.000000000,1748429170121015.000000000,1748429170120948.000000000,-10.097784996,-0.367749393,0.337103605
1748429170.153006,0.000000000,0.000000000,0.000000000,4259850.000000000,0.000000000,5.000000000,32.000000000,1748429170130756.000000000,1748429170130690.000000000,-10.128431320,-0.398395181,0.314119279
1748429170.157031,0.000000000,0.000000000,0.000000000,4259850.000000000,0.000000000,5.000000000,32.000000000,1748429170140501.000000000,1748429170140431.000000000,-10.113107681,-0.360087931,0.237504810
1748429170.166941,0.000000000,0.000000000,0.000000000,4259850.000000000,0.000000000,5.000000000,32.000000000,1748429170150241.000000000,1748429170150172.000000000,-10.143754005,-0.337103605,0.275812030
1748429170.177932,0.000000000,0.000000000,0.000000000,4259850.000000000,0.000000000,5.000000000,32.000000000,1748429170159981.000000000,1748429170159913.000000000,-10.120769501,-0.421379507,0.229843363
1748429170.188908,0.000000000,0.000000000,0.000000000,4259850.000000000,0.000000000,5.000000000,32.000000000,1748429170169741.000000000,1748429170169672.000000000,-10.113107681,-0.314119279,0.314119279
1748429170.199010,0.000000000,0.000000000,0.000000000,4259850.000000000,0.000000000,5.000000000,32.000000000,1748429170179484.000000000,1748429170179414.000000000,-10.113107681,-0.467348188,0.268150598
1748429170.208996,0.000000000,0.000000000,0.000000000,4259850.000000000,0.000000000,5.000000000,32.000000000,1748429170189367.000000000,1748429170189156.000000000,-10.105446815,-0.421379507,0.298796386
1748429170.225051,0.000000000,0.000000000,0.000000000,4259850.000000000,0.000000000,5.000000000,32.000000000,1748429170201402.000000000,1748429170201334.000000000,-10.128431320,-0.413718045,0.329442143
1748429170.233971,0.000000000,0.000000000,0.000000000,4259850.000000000,0.000000000,5.000000000,32.000000000,1748429170211141.000000000,1748429170211074.000000000,-10.097784996,-0.413718045,0.344765037
1748429170.237939,0.000000000,0.000000000,0.000000000,4259850.000000000,0.000000000,5.000000000,32.000000000,1748429170218449.000000000,1748429170218380.000000000,-10.090124130,-0.436702400,0.306457818
1748429170.246928,0.000000000,0.000000000,0.000000000,4259850.000000000,0.000000000,5.000000000,32.000000000,1748429170230625.000000000,1748429170230556.000000000,-10.105446815,-0.398395181,0.298796386
1748429170.256053,0.000000000,0.000000000,0.000000000,4259850.000000000,0.000000000,5.000000000,32.000000000,1748429170237936.000000000,1748429170237864.000000000,-10.143754005,-0.314119279,0.268150598
1748429170.265994,0.000000000,0.000000000,0.000000000,4259850.000000000,0.000000000,5.000000000,32.000000000,1748429170250107.000000000,1748429170250039.000000000,-10.113107681,-0.421379507,0.275812030
1748429170.275992,0.000000000,0.000000000,0.000000000,4259850.000000000,0.000000000,5.000000000,32.000000000,1748429170259852.000000000,1748429170259781.000000000,-10.067139626,-0.383072287,0.268150598
1748429170.286027,0.000000000,0.000000000,0.000000000,4259850.000000000,0.000000000,5.000000000,32.000000000,1748429170269590.000000000,1748429170269521.000000000,-10.113107681,-0.375410825,0.291134924
1748429170.304085,0.000000000,0.000000000,0.000000000,4259850.000000000,0.000000000,5.000000000,32.000000000,1748429170279332.000000000,1748429170279261.000000000,-10.082462311,-0.436702400,0.229843363
1748429170.313994,0.000000000,0.000000000,0.000000000,4259850.000000000,0.000000000,5.000000000,32.000000000,1748429170291506.000000000,1748429170291437.000000000,-10.120769501,-0.406056613,0.245166257
1748429170.323131,0.000000000,0.000000000,0.000000000,4259850.000000000,0.000000000,5.000000000,32.000000000,1748429170301248.000000000,1748429170301178.000000000,-10.097784996,-0.429040939,0.321780711
1748429170.333940,0.000000000,0.000000000,0.000000000,4259850.000000000,0.000000000,5.000000000,32.000000000,1748429170310990.000000000,1748429170310923.000000000,-10.128431320,-0.406056613,0.252827704
1748429170.338979,0.000000000,0.000000000,0.000000000,4259850.000000000,0.000000000,5.000000000,32.000000000,1748429170320728.000000000,1748429170320660.000000000,-10.074800491,-0.421379507,0.321780711
1748429170.347943,0.000000000,0.000000000,0.000000000,4259850.000000000,0.000000000,5.000000000,32.000000000,1748429170330467.000000000,1748429170330401.000000000,-10.120769501,-0.459686726,0.268150598
1748429170.358038,0.000000000,0.000000000,0.000000000,4259850.000000000,0.000000000,5.000000000,32.000000000,1748429170340211.000000000,1748429170340142.000000000,-10.151414871,-0.429040939,0.283473492
1748429170.367920,0.000000000,0.000000000,0.000000000,4259850.000000000,0.000000000,5.000000000,32.000000000,1748429170349952.000000000,1748429170349884.000000000,-10.128431320,-0.329442143,0.306457818
1748429170.376030,0.000000000,0.000000000,0.000000000,4259850.000000000,0.000000000,5.000000000,32.000000000,1748429170359695.000000000,1748429170359625.000000000,-10.113107681,-0.344765037,0.306457818
1748429170.386937,0.000000000,0.000000000,0.000000000,4259850.000000000,0.000000000,5.000000000,32.000000000,1748429170369436.000000000,1748429170369366.000000000,-10.136092186,-0.360087931,0.298796386
1748429170.397026,0.000000000,0.000000000,0.000000000,4259850.000000000,0.000000000,5.000000000,32.000000000,1748429170379175.000000000,1748429170379106.000000000,-10.113107681,-0.429040939,0.245166257
1748429170.413946,0.000000000,0.000000000,0.000000000,4259850.000000000,0.000000000,5.000000000,32.000000000,1748429170391354.000000000,1748429170391282.000000000,-10.136092186,-0.375410825,0.229843363
1748429170.423949,0.000000000,0.000000000,0.000000000,4259850.000000000,0.000000000,5.000000000,32.000000000,1748429170401091.000000000,1748429170401023.000000000,-10.097784996,-0.406056613,0.245166257
1748429170.426992,0.000000000,0.000000000,0.000000000,4259850.000000000,0.000000000,5.000000000,32.000000000,1748429170410890.000000000,1748429170410763.000000000,-10.097784996,-0.352426499,0.298796386
1748429170.437027,0.000000000,0.000000000,0.000000000,4259850.000000000,0.000000000,5.000000000,32.000000000,1748429170420571.000000000,1748429170420504.000000000,-10.113107681,-0.413718045,0.275812030
1748429170.446954,0.000000000,0.000000000,0.000000000,4259850.000000000,0.000000000,5.000000000,32.000000000,1748429170430315.000000000,1748429170430245.000000000,-10.097784996,-0.436702400,0.306457818
1748429170.456048,0.000000000,0.000000000,0.000000000,4259850.000000000,0.000000000,5.000000000,32.000000000,1748429170440054.000000000,1748429170439986.000000000,-10.143754005,-0.413718045,0.275812030
1748429170.465936,0.000000000,0.000000000,0.000000000,4259850.000000000,0.000000000,5.000000000,32.000000000,1748429170449797.000000000,1748429170449727.000000000,-10.059477806,-0.383072287,0.352426499
1748429170.475929,0.000000000,0.000000000,0.000000000,4259850.000000000,0.000000000,5.000000000,32.000000000,1748429170459536.000000000,1748429170459467.000000000,-10.136092186,-0.398395181,0.298796386
1748429170.494024,0.000000000,0.000000000,0.000000000,4259850.000000000,0.000000000,5.000000000,32.000000000,1748429170469278.000000000,1748429170469208.000000000,-10.097784996,-0.421379507,0.291134924
1748429170.503998,0.000000000,0.000000000,0.000000000,4259850.000000000,0.000000000,5.000000000,32.000000000,1748429170481451.000000000,1748429170481383.000000000,-10.120769501,-0.390733719,0.260489136
1748429170.513035,0.000000000,0.000000000,0.000000000,4259850.000000000,0.000000000,5.000000000,32.000000000,1748429170491191.000000000,1748429170491124.000000000,-10.128431320,-0.383072287,0.291134924
1748429170.520037,0.000000000,0.000000000,0.000000000,4259850.000000000,0.000000000,5.000000000,32.000000000,1748429170498498.000000000,1748429170498429.000000000,-10.136092186,-0.398395181,0.314119279
1748429170.528923,0.000000000,0.000000000,0.000000000,4259850.000000000,0.000000000,5.000000000,32.000000000,1748429170508238.000000000,1748429170508169.000000000,-10.113107681,-0.375410825,0.268150598
1748429170.537021,0.000000000,0.000000000,0.000000000,4259850.000000000,0.000000000,5.000000000,32.000000000,1748429170520412.000000000,1748429170520344.000000000,-10.105446815,-0.413718045,0.237504810
1748429170.547009,0.000000000,0.000000000,0.000000000,4259850.000000000,0.000000000,5.000000000,32.000000000,1748429170530151.000000000,1748429170530084.000000000,-10.143754005,-0.367749393,0.252827704
1748429170.555988,0.000000000,0.000000000,0.000000000,4259850.000000000,0.000000000,5.000000000,32.000000000,1748429170539894.000000000,1748429170539825.000000000,-10.120769501,-0.390733719,0.229843363
1748429170.566042,0.000000000,0.000000000,0.000000000,4259850.000000000,0.000000000,5.000000000,32.000000000,1748429170549632.000000000,1748429170549565.000000000,-10.082462311,-0.367749393,0.314119279
1748429170.575982,0.000000000,0.000000000,0.000000000,4259850.000000000,0.000000000,5.000000000,32.000000000,1748429170559416.000000000,1748429170559306.000000000,-10.074800491,-0.421379507,0.291134924
1748429170.594030,0.000000000,0.000000000,0.000000000,4259850.000000000,0.000000000,5.000000000,32.000000000,1748429170571548.000000000,1748429170571481.000000000,-10.128431320,-0.413718045,0.291134924
1748429170.603179,0.000000000,0.000000000,0.000000000,4259850.000000000,0.000000000,5.000000000,32.000000000,1748429170581289.000000000,1748429170581220.000000000,-10.105446815,-0.383072287,0.306457818
1748429170.614003,0.000000000,0.000000000,0.000000000,4259850.000000000,0.000000000,5.000000000,32.000000000,1748429170591028.000000000,1748429170590960.000000000,-10.090124130,-0.352426499,0.298796386
1748429170.616920,0.000000000,0.000000000,0.000000000,4259850.000000000,0.000000000,5.000000000,32.000000000,1748429170600767.000000000,1748429170600700.000000000,-10.097784996,-0.398395181,0.291134924
1748429170.626941,0.000000000,0.000000000,0.000000000,4259850.000000000,0.000000000,5.000000000,32.000000000,1748429170610535.000000000,1748429170610441.000000000,-10.105446815,-0.413718045,0.283473492
1748429170.638125,0.000000000,0.000000000,0.000000000,4259850.000000000,0.000000000,5.000000000,32.000000000,1748429170620248.000000000,1748429170620182.000000000,-10.097784996,-0.360087931,0.283473492
1748429170.647103,0.000000000,0.000000000,0.000000000,4259850.000000000,0.000000000,5.000000000,32.000000000,1748429170627556.000000000,1748429170627488.000000000,-10.113107681,-0.413718045,0.245166257
1748429170.656920,0.000000000,0.000000000,0.000000000,4259850.000000000,0.000000000,5.000000000,32.000000000,1748429170637784.000000000,1748429170637716.000000000,-10.120769501,-0.421379507,0.275812030
1748429170.666052,0.000000000,0.000000000,0.000000000,4259850.000000000,0.000000000,5.000000000,32.000000000,1748429170650037.000000000,1748429170649893.000000000,-10.097784996,-0.421379507,0.260489136
1748429170.676037,0.000000000,0.000000000,0.000000000,4259850.000000000,0.000000000,5.000000000,32.000000000,1748429170659703.000000000,1748429170659634.000000000,-10.097784996,-0.390733719,0.275812030
1748429170.695939,0.000000000,0.000000000,0.000000000,4259850.000000000,0.000000000,5.000000000,32.000000000,1748429170671880.000000000,1748429170671811.000000000,-10.074800491,-0.398395181,0.291134924
1748429170.705061,0.000000000,0.000000000,0.000000000,4259850.000000000,0.000000000,5.000000000,32.000000000,1748429170681618.000000000,1748429170681551.000000000,-10.159076691,-0.390733719,0.275812030
1748429170.713969,0.000000000,0.000000000,0.000000000,4259850.000000000,0.000000000,5.000000000,32.000000000,1748429170691359.000000000,1748429170691293.000000000,-10.097784996,-0.352426499,0.291134924
1748429170.723945,0.000000000,0.000000000,0.000000000,4259850.000000000,0.000000000,5.000000000,32.000000000,1748429170701100.000000000,1748429170701034.000000000,-10.074800491,-0.413718045,0.268150598
1748429170.727924,0.000000000,0.000000000,0.000000000,4259850.000000000,0.000000000,5.000000000,32.000000000,1748429170710844.000000000,1748429170710775.000000000,-10.159076691,-0.413718045,0.291134924
1748429170.737946,0.000000000,0.000000000,0.000000000,4259850.000000000,0.000000000,5.000000000,32.000000000,1748429170720617.000000000,1748429170720516.000000000,-10.097784996,-0.413718045,0.314119279
1748429170.747012,0.000000000,0.000000000,0.000000000,4259850.000000000,0.000000000,5.000000000,32.000000000,1748429170730331.000000000,1748429170730257.000000000,-10.105446815,-0.436702400,0.275812030
1748429170.756935,0.000000000,0.000000000,0.000000000,4259850.000000000,0.000000000,5.000000000,32.000000000,1748429170740067.000000000,1748429170739998.000000000,-10.143754005,-0.436702400,0.344765037
1748429170.765982,0.000000000,0.000000000,0.000000000,4259850.000000000,0.000000000,5.000000000,32.000000000,1748429170749809.000000000,1748429170749739.000000000,-10.074800491,-0.406056613,0.268150598
1748429170.775984,0.000000000,0.000000000,0.000000000,4259850.000000000,0.000000000,5.000000000,32.000000000,1748429170759549.000000000,1748429170759479.000000000,-10.097784996,-0.383072287,0.329442143
1748429170.794033,0.000000000,0.000000000,0.000000000,4259850.000000000,0.000000000,5.000000000,32.000000000,1748429170771722.000000000,1748429170771655.000000000,-10.105446815,-0.375410825,0.314119279
1748429170.796049,0.000000000,0.000000000,0.000000000,4259850.000000000,0.000000000,5.000000000,32.000000000,1748429170779032.000000000,1748429170778960.000000000,-10.097784996,-0.367749393,0.321780711
1748429170.813973,0.000000000,0.000000000,0.000000000,4259850.000000000,0.000000000,5.000000000,32.000000000,1748429170791203.000000000,1748429170791136.000000000,-10.113107681,-0.375410825,0.306457818
1748429170.824044,0.000000000,0.000000000,0.000000000,4259850.000000000,0.000000000,5.000000000,32.000000000,1748429170801076.000000000,1748429170800878.000000000,-10.105446815,-0.429040939,0.321780711
1748429170.827984,0.000000000,0.000000000,0.000000000,4259850.000000000,0.000000000,5.000000000,32.000000000,1748429170810686.000000000,1748429170810620.000000000,-10.128431320,-0.390733719,0.252827704
1748429170.837028,0.000000000,0.000000000,0.000000000,4259850.000000000,0.000000000,5.000000000,32.000000000,1748429170820432.000000000,1748429170820362.000000000,-10.105446815,-0.429040939,0.260489136
1748429170.847031,0.000000000,0.000000000,0.000000000,4259850.000000000,0.000000000,5.000000000,32.000000000,1748429170830173.000000000,1748429170830105.000000000,-10.105446815,-0.360087931,0.275812030
1748429170.855979,0.000000000,0.000000000,0.000000000,4259850.000000000,0.000000000,5.000000000,32.000000000,1748429170839915.000000000,1748429170839846.000000000,-10.067139626,-0.390733719,0.252827704
1748429170.865990,0.000000000,0.000000000,0.000000000,4259850.000000000,0.000000000,5.000000000,32.000000000,1748429170849656.000000000,1748429170849587.000000000,-10.113107681,-0.452025294,0.268150598
1748429170.875937,0.000000000,0.000000000,0.000000000,4259850.000000000,0.000000000,5.000000000,32.000000000,1748429170859396.000000000,1748429170859328.000000000,-10.105446815,-0.436702400,0.214520469
1748429170.894044,0.000000000,0.000000000,0.000000000,4259850.000000000,0.000000000,5.000000000,32.000000000,1748429170871571.000000000,1748429170871504.000000000,-10.105446815,-0.421379507,0.283473492
1748429170.903943,0.000000000,0.000000000,0.000000000,4259850.000000000,0.000000000,5.000000000,32.000000000,1748429170881312.000000000,1748429170881244.000000000,-10.113107681,-0.421379507,0.298796386
1748429170.914013,0.000000000,0.000000000,0.000000000,4259850.000000000,0.000000000,5.000000000,32.000000000,1748429170891052.000000000,1748429170890986.000000000,-10.113107681,-0.413718045,0.321780711
1748429170.917094,0.000000000,0.000000000,0.000000000,4259850.000000000,0.000000000,5.000000000,32.000000000,1748429170900794.000000000,1748429170900727.000000000,-10.090124130,-0.406056613,0.321780711
1748429170.925995,0.000000000,0.000000000,0.000000000,4259850.000000000,0.000000000,5.000000000,32.000000000,1748429170908123.000000000,1748429170908032.000000000,-10.090124130,-0.421379507,0.306457818
1748429170.935976,0.000000000,0.000000000,0.000000000,4259850.000000000,0.000000000,5.000000000,32.000000000,1748429170920279.000000000,1748429170920208.000000000,-10.128431320,-0.421379507,0.329442143
1748429170.946002,0.000000000,0.000000000,0.000000000,4259850.000000000,0.000000000,5.000000000,32.000000000,1748429170930017.000000000,1748429170929948.000000000,-10.128431320,-0.360087931,0.314119279
1748429170.956949,0.000000000,0.000000000,0.000000000,4259850.000000000,0.000000000,5.000000000,32.000000000,1748429170939756.000000000,1748429170939688.000000000,-10.113107681,-0.413718045,0.337103605
1748429170.965935,0.000000000,0.000000000,0.000000000,4259850.000000000,0.000000000,5.000000000,32.000000000,1748429170949605.000000000,1748429170949428.000000000,-10.120769501,-0.383072287,0.298796386
1748429170.984061,0.000000000,0.000000000,0.000000000,4259850.000000000,0.000000000,5.000000000,32.000000000,1748429170961670.000000000,1748429170961603.000000000,-10.082462311,-0.390733719,0.222181916
1748429170.993042,0.000000000,0.000000000,0.000000000,4259850.000000000,0.000000000,5.000000000,32.000000000,1748429170971416.000000000,1748429170971344.000000000,-10.113107681,-0.344765037,0.283473492
1748429171.003951,0.000000000,0.000000000,0.000000000,4259850.000000000,0.000000000,5.000000000,32.000000000,1748429170981152.000000000,1748429170981084.000000000,-10.090124130,-0.375410825,0.222181916
1748429171.007939,0.000000000,0.000000000,0.000000000,4259850.000000000,0.000000000,5.000000000,32.000000000,1748429170990892.000000000,1748429170990825.000000000,-10.105446815,-0.344765037,0.275812030
1748429171.017027,0.000000000,0.000000000,0.000000000,4259850.000000000,0.000000000,5.000000000,32.000000000,1748429171000646.000000000,1748429171000565.000000000,-10.166738510,-0.344765037,0.283473492
1748429171.027953,0.000000000,0.000000000,0.000000000,4259850.000000000,0.000000000,5.000000000,32.000000000,1748429171010377.000000000,1748429171010307.000000000,-10.113107681,-0.329442143,0.291134924
1748429171.037932,0.000000000,0.000000000,0.000000000,4259850.000000000,0.000000000,5.000000000,32.000000000,1748429171020115.000000000,1748429171020047.000000000,-10.128431320,-0.390733719,0.268150598
1748429171.047021,0.000000000,0.000000000,0.000000000,4259850.000000000,0.000000000,5.000000000,32.000000000,1748429171029858.000000000,1748429171029788.000000000,-10.113107681,-0.383072287,0.291134924
1748429171.055988,0.000000000,0.000000000,0.000000000,4259850.000000000,0.000000000,5.000000000,32.000000000,1748429171039598.000000000,1748429171039530.000000000,-10.105446815,-0.383072287,0.298796386
1748429171.074051,0.000000000,0.000000000,0.000000000,4259850.000000000,0.000000000,5.000000000,32.000000000,1748429171051775.000000000,1748429171051707.000000000,-10.105446815,-0.413718045,0.306457818
1748429171.079958,0.000000000,0.000000000,0.000000000,4259850.000000000,0.000000000,5.000000000,32.000000000,1748429171059082.000000000,1748429171059013.000000000,-10.128431320,-0.406056613,0.268150598
1748429171.093934,0.000000000,0.000000000,0.000000000,4259850.000000000,0.000000000,5.000000000,32.000000000,1748429171071256.000000000,1748429171071190.000000000,-10.097784996,-0.421379507,0.306457818
1748429171.103990,0.000000000,0.000000000,0.000000000,4259850.000000000,0.000000000,5.000000000,32.000000000,1748429171080997.000000000,1748429171080930.000000000,-10.105446815,-0.390733719,0.275812030
1748429171.109031,0.000000000,0.000000000,0.000000000,4259850.000000000,0.000000000,5.000000000,32.000000000,1748429171090737.000000000,1748429171090671.000000000,-10.082462311,-0.383072287,0.260489136
1748429171.117979,0.000000000,0.000000000,0.000000000,4259850.000000000,0.000000000,5.000000000,32.000000000,1748429171100650.000000000,1748429171100412.000000000,-10.128431320,-0.413718045,0.237504810
1748429171.128032,0.000000000,0.000000000,0.000000000,4259850.000000000,0.000000000,5.000000000,32.000000000,1748429171110225.000000000,1748429171110153.000000000,-10.090124130,-0.383072287,0.291134924
1748429171.137932,0.000000000,0.000000000,0.000000000,4259850.000000000,0.000000000,5.000000000,32.000000000,1748429171119965.000000000,1748429171119894.000000000,-10.090124130,-0.337103605,0.291134924
1748429171.147041,0.000000000,0.000000000,0.000000000,4259850.000000000,0.000000000,5.000000000,32.000000000,1748429171129706.000000000,1748429171129635.000000000,-10.128431320,-0.375410825,0.260489136
1748429171.156941,0.000000000,0.000000000,0.000000000,4259850.000000000,0.000000000,5.000000000,32.000000000,1748429171139444.000000000,1748429171139375.000000000,-10.143754005,-0.383072287,0.337103605
1748429171.174031,0.000000000,0.000000000,0.000000000,4259850.000000000,0.000000000,5.000000000,32.000000000,1748429171151618.000000000,1748429171151549.000000000,-10.136092186,-0.383072287,0.337103605
1748429171.184000,0.000000000,0.000000000,0.000000000,4259850.000000000,0.000000000,5.000000000,32.000000000,1748429171161358.000000000,1748429171161289.000000000,-10.136092186,-0.429040939,0.252827704
1748429171.194927,0.000000000,0.000000000,0.000000000,4259850.000000000,0.000000000,5.000000000,32.000000000,1748429171171151.000000000,1748429171171050.000000000,-10.082462311,-0.421379507,0.268150598
1748429171.198952,0.000000000,0.000000000,0.000000000,4259850.000000000,0.000000000,5.000000000,32.000000000,1748429171180859.000000000,1748429171180792.000000000,-10.166738510,-0.390733719,0.275812030
1748429171.209978,0.000000000,0.000000000,0.000000000,4259850.000000000,0.000000000,5.000000000,32.000000000,1748429171188219.000000000,1748429171188097.000000000,-10.128431320,-0.429040939,0.275812030
1748429171.216985,0.000000000,0.000000000,0.000000000,4259850.000000000,0.000000000,5.000000000,32.000000000,1748429171200342.000000000,1748429171200272.000000000,-10.143754005,-0.352426499,0.260489136
1748429171.226048,0.000000000,0.000000000,0.000000000,4259850.000000000,0.000000000,5.000000000,32.000000000,1748429171210083.000000000,1748429171210013.000000000,-10.090124130,-0.406056613,0.237504810
1748429171.236066,0.000000000,0.000000000,0.000000000,4259850.000000000,0.000000000,5.000000000,32.000000000,1748429171219823.000000000,1748429171219754.000000000,-10.128431320,-0.383072287,0.298796386
1748429171.245982,0.000000000,0.000000000,0.000000000,4259850.000000000,0.000000000,5.000000000,32.000000000,1748429171229564.000000000,1748429171229495.000000000,-10.097784996,-0.406056613,0.283473492
1748429171.264029,0.000000000,0.000000000,0.000000000,4259850.000000000,0.000000000,5.000000000,32.000000000,1748429171241741.000000000,1748429171241673.000000000,-10.105446815,-0.375410825,0.306457818
1748429171.273949,0.000000000,0.000000000,0.000000000,4259850.000000000,0.000000000,5.000000000,32.000000000,1748429171251482.000000000,1748429171251415.000000000,-10.090124130,-0.375410825,0.275812030
1748429171.285038,0.000000000,0.000000000,0.000000000,4259850.000000000,0.000000000,5.000000000,32.000000000,1748429171261224.000000000,1748429171261156.000000000,-10.151414871,-0.429040939,0.321780711
1748429171.287994,0.000000000,0.000000000,0.000000000,4259850.000000000,0.000000000,5.000000000,32.000000000,1748429171270965.000000000,1748429171270898.000000000,-10.151414871,-0.383072287,0.214520469
1748429171.298074,0.000000000,0.000000000,0.000000000,4259850.000000000,0.000000000,5.000000000,32.000000000,1748429171280747.000000000,1748429171280639.000000000,-10.074800491,-0.390733719,0.229843363
1748429171.306998,0.000000000,0.000000000,0.000000000,4259850.000000000,0.000000000,5.000000000,32.000000000,1748429171290449.000000000,1748429171290382.000000000,-10.113107681,-0.429040939,0.275812030
1748429171.317929,0.000000000,0.000000000,0.000000000,4259850.000000000,0.000000000,5.000000000,32.000000000,1748429171297758.000000000,1748429171297688.000000000,-10.113107681,-0.383072287,0.260489136
1748429171.325994,0.000000000,0.000000000,0.000000000,4259850.000000000,0.000000000,5.000000000,32.000000000,1748429171309933.000000000,1748429171309865.000000000,-10.128431320,-0.421379507,0.268150598
1748429171.335944,0.000000000,0.000000000,0.000000000,4259850.000000000,0.000000000,5.000000000,32.000000000,1748429171319678.000000000,1748429171319607.000000000,-10.113107681,-0.398395181,0.283473492
1748429171.346041,0.000000000,0.000000000,0.000000000,4259850.000000000,0.000000000,5.000000000,32.000000000,1748429171329416.000000000,1748429171329348.000000000,-10.082462311,-0.352426499,0.298796386
1748429171.364005,0.000000000,0.000000000,0.000000000,4259850.000000000,0.000000000,5.000000000,32.000000000,1748429171341590.000000000,1748429171341523.000000000,-10.067139626,-0.429040939,0.291134924
1748429171.373934,0.000000000,0.000000000,0.000000000,4259850.000000000,0.000000000,5.000000000,32.000000000,1748429171351332.000000000,1748429171351265.000000000,-10.090124130,-0.360087931,0.260489136
1748429171.377949,0.000000000,0.000000000,0.000000000,4259850.000000000,0.000000000,5.000000000,32.000000000,1748429171361072.000000000,1748429171361006.000000000,-10.120769501,-0.390733719,0.314119279
1748429171.387036,0.000000000,0.000000000,0.000000000,4259850.000000000,0.000000000,5.000000000,32.000000000,1748429171370813.000000000,1748429171370747.000000000,-10.151414871,-0.390733719,0.268150598
1748429171.397038,0.000000000,0.000000000,0.000000000,4259850.000000000,0.000000000,5.000000000,32.000000000,1748429171380556.000000000,1748429171380488.000000000,-10.105446815,-0.314119279,0.344765037
1748429171.406991,0.000000000,0.000000000,0.000000000,4259850.000000000,0.000000000,5.000000000,32.000000000,1748429171390298.000000000,1748429171390228.000000000,-10.090124130,-0.383072287,0.260489136
1748429171.415992,0.000000000,0.000000000,0.000000000,4259850.000000000,0.000000000,5.000000000,32.000000000,1748429171400038.000000000,1748429171399969.000000000,-10.120769501,-0.421379507,0.260489136
1748429171.426950,0.000000000,0.000000000,0.000000000,4259850.000000000,0.000000000,5.000000000,32.000000000,1748429171409778.000000000,1748429171409709.000000000,-10.097784996,-0.383072287,0.222181916
1748429171.435944,0.000000000,0.000000000,0.000000000,4259850.000000000,0.000000000,5.000000000,32.000000000,1748429171419521.000000000,1748429171419449.000000000,-10.097784996,-0.375410825,0.306457818
1748429171.454021,0.000000000,0.000000000,0.000000000,4259850.000000000,0.000000000,5.000000000,32.000000000,1748429171431690.000000000,1748429171431623.000000000,-10.128431320,-0.436702400,0.268150598
1748429171.464086,0.000000000,0.000000000,0.000000000,4259850.000000000,0.000000000,5.000000000,32.000000000,1748429171441434.000000000,1748429171441364.000000000,-10.143754005,-0.367749393,0.283473492
1748429171.467924,0.000000000,0.000000000,0.000000000,4259850.000000000,0.000000000,5.000000000,32.000000000,1748429171448738.000000000,1748429171448669.000000000,-10.082462311,-0.337103605,0.283473492
1748429171.477936,0.000000000,0.000000000,0.000000000,4259850.000000000,0.000000000,5.000000000,32.000000000,1748429171458480.000000000,1748429171458410.000000000,-10.120769501,-0.429040939,0.321780711
1748429171.486987,0.000000000,0.000000000,0.000000000,4259850.000000000,0.000000000,5.000000000,32.000000000,1748429171470719.000000000,1748429171470585.000000000,-10.159076691,-0.321780711,0.329442143
1748429171.497007,0.000000000,0.000000000,0.000000000,4259850.000000000,0.000000000,5.000000000,32.000000000,1748429171480397.000000000,1748429171480327.000000000,-10.090124130,-0.367749393,0.314119279
1748429171.506022,0.000000000,0.000000000,0.000000000,4259850.000000000,0.000000000,5.000000000,32.000000000,1748429171490136.000000000,1748429171490067.000000000,-10.128431320,-0.490332514,0.360087931
1748429171.516085,0.000000000,0.000000000,0.000000000,4259850.000000000,0.000000000,5.000000000,32.000000000,1748429171499877.000000000,1748429171499808.000000000,-10.128431320,-0.375410825,0.291134924
1748429171.526994,0.000000000,0.000000000,0.000000000,4259850.000000000,0.000000000,5.000000000,32.000000000,1748429171509619.000000000,1748429171509551.000000000,-10.120769501,-0.337103605,0.252827704
1748429171.544000,0.000000000,0.000000000,0.000000000,4259850.000000000,0.000000000,5.000000000,32.000000000,1748429171521794.000000000,1748429171521727.000000000,-10.128431320,-0.375410825,0.206859022
1748429171.553937,0.000000000,0.000000000,0.000000000,4259850.000000000,0.000000000,5.000000000,32.000000000,1748429171531537.000000000,1748429171531468.000000000,-10.143754005,-0.421379507,0.260489136
1748429171.563965,0.000000000,0.000000000,0.000000000,4259850.000000000,0.000000000,5.000000000,32.000000000,1748429171541277.000000000,1748429171541210.000000000,-10.082462311,-0.452025294,0.206859022
1748429171.566984,0.000000000,0.000000000,0.000000000,4259850.000000000,0.000000000,5.000000000,32.000000000,1748429171551018.000000000,1748429171550952.000000000,-10.097784996,-0.383072287,0.275812030
1748429171.577931,0.000000000,0.000000000,0.000000000,4259850.000000000,0.000000000,5.000000000,32.000000000,1748429171560827.000000000,1748429171560693.000000000,-10.097784996,-0.413718045,0.321780711
1748429171.586981,0.000000000,0.000000000,0.000000000,4259850.000000000,0.000000000,5.000000000,32.000000000,1748429171570505.000000000,1748429171570436.000000000,-10.105446815,-0.329442143,0.329442143
1748429171.597027,0.000000000,0.000000000,0.000000000,4259850.000000000,0.000000000,5.000000000,32.000000000,1748429171580244.000000000,1748429171580175.000000000,-10.113107681,-0.475009620,0.306457818
1748429171.606045,0.000000000,0.000000000,0.000000000,4259850.000000000,0.000000000,5.000000000,32.000000000,1748429171587550.000000000,1748429171587480.000000000,-10.113107681,-0.329442143,0.283473492
1748429171.615945,0.000000000,0.000000000,0.000000000,4259850.000000000,0.000000000,5.000000000,32.000000000,1748429171599727.000000000,1748429171599657.000000000,-10.105446815,-0.344765037,0.283473492
1748429171.634966,0.000000000,0.000000000,0.000000000,4259850.000000000,0.000000000,5.000000000,32.000000000,1748429171611905.000000000,1748429171611836.000000000,-10.113107681,-0.444363832,0.298796386
1748429171.643930,0.000000000,0.000000000,0.000000000,4259850.000000000,0.000000000,5.000000000,32.000000000,1748429171621755.000000000,1748429171621577.000000000,-10.128431320,-0.360087931,0.260489136
1748429171.653941,0.000000000,0.000000000,0.000000000,4259850.000000000,0.000000000,5.000000000,32.000000000,1748429171631384.000000000,1748429171631318.000000000,-10.067139626,-0.421379507,0.268150598
1748429171.657938,0.000000000,0.000000000,0.000000000,4259850.000000000,0.000000000,5.000000000,32.000000000,1748429171641124.000000000,1748429171641058.000000000,-10.120769501,-0.306457818,0.268150598
