__time,/fmu/out/vehicle_angular_velocity/timestamp,/fmu/out/vehicle_angular_velocity/timestamp_sample,/fmu/out/vehicle_angular_velocity/xyz[0],/fmu/out/vehicle_angular_velocity/xyz[1],/fmu/out/vehicle_angular_velocity/xyz[2],/fmu/out/vehicle_angular_velocity/xyz_derivative[0],/fmu/out/vehicle_angular_velocity/xyz_derivative[1],/fmu/out/vehicle_angular_velocity/xyz_derivative[2]
1748429168.717008,1748429168717380.000000000,1748429168717298.000000000,0.000917920,-0.001264333,0.004998721,0.339149475,-0.391742557,-0.682726443
1748429168.727929,1748429168727380.000000000,1748429168727301.000000000,-0.000724571,-0.001531655,0.000008902,0.102271162,-0.367527366,-0.504698038
1748429168.737940,1748429168737384.000000000,1748429168737304.000000000,-0.000671711,0.000134728,-0.001159563,0.154496580,0.033238214,0.100691073
1748429168.749012,1748429168747386.000000000,1748429168747307.000000000,0.001245141,0.001296495,-0.003132969,0.121944427,-0.071821503,-0.151866406
1748429168.757981,1748429168757392.000000000,1748429168757310.000000000,0.001783423,-0.001141649,-0.010813587,0.110362373,-0.161926612,-0.926875949
1748429168.768927,1748429168767392.000000000,1748429168767312.000000000,0.002069586,-0.002595098,-0.014737369,0.012159859,0.069095179,-0.540419936
1748429168.777928,1748429168777394.000000000,1748429168777315.000000000,0.000899403,-0.002066871,-0.014489164,-0.157162145,-0.047558147,0.030098937
1748429168.787942,1748429168787400.000000000,1748429168787318.000000000,-0.002672312,0.000422030,-0.002219103,-0.409457892,0.142621487,0.952567935
1748429168.798020,1748429168797400.000000000,1748429168797321.000000000,-0.000084595,-0.002107691,0.006028864,0.338114202,-0.304632157,0.821779549
1748429168.807923,1748429168807404.000000000,1748429168807324.000000000,-0.002395786,0.000873136,0.008748482,-0.222489715,0.402701378,-0.011645962
1748429168.817930,1748429168817410.000000000,1748429168817327.000000000,-0.000000494,0.003659572,0.001393421,0.176663622,0.160482064,-0.335306853
1748429168.830992,1748429168827511.000000000,1748429168827329.000000000,-0.005827237,0.001917758,0.005622661,-0.491897523,-0.125009716,0.097181894
1748429168.839057,1748429168834992.000000000,1748429168834831.000000000,0.000253045,0.002319914,0.001137292,0.392555654,0.077510744,-0.350087613
1748429168.849016,1748429168847589.000000000,1748429168847335.000000000,-0.000191279,0.000355953,0.000256191,-0.267755747,-0.045748718,-0.211816117
1748429168.859929,1748429168857419.000000000,1748429168857338.000000000,0.000776691,0.000594610,-0.009479367,0.179424286,-0.051461183,-0.740029395
1748429168.867932,1748429168867420.000000000,1748429168867341.000000000,-0.000015881,0.000603681,-0.013567353,0.046120495,0.002796169,-0.265823483
1748429168.878945,1748429168877424.000000000,1748429168877344.000000000,0.002150509,-0.000665144,-0.015372474,0.068415940,0.139250726,-0.030544100
1748429168.887949,1748429168887427.000000000,1748429168887347.000000000,0.000534509,0.001837520,-0.010805640,-0.121729434,-0.092068814,0.312674254
1748429168.899016,1748429168897429.000000000,1748429168897349.000000000,0.002483379,-0.001896336,-0.004493549,0.017727742,-0.132575914,0.514469564
1748429168.907959,1748429168907438.000000000,1748429168907354.000000000,-0.000603138,0.002209401,-0.004249894,-0.140952528,0.282165229,0.296409994
1748429168.917979,1748429168917437.000000000,1748429168917355.000000000,-0.001067917,0.000495301,0.000932338,-0.058033474,-0.190636531,0.320430934
1748429168.928030,1748429168927438.000000000,1748429168927358.000000000,-0.000820943,0.000809438,0.000483987,0.101952612,0.334360391,-0.011349522
1748429168.938175,1748429168934940.000000000,1748429168934860.000000000,0.001367381,0.002409639,0.008749916,0.010535567,0.214809194,0.881239116
1748429168.948991,1748429168947449.000000000,1748429168947365.000000000,-0.002374453,-0.001025542,0.004404965,-0.171589911,-0.565371037,-0.166181296
1748429168.957972,1748429168957444.000000000,1748429168957366.000000000,0.000170565,-0.002136673,-0.001268317,0.002547854,-0.274042845,-0.577866673
1748429168.968035,1748429168967447.000000000,1748429168967369.000000000,0.000257276,0.001511466,-0.005475038,0.184375420,0.343081415,-0.464120001
1748429168.977970,1748429168977452.000000000,1748429168977372.000000000,0.000583594,0.000593334,-0.001486778,0.037830420,-0.307449877,0.334700346
1748429168.987996,1748429168987457.000000000,1748429168987375.000000000,0.002950598,0.000656519,-0.001746681,0.026505420,0.211970150,0.087606795
1748429168.999002,1748429168997457.000000000,1748429168997378.000000000,0.000196086,0.001733050,-0.004678549,-0.107687294,-0.051740743,-0.254687369
1748429169.009027,1748429169007465.000000000,1748429169007380.000000000,0.003108662,0.001356568,-0.001467730,0.070145100,0.246671662,0.410393089
1748429169.019388,1748429169017463.000000000,1748429169017383.000000000,-0.001083468,0.004578485,0.001095934,-0.157187894,0.496667802,0.242126986
1748429169.030158,1748429169027466.000000000,1748429169027386.000000000,-0.001487531,0.003187963,0.004173119,-0.114378199,-0.036856364,0.205218121
1748429169.039025,1748429169037470.000000000,1748429169037389.000000000,-0.001406969,0.001973439,0.003623153,0.028383283,-0.171430171,-0.145147324
1748429169.049126,1748429169044969.000000000,1748429169044891.000000000,0.001243245,-0.000287472,0.003474271,0.361350417,-0.301871747,-0.071705431
1748429169.057978,1748429169057475.000000000,1748429169057395.000000000,0.000726449,-0.002317780,-0.005113139,-0.000048243,-0.371926576,-0.744665623
1748429169.067968,1748429169067484.000000000,1748429169067398.000000000,-0.000128210,0.004106929,-0.006907603,0.078893706,0.581193924,-0.258768350
1748429169.078920,1748429169077479.000000000,1748429169077400.000000000,-0.000593551,0.002343517,-0.005054202,0.131388351,0.131406665,0.186826646
1748429169.088937,1748429169087483.000000000,1748429169087403.000000000,0.002143246,-0.003410590,-0.003786375,0.106637761,-0.549022973,0.216423184
1748429169.100962,1748429169094986.000000000,1748429169094905.000000000,-0.000899723,0.000376781,-0.004597018,-0.284397542,0.246096045,0.098404154
1748429169.109987,1748429169107504.000000000,1748429169107410.000000000,-0.000162282,0.000983622,0.001945541,-0.321246862,-0.012792130,0.604037225
1748429169.118970,1748429169114990.000000000,1748429169114911.000000000,-0.001388525,0.002100608,0.004085043,-0.192015097,0.051245883,0.377136618
1748429169.128026,1748429169124993.000000000,1748429169124914.000000000,-0.000214223,0.001593777,0.006109554,0.067476906,-0.141321942,0.297412366
1748429169.138978,1748429169137499.000000000,1748429169137417.000000000,-0.003312351,0.001122773,0.006477325,-0.371625751,0.133919850,-0.186725050
1748429169.147968,1748429169147501.000000000,1748429169147420.000000000,-0.003600883,0.001479381,0.003575288,-0.184066460,-0.031456780,-0.160549149
1748429169.157952,1748429169157503.000000000,1748429169157423.000000000,-0.001717269,0.002075402,-0.000543163,0.023946036,0.240527093,-0.374026060
1748429169.167941,1748429169167508.000000000,1748429169167426.000000000,0.001920005,-0.000098507,-0.001911830,0.336608291,-0.358431518,-0.146677464
1748429169.180029,1748429169177533.000000000,1748429169177453.000000000,0.001357081,-0.000369773,-0.004655351,0.114300549,-0.158383861,-0.289228469
1748429169.187973,1748429169187538.000000000,1748429169187455.000000000,0.000135570,-0.003146399,-0.004963486,-0.094030224,-0.114275023,-0.096934132
1748429169.198068,1748429169197537.000000000,1748429169197458.000000000,0.000414263,-0.000678634,-0.003474344,0.130405769,-0.091144040,0.166370988
1748429169.208984,1748429169207587.000000000,1748429169207461.000000000,0.001764009,-0.002481806,0.001297140,0.246403456,-0.026156805,0.434217364
1748429169.218940,1748429169215143.000000000,1748429169214963.000000000,0.000073209,0.000559902,0.005125772,-0.072060302,0.238073871,0.360743016
1748429169.228920,1748429169227550.000000000,1748429169227467.000000000,-0.000050749,-0.000505079,0.003417520,0.140190333,-0.098563418,-0.122806631
1748429169.238960,1748429169237551.000000000,1748429169237470.000000000,-0.002147583,0.003042133,0.005281681,-0.164706409,0.169402704,-0.053622361
1748429169.247974,1748429169247553.000000000,1748429169247473.000000000,-0.001987183,0.005677789,0.008036972,-0.068614818,0.346816033,0.218512967
1748429169.257950,1748429169257557.000000000,1748429169257476.000000000,-0.000119836,0.000314137,0.005581359,0.173077285,-0.243803665,-0.032403801
1748429169.267988,1748429169267559.000000000,1748429169267478.000000000,0.000096576,0.000118388,0.001187677,0.284810215,-0.163158268,-0.504759610
1748429169.277978,1748429169277560.000000000,1748429169277481.000000000,0.000851223,0.002440309,-0.004716737,0.158227503,0.081217147,-0.479459673
1748429169.288042,1748429169287566.000000000,1748429169287484.000000000,-0.000137777,0.002428548,-0.006114570,-0.070457824,0.144375294,-0.208783448
1748429169.298018,1748429169297566.000000000,1748429169297487.000000000,0.001482778,0.001728083,-0.005565953,0.185316578,-0.166550070,-0.016837472
1748429169.310080,1748429169307569.000000000,1748429169307490.000000000,-0.000433802,0.001413245,-0.005115195,-0.269868702,-0.155934036,-0.015861828
1748429169.318993,1748429169315070.000000000,1748429169314992.000000000,-0.002212249,0.000620411,0.000110905,-0.230342910,-0.065214798,0.579208016
1748429169.328042,1748429169327577.000000000,1748429169327495.000000000,0.001417217,0.002775511,0.001789508,0.384218723,-0.127928972,0.312463433
1748429169.337942,1748429169337576.000000000,1748429169337498.000000000,-0.001967499,0.001893314,0.002579153,-0.226043344,0.042314108,-0.117598571
1748429169.348001,1748429169347585.000000000,1748429169347501.000000000,0.001203064,0.000093949,0.000815438,0.242256671,-0.088536300,-0.350835115
1748429169.358073,1748429169357585.000000000,1748429169357504.000000000,-0.001510006,0.002150800,0.003861553,-0.222594365,0.066618592,0.079700336
1748429169.367909,1748429169367586.000000000,1748429169367507.000000000,0.003203112,-0.002627825,-0.004149366,0.361348212,-0.329465955,-0.763440192
1748429169.377948,1748429169377591.000000000,1748429169377510.000000000,-0.000077469,0.003482543,-0.006145332,-0.323412955,0.447517484,-0.371245831
1748429169.389953,1748429169387590.000000000,1748429169387512.000000000,0.000199148,-0.000818662,-0.003095330,0.022631107,-0.291333944,0.283179194
1748429169.398965,1748429169395092.000000000,1748429169395014.000000000,-0.002641006,-0.002937503,-0.002736147,-0.375945866,-0.228865132,0.041501664
1748429169.408966,1748429169405095.000000000,1748429169405017.000000000,0.000870568,0.000904538,-0.003891652,0.191914245,0.301237166,0.121847413
1748429169.418925,1748429169417600.000000000,1748429169417521.000000000,-0.001218485,0.002124446,-0.001741914,-0.171814337,0.049696252,0.178058177
1748429169.428016,1748429169427603.000000000,1748429169427524.000000000,-0.001949703,-0.000010945,0.002078112,-0.046752851,-0.030962441,0.346151352
1748429169.439136,1748429169435109.000000000,1748429169435026.000000000,0.000105183,-0.000635534,0.001391523,0.159931481,-0.198202521,0.149719238
1748429169.448966,1748429169447614.000000000,1748429169447529.000000000,-0.001128984,0.004889470,0.002024723,0.091779917,0.422472507,0.264919490
1748429169.458036,1748429169457612.000000000,1748429169457532.000000000,0.001695556,-0.001552298,0.003244950,0.129086807,-0.291485071,0.071842626
1748429169.468059,1748429169467616.000000000,1748429169467535.000000000,0.000526991,0.001473011,-0.004670288,0.007290079,0.428764760,-0.507089794
1748429169.477921,1748429169477621.000000000,1748429169477538.000000000,0.000364576,0.002480516,-0.003811289,-0.242968142,0.127756491,-0.118459269
1748429169.486998,1748429169487620.000000000,1748429169487541.000000000,-0.003029421,0.004567400,-0.003644359,-0.457843482,0.365503669,0.038743585
1748429169.499020,1748429169497658.000000000,1748429169497543.000000000,-0.001043587,0.003316371,-0.003036815,0.159724057,0.016435055,0.078533716
1748429169.510155,1748429169507628.000000000,1748429169507546.000000000,0.002113821,0.001111670,-0.000744032,0.389564335,-0.180811018,0.244039074
1748429169.518976,1748429169515126.000000000,1748429169515049.000000000,0.002701953,0.000619959,-0.003066606,0.142968446,-0.027052429,-0.099490985
1748429169.530061,1748429169527631.000000000,1748429169527552.000000000,0.002592339,0.001232282,0.003313682,0.175491244,0.322044104,0.509468853
1748429169.539048,1748429169537636.000000000,1748429169537555.000000000,-0.000407761,0.000759425,0.002001100,-0.144878328,-0.000992621,0.025040302
1748429169.547961,1748429169547636.000000000,1748429169547558.000000000,0.000721930,0.000139155,0.001973097,0.009991859,-0.086814903,-0.222931609
1748429169.557932,1748429169557639.000000000,1748429169557560.000000000,-0.000383316,0.001983856,-0.000448279,0.000972295,0.016687416,-0.483566254
1748429169.569943,1748429169567647.000000000,1748429169567563.000000000,-0.000059126,-0.000208249,-0.007099857,-0.090090066,-0.243890405,-0.649712265
1748429169.579002,1748429169577645.000000000,1748429169577566.000000000,-0.002188911,0.001566575,-0.004892578,-0.192369223,0.181288242,-0.004071818
1748429169.589957,1748429169585195.000000000,1748429169585068.000000000,0.000164735,-0.001583505,-0.001788218,0.216272652,-0.162158579,0.276458204
1748429169.598049,1748429169595262.000000000,1748429169595071.000000000,0.000658950,-0.002785989,-0.005638730,0.034452483,-0.174331486,-0.156036541
1748429169.608005,1748429169605153.000000000,1748429169605074.000000000,0.000357776,0.004658280,-0.005235386,-0.161782578,0.565421224,0.158668309
1748429169.619026,1748429169615156.000000000,1748429169615077.000000000,0.001423067,0.000681217,-0.004078641,0.141308293,-0.214808002,0.024814062
1748429169.629960,1748429169627663.000000000,1748429169627581.000000000,-0.000212744,0.004109423,-0.001699490,-0.056367937,0.369454622,-0.119373657
1748429169.639991,1748429169637663.000000000,1748429169637583.000000000,-0.000271294,0.000255370,0.000575594,-0.021101424,-0.319235206,0.287997365
1748429169.648115,1748429169647665.000000000,1748429169647586.000000000,-0.000218715,-0.002595299,0.001433575,0.163182333,-0.208204538,-0.130322084
1748429169.657998,1748429169657669.000000000,1748429169657589.000000000,0.000181046,-0.001446014,-0.000059265,0.011767293,0.009789510,-0.098185785
1748429169.667991,1748429169667673.000000000,1748429169667592.000000000,-0.000849071,0.001919911,-0.001328908,-0.099576771,0.264244944,-0.088877752
1748429169.678976,1748429169677675.000000000,1748429169677595.000000000,0.000715254,0.001570044,-0.003630023,0.036909863,-0.137727007,-0.142453194
1748429169.688928,1748429169687677.000000000,1748429169687598.000000000,-0.000217175,0.001364501,-0.001237713,-0.105325870,-0.223904997,0.004601671
1748429169.699925,1748429169697679.000000000,1748429169697600.000000000,-0.000657440,-0.002414917,-0.001967013,0.030183099,-0.236758769,-0.024867013
1748429169.708988,1748429169705180.000000000,1748429169705103.000000000,0.000196940,-0.001058212,-0.003638500,0.166403949,-0.071778558,-0.225685865
1748429169.718973,1748429169717686.000000000,1748429169717606.000000000,0.000045489,-0.000419293,-0.000141891,0.079661421,0.044314481,0.367854476
1748429169.728000,1748429169727687.000000000,1748429169727609.000000000,-0.002187012,-0.001847794,-0.000592553,-0.401101202,-0.361891329,-0.202374965
1748429169.737933,1748429169737690.000000000,1748429169737612.000000000,-0.004039204,-0.001379253,0.001310917,-0.221602350,-0.049871024,0.385407656
1748429169.748026,1748429169747696.000000000,1748429169747615.000000000,-0.001751890,-0.003005337,-0.000379155,-0.091077447,-0.125500038,-0.125778526
1748429169.757971,1748429169757698.000000000,1748429169757617.000000000,0.004361157,0.001698442,-0.005113209,0.605320275,0.410124749,-0.146611020
1748429169.768045,1748429169767699.000000000,1748429169767620.000000000,0.002683053,-0.000864977,-0.001729112,0.113251098,-0.110838629,0.035822388
1748429169.781026,1748429169777724.000000000,1748429169777623.000000000,0.001213561,-0.000428696,0.000368025,-0.154378459,0.008492514,0.354388416
1748429169.788983,1748429169785203.000000000,1748429169785125.000000000,-0.000043399,0.001231024,0.000520279,0.041667037,0.138991252,0.052218914
1748429169.798072,1748429169795205.000000000,1748429169795128.000000000,0.000428504,-0.000320462,-0.003050013,-0.058990479,-0.102679141,-0.146433219
1748429169.809021,1748429169807712.000000000,1748429169807632.000000000,-0.001362382,0.000957920,-0.002616606,-0.137980446,0.124810144,-0.095086865
1748429169.818027,1748429169817715.000000000,1748429169817635.000000000,0.001313856,0.004659959,-0.006935561,0.371437699,0.355379313,-0.436854482
1748429169.827943,1748429169827717.000000000,1748429169827637.000000000,-0.000139590,0.000875213,-0.000075789,-0.065207690,-0.258961648,0.361070454
1748429169.837952,1748429169837722.000000000,1748429169837640.000000000,-0.003165739,-0.004891268,0.005121202,-0.256794155,-0.469482571,0.731017292
1748429169.849919,1748429169845221.000000000,1748429169845142.000000000,-0.002076789,-0.001399406,0.003281165,0.014646042,0.321593791,-0.111132026
1748429169.858048,1748429169857725.000000000,1748429169857646.000000000,0.000898621,0.001840750,0.002729736,0.103020363,0.117677063,0.308453411
1748429169.868018,1748429169867738.000000000,1748429169867649.000000000,-0.001100515,-0.001356031,-0.000025567,-0.243007302,-0.373076767,-0.292552710
1748429169.878911,1748429169875228.000000000,1748429169875151.000000000,0.000054934,-0.003132572,0.001783741,0.166240528,-0.194021419,0.179044440
1748429169.888011,1748429169885230.000000000,1748429169885153.000000000,0.001802933,0.001664860,0.000977715,0.159765750,0.365444124,0.128619879
1748429169.899981,1748429169895234.000000000,1748429169895156.000000000,-0.001133690,-0.000749093,-0.000526356,-0.165179551,0.022046160,-0.153017014
1748429169.908052,1748429169907740.000000000,1748429169907660.000000000,0.003051616,-0.002742550,-0.003832228,0.231938124,-0.094719350,-0.045976538
1748429169.918014,1748429169917741.000000000,1748429169917663.000000000,0.001048395,0.000460823,-0.001125593,-0.021114049,0.243027434,0.146392837
1748429169.928067,1748429169927745.000000000,1748429169927666.000000000,0.000771894,-0.002655342,-0.001096674,-0.081704512,-0.430793107,0.120777853
1748429169.937959,1748429169937747.000000000,1748429169937668.000000000,-0.002305993,-0.000661705,-0.001054219,-0.370372713,0.120241404,-0.061374906
1748429169.947997,1748429169947750.000000000,1748429169947671.000000000,-0.002286051,0.001352161,-0.002068923,-0.201935500,0.109216332,-0.021220058
1748429169.957998,1748429169957763.000000000,1748429169957675.000000000,-0.001487990,-0.001639531,-0.001532917,-0.278113753,-0.147339314,0.210685849
1748429169.968043,1748429169967846.000000000,1748429169967677.000000000,-0.002096998,0.006217830,0.005556501,-0.149664178,0.533155918,0.564864099
1748429169.979023,1748429169975379.000000000,1748429169975179.000000000,-0.001473153,0.003820876,0.001261512,-0.116252229,-0.099257670,-0.115800150
1748429169.988951,1748429169985263.000000000,1748429169985182.000000000,0.001243221,-0.001470323,-0.004518654,0.146536514,-0.427389562,-0.324918300
1748429169.999010,1748429169997769.000000000,1748429169997685.000000000,0.001185541,0.001138091,-0.002056167,0.151578844,0.173772901,-0.101350449
1748429170.010006,1748429170007768.000000000,1748429170007688.000000000,0.002185754,-0.001250993,-0.000314066,0.407229751,-0.429132402,0.296196222
1748429170.017994,1748429170017773.000000000,1748429170017691.000000000,0.000154991,-0.000852503,0.001865953,-0.187373206,-0.059937317,0.246933013
1748429170.028046,1748429170027775.000000000,1748429170027694.000000000,-0.000732216,0.001429721,0.000409980,-0.071487509,0.329776645,0.077737980
1748429170.038002,1748429170037774.000000000,1748429170037697.000000000,0.001215135,-0.000822838,0.000754123,0.275688827,-0.030071838,-0.015703388
1748429170.048014,1748429170047781.000000000,1748429170047700.000000000,-0.001365077,-0.002114660,-0.002618695,-0.425529420,-0.096091770,-0.158539146
1748429170.059038,1748429170057781.000000000,1748429170057703.000000000,-0.000606670,0.001734793,-0.000864253,0.097986586,0.334841698,0.025709648
1748429170.068982,1748429170065283.000000000,1748429170065205.000000000,-0.000111467,-0.000690149,0.002336374,-0.131132722,-0.088276207,0.432579458
1748429170.078008,1748429170075285.000000000,1748429170075207.000000000,-0.000728424,0.000115680,-0.000495464,0.016924832,0.032266174,-0.209404171
1748429170.089019,1748429170087791.000000000,1748429170087711.000000000,-0.000404526,0.000542040,-0.006763190,0.081862159,-0.046373606,-0.159680858
1748429170.099975,1748429170095294.000000000,1748429170095213.000000000,-0.000078074,0.002193814,-0.009574520,0.144046426,0.072215810,-0.436146796
1748429170.109970,1748429170107798.000000000,1748429170107717.000000000,0.000862237,0.000177184,-0.000854071,0.066007055,-0.089649871,0.689982474
1748429170.117993,1748429170117800.000000000,1748429170117719.000000000,-0.001632849,-0.001410417,-0.000830055,-0.364394337,-0.229312658,0.316136271
1748429170.129020,1748429170125304.000000000,1748429170125222.000000000,0.002161435,-0.001345402,-0.001032640,0.286309242,-0.065572113,0.099015757
1748429170.138083,1748429170137806.000000000,1748429170137725.000000000,-0.000015146,-0.002700226,-0.001756173,-0.184784472,-0.132575735,-0.132352486
1748429170.148020,1748429170147810.000000000,1748429170147728.000000000,-0.000415652,0.002596332,0.003458314,-0.255788773,0.452192485,0.440209329
1748429170.158970,1748429170157811.000000000,1748429170157731.000000000,-0.001672913,0.003676144,0.002273649,0.006606226,0.191471860,-0.047002219
1748429170.168084,1748429170165311.000000000,1748429170165233.000000000,-0.001996912,0.002658783,0.001537092,-0.063000567,-0.075660780,-0.083840244
1748429170.181042,1748429170180334.000000000,1748429170180255.000000000,-0.000198776,-0.000704685,-0.001400871,0.044762757,-0.141592011,0.195265234
1748429170.191966,1748429170187836.000000000,1748429170187757.000000000,-0.001286941,0.000444982,-0.002707946,-0.153633475,0.082478099,-0.200168610
1748429170.201987,1748429170197842.000000000,1748429170197760.000000000,-0.000350054,-0.000026896,-0.006035196,-0.296815574,-0.126194298,-0.101730920
1748429170.210944,1748429170207843.000000000,1748429170207763.000000000,0.001315958,0.001402487,-0.000372178,0.184995845,-0.016347604,0.535720348
1748429170.219044,1748429170217844.000000000,1748429170217766.000000000,-0.002283039,0.003012481,-0.002486163,-0.233284384,0.237383366,-0.092752218
1748429170.229009,1748429170227851.000000000,1748429170227769.000000000,-0.000689578,0.001637785,-0.004247362,-0.025578408,0.128290698,-0.224056989
1748429170.240126,1748429170237852.000000000,1748429170237771.000000000,0.002358578,0.004063470,-0.001700136,0.082277194,0.233019441,0.304657459
1748429170.248012,1748429170247854.000000000,1748429170247775.000000000,0.000117170,0.004369436,0.002059659,-0.130462989,0.321669757,0.552357376
1748429170.258984,1748429170257856.000000000,1748429170257777.000000000,-0.000498841,0.001639732,0.000682874,-0.102770075,-0.323179543,-0.107154660
1748429170.267944,1748429170265358.000000000,1748429170265279.000000000,0.000556668,0.001157874,0.001455017,0.105578043,-0.180685043,0.047436610
1748429170.278948,1748429170277863.000000000,1748429170277783.000000000,-0.001239551,0.002248560,-0.000583834,-0.003600370,0.073315032,0.101106495
1748429170.288031,1748429170287865.000000000,1748429170287786.000000000,0.000177836,0.002747638,-0.003816336,0.210725233,0.323669046,-0.464245707
1748429170.298012,1748429170297867.000000000,1748429170297789.000000000,0.000614903,0.001356935,-0.004691778,0.046010230,-0.123112328,-0.520903528
1748429170.307997,1748429170307870.000000000,1748429170307791.000000000,0.000503946,0.000185046,-0.005009429,-0.012622349,0.153389394,0.047544993
1748429170.317993,1748429170317873.000000000,1748429170317794.000000000,-0.000021164,-0.001035842,-0.005134284,-0.109349743,-0.249620661,0.114295200
1748429170.328037,1748429170327876.000000000,1748429170327797.000000000,0.001328918,0.001502939,-0.005557249,-0.023673465,-0.040984862,-0.043840125
1748429170.341933,1748429170337968.000000000,1748429170337800.000000000,0.001264865,0.002638531,-0.002817205,0.317143351,0.050507054,0.163950071
1748429170.349938,1748429170345449.000000000,1748429170345302.000000000,0.001097059,0.004524549,-0.002265708,0.084012307,0.304398417,0.004102028
1748429170.359020,1748429170355520.000000000,1748429170355305.000000000,-0.000488774,0.000269768,-0.001093510,-0.040132038,-0.233341485,-0.146678925
1748429170.370036,1748429170365394.000000000,1748429170365308.000000000,-0.001230750,-0.001906338,0.002357581,-0.086526379,-0.210661873,0.117533065
1748429170.379964,1748429170377892.000000000,1748429170377811.000000000,0.000858444,-0.002627995,0.000615436,0.087348059,0.125708565,0.009536909
1748429170.389031,1748429170385392.000000000,1748429170385313.000000000,-0.000148268,0.001026905,0.001692809,0.011816892,0.273988336,0.094144993
1748429170.398954,1748429170395397.000000000,1748429170395316.000000000,0.002007914,0.000361904,0.001062345,0.061559483,-0.073822774,-0.035439454
1748429170.408040,1748429170407904.000000000,1748429170407820.000000000,-0.000972480,-0.005783380,-0.000333047,-0.057937484,-0.769170642,-0.060702574
1748429170.418010,1748429170417904.000000000,1748429170417823.000000000,0.000533239,0.000386281,-0.004165144,0.171708912,0.377842814,-0.480297267
1748429170.430095,1748429170427959.000000000,1748429170427825.000000000,0.001499227,0.003367453,-0.001428279,0.057303417,0.386126995,0.213786572
1748429170.438933,1748429170435408.000000000,1748429170435328.000000000,0.002113661,0.000757987,0.000116313,0.142526269,-0.324186265,0.267980516
1748429170.448031,1748429170445410.000000000,1748429170445331.000000000,0.001092048,0.003099090,-0.001797708,-0.247892708,0.286750972,-0.214264840
1748429170.459012,1748429170455415.000000000,1748429170455333.000000000,-0.002181456,-0.001194154,0.003121943,-0.196684793,-0.311016709,0.611059368
1748429170.468955,1748429170467919.000000000,1748429170467837.000000000,0.001180412,-0.000880512,0.001854079,0.088576093,-0.012685974,0.155266866
1748429170.478036,1748429170477919.000000000,1748429170477840.000000000,0.000968504,0.000141594,-0.001627874,-0.033716694,0.088556491,-0.140594035
1748429170.487991,1748429170487920.000000000,1748429170487843.000000000,-0.000571806,0.001291496,0.000560095,-0.068041086,0.504650950,0.078077458
1748429170.499033,1748429170497927.000000000,1748429170497845.000000000,-0.000898249,-0.000754628,0.002273942,-0.307003945,-0.020648524,0.153073773
1748429170.507994,1748429170507928.000000000,1748429170507848.000000000,0.001016014,0.002588362,-0.000512685,0.310126901,0.193700925,-0.090077333
1748429170.522133,1748429170515434.000000000,1748429170515350.000000000,0.001739681,-0.002983817,0.000782425,0.045503963,-0.546840310,0.094647259
1748429170.531012,1748429170527931.000000000,1748429170527854.000000000,0.000773622,-0.000151275,0.002068823,0.123736463,0.119242884,-0.040997211
1748429170.539980,1748429170535434.000000000,1748429170535356.000000000,-0.000005935,0.002026049,0.000939366,-0.054550216,0.220146209,-0.030967169
1748429170.549013,1748429170545440.000000000,1748429170545359.000000000,0.001374196,0.002326979,0.004039433,0.175162941,0.405536681,0.421852767
1748429170.558969,1748429170557944.000000000,1748429170557863.000000000,0.003634812,0.001599507,0.000370591,0.353156358,0.235810816,-0.256623864
1748429170.568938,1748429170567947.000000000,1748429170567865.000000000,-0.000121946,0.000863368,0.000025360,-0.176551893,-0.018047104,-0.068849191
1748429170.577975,1748429170577948.000000000,1748429170577868.000000000,0.000430837,-0.001719755,-0.001094495,-0.097606301,-0.041347727,-0.254068583
1748429170.588011,1748429170587953.000000000,1748429170587871.000000000,-0.001019206,0.001434412,0.000227138,-0.354815096,0.515761614,0.142646447
1748429170.598040,1748429170597953.000000000,1748429170597874.000000000,-0.000824324,-0.000361127,-0.001280415,-0.099650800,-0.180680037,-0.150178358
1748429170.607984,1748429170607955.000000000,1748429170607877.000000000,-0.000886278,0.001382750,-0.003493084,-0.143125057,0.029596547,-0.177734807
1748429170.618032,1748429170617959.000000000,1748429170617880.000000000,0.000025734,0.003071665,0.000036653,0.158395797,0.063318722,0.099696793
1748429170.627992,1748429170625464.000000000,1748429170625382.000000000,0.001259700,-0.002619193,-0.002318705,0.221199334,-0.500418901,-0.243328348
1748429170.638184,1748429170637964.000000000,1748429170637885.000000000,0.000773139,0.003567941,-0.001177663,0.068280734,0.207857400,-0.008903507
1748429170.649993,1748429170647968.000000000,1748429170647888.000000000,0.000739213,-0.001044228,-0.001979073,0.137788981,-0.364182919,-0.117844351
1748429170.659932,1748429170657970.000000000,1748429170657891.000000000,0.000011286,-0.000169697,0.000193288,0.091038093,-0.031110963,-0.023496935
1748429170.669022,1748429170665480.000000000,1748429170665393.000000000,0.000877985,0.003202566,0.000879500,0.163085997,0.375759870,0.234536096
1748429170.678965,1748429170677979.000000000,1748429170677897.000000000,-0.003079557,0.002635845,-0.001195273,-0.553551733,-0.014663821,-0.206626877
1748429170.689054,1748429170687979.000000000,1748429170687899.000000000,-0.001804079,0.000430542,-0.002322848,-0.111167818,-0.156913131,-0.202762142
1748429170.699031,1748429170697981.000000000,1748429170697902.000000000,0.000799554,0.001398412,0.000610980,0.259733975,-0.156290874,0.177836016
1748429170.708939,1748429170707985.000000000,1748429170707905.000000000,0.001035064,0.003455003,0.000426326,0.213431805,0.414369881,-0.042758219
1748429170.719040,1748429170718019.000000000,1748429170717908.000000000,0.001112670,-0.000454811,0.001714605,-0.024708496,-0.367863208,0.374838561
1748429170.730080,1748429170728145.000000000,1748429170727911.000000000,0.001146338,-0.001378508,0.002059034,-0.247753859,0.332356364,-0.002000200
1748429170.739022,1748429170735637.000000000,1748429170735413.000000000,-0.001595885,0.001323011,-0.001983854,-0.270993203,0.377547115,-0.122566588
1748429170.748944,1748429170745494.000000000,1748429170745416.000000000,-0.000354532,-0.003354097,-0.001172573,0.133001506,-0.388209552,-0.179093540
1748429170.759038,1748429170755499.000000000,1748429170755418.000000000,-0.002673467,0.000627836,-0.000235297,-0.152608156,0.222822547,-0.068496332
1748429170.768953,1748429170768007.000000000,1748429170767922.000000000,0.000809572,-0.002743956,-0.000735165,0.335680038,-0.118497945,-0.152406231
1748429170.778940,1748429170778007.000000000,1748429170777925.000000000,0.002318724,0.001433958,-0.000940594,0.271677524,0.328378677,-0.240738556
1748429170.788034,1748429170788011.000000000,1748429170787928.000000000,0.000387653,-0.000079649,-0.001976866,-0.251070559,-0.109673485,-0.158389032
1748429170.800029,1748429170798015.000000000,1748429170797931.000000000,0.000332179,-0.000968782,0.000801997,0.248022228,0.002661382,0.312708884
1748429170.808035,1748429170808017.000000000,1748429170807933.000000000,0.002796571,-0.002656929,-0.003597845,0.297657400,-0.478239983,-0.180384204
1748429170.818036,1748429170818075.000000000,1748429170817936.000000000,0.001182000,0.002168989,-0.002148191,0.091749705,0.413687319,-0.049465846
1748429170.830006,1748429170825516.000000000,1748429170825438.000000000,0.000508970,-0.001639056,0.000335613,-0.047647338,-0.346996009,0.133837163
1748429170.838933,1748429170835519.000000000,1748429170835441.000000000,-0.001960427,-0.003772603,-0.000382997,-0.329271168,-0.027319178,0.131343052
1748429170.848952,1748429170845524.000000000,1748429170845444.000000000,0.001253888,0.000283023,0.000024998,0.153907001,0.278210759,0.042171571
1748429170.858942,1748429170855526.000000000,1748429170855447.000000000,-0.001736540,-0.001497183,-0.003195208,-0.097989485,-0.377912283,-0.357807845
1748429170.868940,1748429170868032.000000000,1748429170867951.000000000,0.000328816,0.000216111,0.001996654,0.021004261,0.077673219,0.160575956
1748429170.878032,1748429170878034.000000000,1748429170877953.000000000,0.002047733,0.003823877,-0.003577908,0.267192125,0.420588434,-0.480428636
1748429170.888044,1748429170888038.000000000,1748429170887956.000000000,0.000960595,0.004132916,-0.002649162,-0.174650282,0.268263727,-0.174014166
1748429170.898101,1748429170898039.000000000,1748429170897959.000000000,0.001364044,0.002664481,-0.001634065,0.063963346,-0.088319309,-0.105564415
1748429170.908031,1748429170908042.000000000,1748429170907962.000000000,-0.001667582,-0.001339050,-0.003675351,-0.305404872,-0.332223564,-0.198628217
1748429170.918925,1748429170918048.000000000,1748429170917965.000000000,-0.000916612,0.000241214,-0.002383059,-0.020340389,0.019953469,0.039811224
1748429170.929041,1748429170925545.000000000,1748429170925467.000000000,-0.001748989,-0.001206674,-0.001650956,-0.077386543,-0.086596280,0.057253767
1748429170.938038,1748429170935550.000000000,1748429170935470.000000000,0.001022804,-0.003957817,0.000226906,0.176742062,-0.184717387,0.087229401
1748429170.948942,1748429170945551.000000000,1748429170945473.000000000,-0.001045185,-0.001216775,0.000631050,-0.216714799,0.066407740,0.019015165
1748429170.959014,1748429170958057.000000000,1748429170957976.000000000,0.000350324,0.002371082,-0.001397179,0.121020056,0.463648587,-0.086767361
1748429170.968981,1748429170968061.000000000,1748429170967979.000000000,0.000523357,0.001769938,0.001461743,0.132704705,-0.245106980,0.300769508
1748429170.977983,1748429170978066.000000000,1748429170977982.000000000,-0.001384521,-0.003170453,-0.001387725,-0.142550305,-0.372864246,-0.408844441
1748429170.988003,1748429170988068.000000000,1748429170987985.000000000,-0.001788789,-0.001440233,-0.002673472,-0.203985542,0.262420595,-0.102544211
1748429170.998937,1748429170998070.000000000,1748429170997987.000000000,-0.000969151,0.002176631,-0.004704504,-0.017789949,0.241045058,-0.343775064
1748429171.009006,1748429171008073.000000000,1748429171007990.000000000,-0.002443525,0.003418196,-0.000136749,-0.062236082,0.163442761,0.341714799
1748429171.019006,1748429171015572.000000000,1748429171015493.000000000,0.000788941,-0.000477702,0.000763077,0.206416830,-0.233924016,0.092354521
1748429171.029001,1748429171025575.000000000,1748429171025495.000000000,-0.000687709,0.000073290,-0.004979287,-0.062880076,-0.210414901,-0.412080407
1748429171.038985,1748429171035577.000000000,1748429171035498.000000000,-0.001296157,-0.001829708,-0.002581334,-0.107316725,-0.259468496,0.254535019
1748429171.049933,1748429171048081.000000000,1748429171048002.000000000,0.001459038,-0.002588050,0.003050777,0.399138302,-0.130378067,0.271417767
1748429171.059030,1748429171055584.000000000,1748429171055504.000000000,-0.000635714,0.002348277,-0.001422407,-0.141325668,0.518599212,-0.244112372
1748429171.068998,1748429171068086.000000000,1748429171068008.000000000,0.000977910,0.005880716,-0.003231553,0.348684102,0.397346079,-0.201270759
1748429171.077934,1748429171075589.000000000,1748429171075509.000000000,-0.000522471,-0.001974665,-0.002101544,-0.001917730,-0.683819950,-0.076611646
1748429171.088953,1748429171088092.000000000,1748429171088014.000000000,0.000095871,-0.001174280,-0.000639412,0.011449096,0.061481982,0.117398567
1748429171.098938,1748429171098204.000000000,1748429171098016.000000000,0.002980457,-0.000596907,0.002158126,0.199746475,0.160268784,0.231679320
1748429171.110995,1748429171105691.000000000,1748429171105518.000000000,0.001897896,0.003596078,-0.004068349,0.191600844,0.323721737,-0.476296157
1748429171.119950,1748429171115761.000000000,1748429171115522.000000000,-0.001963655,0.002836335,-0.005002599,-0.330117613,0.067425251,-0.419650376
1748429171.130043,1748429171125604.000000000,1748429171125524.000000000,0.000705263,-0.001468506,-0.003414920,0.130569637,-0.363423079,0.079034589
1748429171.140036,1748429171135609.000000000,1748429171135526.000000000,0.003075873,-0.000951617,-0.005616131,0.429316759,0.051443376,-0.277753592
1748429171.149995,1748429171148110.000000000,1748429171148030.000000000,0.000353380,-0.000496608,-0.002675736,-0.116626181,-0.068143874,0.072631232
1748429171.158950,1748429171158112.000000000,1748429171158033.000000000,0.001273823,-0.005574834,-0.003469649,-0.072183810,-0.432555109,0.001328878
1748429171.168031,1748429171168116.000000000,1748429171168036.000000000,-0.001690839,-0.000341605,-0.001387806,-0.258515149,0.340672046,0.128659859
1748429171.178035,1748429171178119.000000000,1748429171178039.000000000,-0.001115468,0.001141456,-0.003227680,0.005850140,0.097772546,-0.194320545
1748429171.189034,1748429171188142.000000000,1748429171188062.000000000,0.000528467,0.001005729,-0.002661959,0.139987037,-0.104321316,0.090791531
1748429171.200014,1748429171198145.000000000,1748429171198066.000000000,-0.002593477,0.002280559,-0.000648944,-0.301166147,0.118173920,0.279702276
1748429171.208982,1748429171205648.000000000,1748429171205568.000000000,-0.001674322,-0.000377651,-0.000533999,0.098030925,-0.294516265,-0.013017585
1748429171.218025,1748429171215657.000000000,1748429171215570.000000000,-0.000797429,-0.001794883,-0.000066428,0.013348844,-0.182799265,-0.225030869
1748429171.229034,1748429171225651.000000000,1748429171225573.000000000,0.000101160,0.000863459,-0.000966626,0.039761469,0.042334028,-0.077226460
1748429171.239013,1748429171238156.000000000,1748429171238077.000000000,-0.000518424,0.002010892,0.000426507,-0.046742454,0.271094203,-0.117341809
1748429171.248035,1748429171248159.000000000,1748429171248079.000000000,0.001314245,-0.002996719,0.000733313,-0.018338626,-0.297647983,0.343687415
1748429171.258040,1748429171258161.000000000,1748429171258082.000000000,0.001666097,-0.000848873,-0.000154483,0.030630708,0.094175629,0.097326569
1748429171.268041,1748429171268166.000000000,1748429171268085.000000000,0.001990559,-0.002741873,-0.000218467,0.068391375,-0.292392373,-0.094961017
1748429171.280088,1748429171278167.000000000,1748429171278088.000000000,-0.000894594,0.000110777,0.000607619,-0.367323756,0.029603751,0.044120803
1748429171.290149,1748429171288170.000000000,1748429171288091.000000000,0.000703279,0.000007387,0.000155789,0.331496209,-0.017402586,-0.087005958
1748429171.301025,1748429171295671.000000000,1748429171295593.000000000,0.001771438,-0.000564138,-0.001715130,0.257846892,0.002857646,-0.197451487
1748429171.309000,1748429171305675.000000000,1748429171305596.000000000,-0.000743818,-0.001940445,0.001706154,0.009116558,-0.232242420,0.254746646
1748429171.319920,1748429171318178.000000000,1748429171318099.000000000,0.001492704,-0.000024990,-0.003762088,0.080294304,-0.086252034,-0.453018725
1748429171.328948,1748429171325680.000000000,1748429171325601.000000000,-0.003389050,0.002678056,-0.002139823,-0.402027518,0.104562953,0.060737077
1748429171.339932,1748429171338186.000000000,1748429171338105.000000000,-0.002246551,-0.001078035,-0.001039144,-0.114123933,-0.246085882,0.217173919
1748429171.348995,1748429171345688.000000000,1748429171345607.000000000,-0.002034810,-0.000501171,0.000140618,0.020020967,0.025996275,0.110105105
1748429171.358036,1748429171358191.000000000,1748429171358111.000000000,0.002669878,0.001874245,-0.001312869,0.304506749,0.422495037,0.171746820
1748429171.368092,1748429171368193.000000000,1748429171368113.000000000,-0.001167018,0.002928075,0.000512386,-0.249769270,0.127428234,0.039880935
1748429171.379965,1748429171378203.000000000,1748429171378116.000000000,0.001118267,0.001249544,0.006061750,0.179901138,-0.004909888,0.422667205
1748429171.388942,1748429171385695.000000000,1748429171385618.000000000,-0.000662144,0.001864647,0.001847683,-0.053328149,-0.051632877,-0.310487717
1748429171.398005,1748429171395703.000000000,1748429171395621.000000000,0.002457884,-0.003534592,-0.001577733,0.171402290,-0.556132913,-0.141677409
1748429171.408946,1748429171405705.000000000,1748429171405624.000000000,0.000905728,-0.001818469,0.000052824,-0.068054840,0.048184350,0.112693422
1748429171.418945,1748429171415709.000000000,1748429171415628.000000000,0.001590905,0.000408385,-0.004032061,0.033153240,0.136642918,-0.641728878
1748429171.429140,1748429171428210.000000000,1748429171428131.000000000,0.000221575,0.001275647,-0.005587818,-0.057646558,0.015053554,0.064101748
1748429171.438034,1748429171438213.000000000,1748429171438133.000000000,0.001407049,-0.001873563,-0.005547019,0.235733390,-0.167998135,-0.104578353
1748429171.448031,1748429171448216.000000000,1748429171448136.000000000,0.000775540,0.000614411,-0.003266806,0.149855554,0.182172686,0.018087633
1748429171.458950,1748429171458219.000000000,1748429171458139.000000000,0.000483561,0.003895406,-0.001360785,0.017589845,-0.118865497,0.100279979
1748429171.470028,1748429171465724.000000000,1748429171465641.000000000,-0.001494497,-0.001354547,-0.004999115,-0.213440642,-0.550772727,-0.363207847
1748429171.479989,1748429171475773.000000000,1748429171475644.000000000,0.000115580,0.002514903,-0.000999930,0.048395988,0.091822468,0.146309823
1748429171.489040,1748429171485829.000000000,1748429171485647.000000000,-0.001086491,-0.000757586,0.003136223,-0.399120480,-0.118025646,0.438477069
1748429171.498035,1748429171495731.000000000,1748429171495650.000000000,-0.000813117,0.000553035,0.000536056,-0.173904672,0.177079067,0.288156867
1748429171.508023,1748429171505732.000000000,1748429171505653.000000000,0.000644928,-0.002654190,0.004133402,0.117674798,-0.200902522,0.289563060
1748429171.518942,1748429171518235.000000000,1748429171518156.000000000,0.001087510,0.003439141,0.006369869,-0.031333700,0.337870628,0.334606767
1748429171.530000,1748429171528240.000000000,1748429171528159.000000000,0.000123736,0.000140132,0.001018372,0.002069513,-0.024774224,-0.167274207
1748429171.538942,1748429171538240.000000000,1748429171538162.000000000,0.001961983,0.002884203,-0.001682042,-0.013688884,0.182742774,-0.085121803
1748429171.548027,1748429171548244.000000000,1748429171548165.000000000,0.000637493,-0.000695453,-0.001196640,-0.050187185,-0.212149814,0.279090583
1748429171.558110,1748429171558247.000000000,1748429171558168.000000000,-0.001976797,0.001132892,-0.005443496,-0.344548613,0.045836065,-0.275291771
1748429171.568948,1748429171568250.000000000,1748429171568171.000000000,-0.000080306,-0.001829605,-0.002901989,0.270244449,-0.496927589,0.064337164
1748429171.579027,1748429171575752.000000000,1748429171575673.000000000,0.000440588,-0.002968883,-0.002653489,0.051491633,-0.193179354,0.100784779
1748429171.587991,1748429171585754.000000000,1748429171585675.000000000,0.000302550,-0.001145033,-0.002383365,0.138879701,-0.259269506,-0.030831326
1748429171.599030,1748429171595757.000000000,1748429171595678.000000000,-0.001739539,-0.002722791,-0.001972992,0.131433696,-0.035353817,0.260509163
1748429171.609000,1748429171608261.000000000,1748429171608182.000000000,0.002837525,0.001621313,-0.000464366,0.226344481,0.256123692,0.187191606
1748429171.618996,1748429171615765.000000000,1748429171615684.000000000,0.000633280,-0.000014689,0.001890625,-0.119350232,-0.130656689,0.174382582
1748429171.628033,1748429171628267.000000000,1748429171628187.000000000,0.001424797,-0.003196187,-0.000956858,0.117161676,-0.319954723,-0.119802788
1748429171.638046,1748429171638269.000000000,1748429171638190.000000000,-0.000063016,0.001007485,0.001877520,-0.027153928,0.340442628,0.249540880
1748429171.648079,1748429171648274.000000000,1748429171648193.000000000,-0.000882481,-0.001543587,-0.000515478,0.040278889,-0.104121074,-0.364555031
1748429171.660035,1748429171658274.000000000,1748429171658197.000000000,0.002639730,0.000250047,0.000422960,0.260384500,0.037740920,0.101966813
1748429171.669039,1748429171665778.000000000,1748429171665698.000000000,-0.001071124,0.004328562,0.001889666,-0.234769061,0.333928466,0.115311459
1748429171.678952,1748429171675779.000000000,1748429171675701.000000000,0.000025238,0.002052003,-0.000461247,0.089986801,-0.082179755,-0.277136892
1748429171.688013,1748429171685782.000000000,1748429171685704.000000000,-0.000402499,0.003231739,0.000603382,0.182810992,0.300767362,0.101225339
1748429171.698036,1748429171695787.000000000,1748429171695707.000000000,0.000298692,-0.001157684,0.002430413,-0.002301753,-0.281083345,0.199437037
1748429171.710965,1748429171708291.000000000,1748429171708210.000000000,0.001285707,0.001778054,0.004864489,0.028398592,0.149469689,0.219762519
1748429171.719016,1748429171718293.000000000,1748429171718213.000000000,-0.000016212,-0.001842500,0.003361640,-0.151777357,-0.068874903,-0.063189283
1748429171.729995,1748429171728299.000000000,1748429171728216.000000000,-0.000908898,0.003326209,0.002171497,-0.137936115,0.399283946,-0.067814790
1748429171.738990,1748429171738303.000000000,1748429171738219.000000000,-0.000240297,0.000682188,-0.003524084,0.065516628,0.100229919,-0.293144792
1748429171.749035,1748429171745801.000000000,1748429171745721.000000000,-0.001576805,0.001627996,-0.001182426,-0.065993585,0.147390246,0.077041134
1748429171.758070,1748429171758308.000000000,1748429171758225.000000000,0.003207076,0.000620431,-0.000598757,0.523369133,0.035814427,-0.164374575
1748429171.768114,1748429171765806.000000000,1748429171765726.000000000,0.001220674,-0.000791736,-0.000593522,-0.072891399,-0.270659983,0.027613912
1748429171.778931,1748429171775809.000000000,1748429171775729.000000000,-0.002477911,-0.001194577,-0.004832713,-0.062020872,-0.042339493,-0.105068453
1748429171.788037,1748429171785813.000000000,1748429171785732.000000000,0.002142094,0.002464740,-0.002788353,0.272632420,0.186529666,-0.051323079
1748429171.798013,1748429171795814.000000000,1748429171795735.000000000,-0.000563187,0.000145082,0.001798665,0.049493387,-0.145388722,0.436561584
1748429171.807945,1748429171805817.000000000,1748429171805738.000000000,0.001731506,0.000115958,-0.002582150,0.172615409,-0.051507659,-0.423518419
1748429171.818947,1748429171818322.000000000,1748429171818242.000000000,0.000125431,0.004288718,0.005782610,-0.133594036,0.539281547,0.451119870
1748429171.829013,1748429171828324.000000000,1748429171828244.000000000,0.000968640,-0.001649332,0.001730818,0.136127546,-0.405996352,-0.219736949
1748429171.838970,1748429171838326.000000000,1748429171838247.000000000,-0.000735210,-0.001023107,-0.003661534,-0.228634924,-0.051739234,-0.364577472
1748429171.848945,1748429171848332.000000000,1748429171848250.000000000,-0.000332079,0.001521352,-0.005353564,-0.063177779,0.289580286,-0.212707624
1748429171.861032,1748429171858401.000000000,1748429171858253.000000000,0.001835966,0.002302794,-0.006552740,-0.034464613,0.099027582,-0.123905435
1748429171.869947,1748429171865956.000000000,1748429171865755.000000000,0.000003064,-0.001421273,-0.001197538,-0.291250974,-0.295731008,0.648099065
1748429171.881038,1748429171875839.000000000,1748429171875758.000000000,-0.000214446,0.000602655,-0.000556262,0.065602452,0.043592207,0.228221208
1748429171.888935,1748429171885839.000000000,1748429171885761.000000000,0.000158129,0.001808025,-0.004815053,-0.034415670,0.208089545,-0.288991362
1748429171.898052,1748429171895842.000000000,1748429171895764.000000000,-0.000160554,0.002821464,-0.001201326,0.171160236,-0.135948345,0.084533453
1748429171.909001,1748429171905846.000000000,1748429171905766.000000000,-0.001301346,0.002404183,-0.000008155,-0.293667614,0.142601326,0.088317811
1748429171.918960,1748429171918350.000000000,1748429171918270.000000000,0.000640860,-0.002903199,0.000386669,0.173069969,-0.596110523,0.255762160
1748429171.928957,1748429171928353.000000000,1748429171928273.000000000,0.000888895,-0.000654943,-0.001460803,-0.210859850,0.281991482,-0.089713708
1748429171.938968,1748429171938358.000000000,1748429171938276.000000000,0.000764655,0.000548483,0.002778296,0.017320240,0.038966727,0.483184487
1748429171.948087,1748429171948362.000000000,1748429171948278.000000000,-0.001730365,0.004469347,-0.000297885,-0.231396765,0.409752637,-0.148443401
1748429171.958944,1748429171958365.000000000,1748429171958281.000000000,-0.000204193,0.000162305,0.000336222,-0.228334546,-0.261290044,0.163275793
1748429171.968042,1748429171965866.000000000,1748429171965783.000000000,-0.000367115,-0.001881326,-0.002615665,-0.105810754,-0.042949583,-0.163878128
1748429171.978041,1748429171975866.000000000,1748429171975786.000000000,0.001300356,0.003096768,-0.003164685,-0.027512113,0.325461000,-0.106749982
1748429171.988024,1748429171985867.000000000,1748429171985789.000000000,0.000312543,0.003863283,-0.005468582,-0.060126126,0.154956222,-0.462685883
1748429171.998029,1748429171995874.000000000,1748429171995792.000000000,-0.001694904,-0.002590234,-0.001615185,-0.221994132,-0.047196474,0.253465027
1748429172.010022,1748429172005875.000000000,1748429172005795.000000000,0.001213534,-0.000402282,-0.001796470,0.264998645,0.017316723,0.030112531
1748429172.019037,1748429172018379.000000000,1748429172018298.000000000,0.000832401,0.000033594,-0.001039781,0.171257064,0.164246708,0.174153969
1748429172.028038,1748429172025879.000000000,1748429172025800.000000000,-0.001321443,-0.000727275,-0.002692539,-0.218469560,-0.067763031,-0.095926158
1748429172.039927,1748429172038386.000000000,1748429172038304.000000000,-0.002459742,0.003260534,-0.003633978,-0.364443034,0.417482138,-0.506350636
1748429172.052953,1748429172048402.000000000,1748429172048307.000000000,-0.000506511,-0.000139257,-0.000515062,0.057866409,-0.164078355,0.215961054
1748429172.059995,1748429172055887.000000000,1748429172055809.000000000,0.000564696,0.005497187,-0.001801913,0.181453303,0.470833361,-0.035750546
1748429172.068930,1748429172065891.000000000,1748429172065812.000000000,0.002630838,0.000783736,-0.002474361,0.210507959,-0.330039740,-0.148016304
1748429172.079113,1748429172075893.000000000,1748429172075815.000000000,0.000556594,-0.000618068,0.000748317,-0.025304493,-0.349813521,0.240407884
1748429172.087999,1748429172085897.000000000,1748429172085818.000000000,0.000223661,-0.000217291,-0.001189849,-0.051329039,0.096538566,-0.131930113
1748429172.099965,1748429172095901.000000000,1748429172095820.000000000,0.001103481,0.000587973,0.002047359,-0.016878540,0.096001141,0.231684014
1748429172.109054,1748429172108408.000000000,1748429172108324.000000000,-0.001689426,0.000767220,-0.003278933,-0.322498739,0.325178415,-0.364225537
1748429172.119020,1748429172118407.000000000,1748429172118327.000000000,-0.004734970,-0.000303650,-0.002694157,-0.629111111,0.130654246,0.025778266
1748429172.129433,1748429172128415.000000000,1748429172128330.000000000,0.001007448,0.003231587,-0.002572528,0.286353260,0.264474422,0.068831503
1748429172.140043,1748429172135911.000000000,1748429172135832.000000000,0.002082252,0.001426130,-0.000733126,0.254551649,-0.090022698,0.168600857
1748429172.148931,1748429172148417.000000000,1748429172148335.000000000,0.001415669,0.002541319,-0.003552910,0.088311866,0.005623992,-0.156656399
1748429172.157994,1748429172155917.000000000,1748429172155837.000000000,0.001047290,0.001205635,-0.002621224,-0.076651260,0.020066435,0.142817378
1748429172.168063,1748429172165933.000000000,1748429172165840.000000000,0.001055908,-0.000938887,-0.001566259,0.227611378,0.117659606,-0.012848887
1748429172.177926,1748429172175922.000000000,1748429172175843.000000000,0.003292098,-0.002554433,-0.001641165,0.160557121,-0.035835337,0.223930448
1748429172.189946,1748429172185924.000000000,1748429172185846.000000000,-0.000843658,-0.001789549,-0.002218881,-0.285384655,-0.057402827,-0.009465584
1748429172.200016,1748429172195952.000000000,1748429172195873.000000000,0.000974816,0.000200723,-0.001084240,0.001438288,0.143012792,0.071863517
1748429172.210035,1748429172208456.000000000,1748429172208376.000000000,-0.000041889,-0.000024968,0.001342654,0.104728855,0.028993623,0.382660568
1748429172.218994,1748429172218463.000000000,1748429172218379.000000000,-0.000268840,-0.002304638,-0.001312425,0.047503427,-0.195452049,-0.050275706
1748429172.229010,1748429172228488.000000000,1748429172228382.000000000,0.001798884,-0.002087748,-0.005267879,0.225562617,-0.131836489,-0.468262255
1748429172.238990,1748429172238549.000000000,1748429172238385.000000000,-0.001255436,0.000493100,-0.003267797,-0.395987034,0.112346791,0.137205973
1748429172.248986,1748429172246096.000000000,1748429172245887.000000000,-0.000342594,-0.000921239,-0.001783899,0.001032204,0.024755972,0.167906836
1748429172.258931,1748429172255969.000000000,1748429172255890.000000000,0.001700712,0.001929556,-0.003330678,0.460885972,0.146731183,-0.232930765
1748429172.269029,1748429172268473.000000000,1748429172268393.000000000,0.000208466,-0.002134710,0.002921053,0.060438108,-0.471896917,0.333728552
1748429172.278009,1748429172275976.000000000,1748429172275895.000000000,0.001172239,0.000161600,-0.004345289,0.212497756,0.121234894,-0.697432578
1748429172.289050,1748429172285979.000000000,1748429172285898.000000000,0.002033323,-0.001629206,-0.004957736,0.190820694,-0.178598523,-0.104641400
1748429172.298993,1748429172295982.000000000,1748429172295901.000000000,0.000839486,-0.004145932,-0.002578686,-0.053741734,-0.532126904,0.316549659
1748429172.308993,1748429172308488.000000000,1748429172308405.000000000,-0.001700116,0.001347320,-0.001271087,-0.223669261,0.525400102,0.146279722
1748429172.319032,1748429172318489.000000000,1748429172318408.000000000,0.001101903,0.000018414,-0.002210382,0.214429572,0.050166368,-0.227150217
1748429172.330016,1748429172328492.000000000,1748429172328410.000000000,-0.001000367,-0.001095450,-0.003535724,-0.299346954,-0.318160892,-0.248956174
1748429172.340003,1748429172335990.000000000,1748429172335912.000000000,0.002369277,0.001716536,-0.003659823,0.200846300,0.211764768,-0.141662747
1748429172.349032,1748429172345994.000000000,1748429172345915.000000000,-0.002344778,0.000263051,-0.001524041,-0.236504644,-0.004520386,0.170445561
1748429172.358952,1748429172355997.000000000,1748429172355918.000000000,0.000643600,-0.002487635,-0.003581372,0.073392965,-0.138191029,-0.423915356
1748429172.368000,1748429172365999.000000000,1748429172365921.000000000,-0.002752078,-0.001877762,-0.006228090,-0.515824616,0.033788025,-0.220074356
1748429172.379988,1748429172376004.000000000,1748429172375924.000000000,-0.001271531,-0.000242736,0.000762521,-0.064371541,0.306317359,0.559879661
1748429172.389051,1748429172388508.000000000,1748429172388428.000000000,0.005051025,-0.001728515,0.001338331,0.407422304,-0.161425337,0.264337778
1748429172.399033,1748429172398509.000000000,1748429172398430.000000000,0.000371930,0.002550186,0.000717756,-0.326284379,0.260063678,0.198948041
1748429172.409009,1748429172408521.000000000,1748429172408435.000000000,-0.002129575,0.001216538,-0.004388395,-0.324248552,-0.022938997,-0.666142941
1748429172.421017,1748429172416015.000000000,1748429172415935.000000000,-0.001221639,-0.000201515,-0.003871660,-0.030452998,-0.120240226,0.041622523
1748429172.427956,1748429172426015.000000000,1748429172425938.000000000,0.002029729,0.000866626,-0.001011990,0.220988676,0.098894306,0.134121716
1748429172.439028,1748429172436019.000000000,1748429172435941.000000000,0.000572446,0.002543336,-0.003383774,-0.331723094,0.062545687,0.206952915
1748429172.448989,1748429172446024.000000000,1748429172445944.000000000,-0.002312690,0.001888598,-0.001024369,-0.307458133,0.172746167,0.254510760
1748429172.458041,1748429172456026.000000000,1748429172455947.000000000,-0.003632061,0.002183482,-0.001180200,-0.236083239,0.025509605,0.013167220
1748429172.469601,1748429172466028.000000000,1748429172465949.000000000,-0.000611678,-0.001428684,0.000201983,0.072885640,-0.233450383,0.183427975
1748429172.479126,1748429172478532.000000000,1748429172478453.000000000,0.002660889,0.000160177,0.000886317,0.217792705,-0.436835945,-0.000907286
1748429172.490047,1748429172488540.000000000,1748429172488457.000000000,0.000017932,0.000734992,0.002177446,-0.261473119,0.064142294,0.128504008
1748429172.499027,1748429172498538.000000000,1748429172498459.000000000,-0.000756475,0.000531818,0.004037681,-0.176177159,-0.050702121,0.429169446
1748429172.508964,1748429172508541.000000000,1748429172508462.000000000,0.001885284,0.000963400,0.003032384,0.029973892,-0.036713731,-0.145028889
1748429172.518968,1748429172518546.000000000,1748429172518465.000000000,-0.001597644,0.001062866,-0.002402041,-0.035701796,0.113127679,-0.539391458
1748429172.528964,1748429172526047.000000000,1748429172525967.000000000,0.000699833,0.001061713,-0.003265758,0.201809764,0.145776689,-0.172924101
1748429172.540046,1748429172538549.000000000,1748429172538470.000000000,-0.001000141,0.001330124,-0.006371194,-0.285980642,-0.277925104,-0.451603979
1748429172.549980,1748429172546054.000000000,1748429172545972.000000000,-0.000161322,-0.001194646,-0.004850266,0.026793985,-0.228482306,0.049684942
1748429172.557030,1748429172556055.000000000,1748429172555975.000000000,0.001592582,0.001318721,-0.003590969,-0.004275344,0.224310115,0.046408672
1748429172.568986,1748429172566057.000000000,1748429172565978.000000000,-0.002075839,0.002625046,0.001330909,-0.253119171,0.039595924,0.254383743
1748429172.578970,1748429172578563.000000000,1748429172578481.000000000,-0.000970940,0.001816284,0.000165887,-0.006022778,-0.163124815,0.196937278
1748429172.588977,1748429172588563.000000000,1748429172588484.000000000,0.002721166,-0.001478594,0.001040331,0.416859061,-0.429100931,0.088617302
1748429172.598969,1748429172598565.000000000,1748429172598487.000000000,0.000316810,0.002682589,0.000829604,-0.161346167,0.221522093,0.107565463
1748429172.611994,1748429172608673.000000000,1748429172608490.000000000,-0.000080996,0.000294141,0.000976099,0.009497480,-0.037618764,-0.114932165
1748429172.620154,1748429172616164.000000000,1748429172615992.000000000,-0.001491334,0.002461016,0.001521780,-0.283086061,0.279782116,-0.005744882
1748429172.628991,1748429172626218.000000000,1748429172625995.000000000,0.000725918,0.001573968,0.000610685,0.102789521,-0.068310887,-0.087219566
1748429172.639025,1748429172636078.000000000,1748429172635998.000000000,-0.000528254,-0.000497822,-0.003172427,-0.099728860,-0.123548053,-0.517145574
1748429172.649072,1748429172646078.000000000,1748429172646001.000000000,-0.002955575,-0.000657440,-0.001432940,-0.370418161,-0.153480664,0.333102584
1748429172.659027,1748429172656082.000000000,1748429172656004.000000000,0.002094168,0.000317597,-0.003012595,0.338069946,0.024517037,-0.163150743
1748429172.669130,1748429172668592.000000000,1748429172668507.000000000,-0.001308607,-0.000473417,-0.000086762,-0.359569490,0.264431119,0.093403935
1748429172.678999,1748429172678593.000000000,1748429172678510.000000000,0.000081895,0.000897114,-0.005943166,-0.031749830,0.135616720,-0.275012374
1748429172.688964,1748429172688593.000000000,1748429172688513.000000000,-0.002236138,0.000428920,-0.005852321,-0.373460561,0.196494862,-0.150839835
1748429172.697967,1748429172696097.000000000,1748429172696015.000000000,0.001536335,-0.000109377,-0.003697226,0.107713737,0.019053536,0.305135071
1748429172.708986,1748429172708599.000000000,1748429172708519.000000000,-0.001962068,0.002847461,-0.003590113,-0.252971053,0.036782574,0.105281927
1748429172.718981,1748429172716098.000000000,1748429172716021.000000000,0.000620789,0.002441648,-0.001341255,0.164100558,0.184291705,0.055382572
1748429172.728045,1748429172726104.000000000,1748429172726023.000000000,-0.001001988,0.002291869,0.001523901,-0.241448507,-0.035044197,0.026259126
1748429172.738030,1748429172736104.000000000,1748429172736026.000000000,0.000374164,0.001603478,-0.001051171,0.259439677,0.137045935,-0.094837882
1748429172.747962,1748429172746109.000000000,1748429172746029.000000000,-0.000937411,0.002090344,0.002390037,-0.353156418,0.114923917,0.247767940
1748429172.758952,1748429172756112.000000000,1748429172756032.000000000,-0.000481774,0.000926583,0.001081781,-0.039213575,-0.069908664,-0.111384355
