__time,/fmu/out/vehicle_attitude/delta_q_reset[0],/fmu/out/vehicle_attitude/delta_q_reset[1],/fmu/out/vehicle_attitude/delta_q_reset[2],/fmu/out/vehicle_attitude/delta_q_reset[3],/fmu/out/vehicle_attitude/q[0],/fmu/out/vehicle_attitude/q[1],/fmu/out/vehicle_attitude/q[2],/fmu/out/vehicle_attitude/q[3],/fmu/out/vehicle_attitude/quat_reset_counter,/fmu/out/vehicle_attitude/timestamp,/fmu/out/vehicle_attitude/timestamp_sample
1748429168.718031,0.998580337,-0.000000006,-0.000000001,0.053267431,-0.043254048,-0.005300308,0.046758659,0.997955203,7.000000000,1748429168717468.000000000,1748429168717298.000000000
1748429168.728029,0.998580337,-0.000000006,-0.000000001,0.053267431,-0.043261882,-0.005308097,0.046753362,0.997955143,7.000000000,1748429168727500.000000000,1748429168727301.000000000
1748429168.738025,0.998580337,-0.000000006,-0.000000001,0.053267431,-0.043232061,-0.005312862,0.046746574,0.997956693,7.000000000,1748429168737468.000000000,1748429168737304.000000000
1748429168.749112,0.998580337,-0.000000006,-0.000000001,0.053267431,-0.043202121,-0.005312772,0.046749856,0.997957885,7.000000000,1748429168747469.000000000,1748429168747307.000000000
1748429168.758925,0.998580337,-0.000000006,-0.000000001,0.053267431,-0.043139432,-0.005307563,0.046754956,0.997960389,7.000000000,1748429168757484.000000000,1748429168757310.000000000
1748429168.769933,0.998580337,-0.000000006,-0.000000001,0.053267431,-0.043072902,-0.005303773,0.046768881,0.997962594,7.000000000,1748429168767515.000000000,1748429168767312.000000000
1748429168.778025,0.998580337,-0.000000006,-0.000000001,0.053267431,-0.042978570,-0.005282325,0.046771474,0.997966588,7.000000000,1748429168777480.000000000,1748429168777315.000000000
1748429168.788027,0.998580337,-0.000000006,-0.000000001,0.053267431,-0.042958245,-0.005290153,0.046767835,0.997967660,7.000000000,1748429168787489.000000000,1748429168787318.000000000
1748429168.798156,0.998580337,-0.000000006,-0.000000001,0.053267431,-0.042977754,-0.005274643,0.046769578,0.997966766,7.000000000,1748429168797485.000000000,1748429168797321.000000000
1748429168.808013,0.998580337,-0.000000006,-0.000000001,0.053267431,-0.043008603,-0.005281551,0.046754260,0.997966111,7.000000000,1748429168807491.000000000,1748429168807324.000000000
1748429168.818926,0.998580337,-0.000000006,-0.000000001,0.053267431,-0.043000478,-0.005300467,0.046760119,0.997966170,7.000000000,1748429168817498.000000000,1748429168817327.000000000
1748429168.831980,0.998580337,-0.000000006,-0.000000001,0.053267431,-0.043020576,-0.005288720,0.046738893,0.997966349,7.000000000,1748429168827599.000000000,1748429168827329.000000000
1748429168.840959,0.998580337,-0.000000006,-0.000000001,0.053267431,-0.043013502,-0.005299889,0.046738543,0.997966588,7.000000000,1748429168837594.000000000,1748429168837332.000000000
1748429168.849984,0.998580337,-0.000000006,-0.000000001,0.053267431,-0.043008260,-0.005299131,0.046740972,0.997966707,7.000000000,1748429168847676.000000000,1748429168847335.000000000
1748429168.860013,0.998580337,-0.000000006,-0.000000001,0.053267431,-0.042949665,-0.005305592,0.046746232,0.997968972,7.000000000,1748429168857519.000000000,1748429168857338.000000000
1748429168.868038,0.998580337,-0.000000006,-0.000000001,0.053267431,-0.042869881,-0.005312770,0.046737645,0.997972727,7.000000000,1748429168867519.000000000,1748429168867341.000000000
1748429168.879033,0.998580337,-0.000000006,-0.000000001,0.053267431,-0.042773843,-0.005308561,0.046762120,0.997975767,7.000000000,1748429168877511.000000000,1748429168877344.000000000
1748429168.888937,0.998580337,-0.000000006,-0.000000001,0.053267431,-0.042718314,-0.005320637,0.046757601,0.997978210,7.000000000,1748429168887514.000000000,1748429168887347.000000000
1748429168.899975,0.998580337,-0.000000006,-0.000000001,0.053267431,-0.042677768,-0.005305399,0.046772383,0.997979462,7.000000000,1748429168897512.000000000,1748429168897349.000000000
1748429168.908027,0.998580337,-0.000000006,-0.000000001,0.053267431,-0.042632043,-0.005315797,0.046774570,0.997981191,7.000000000,1748429168907526.000000000,1748429168907354.000000000
1748429168.918033,0.998580337,-0.000000006,-0.000000001,0.053267431,-0.042613879,-0.005322093,0.046765972,0.997982323,7.000000000,1748429168917588.000000000,1748429168917355.000000000
1748429168.929012,0.998580337,-0.000000006,-0.000000001,0.053267431,-0.042607795,-0.005314641,0.046759713,0.997982919,7.000000000,1748429168927521.000000000,1748429168927358.000000000
1748429168.938995,0.998580337,-0.000000006,-0.000000001,0.053267431,-0.042627625,-0.005324872,0.046772752,0.997981429,7.000000000,1748429168937522.000000000,1748429168937361.000000000
1748429168.949083,0.998580337,-0.000000006,-0.000000001,0.053267431,-0.042638589,-0.005321153,0.046757046,0.997981727,7.000000000,1748429168947537.000000000,1748429168947365.000000000
1748429168.958004,0.998580337,-0.000000006,-0.000000001,0.053267431,-0.042617593,-0.005315074,0.046752505,0.997982800,7.000000000,1748429168957574.000000000,1748429168957366.000000000
1748429168.968066,0.998580337,-0.000000006,-0.000000001,0.053267431,-0.042589746,-0.005325687,0.046764005,0.997983456,7.000000000,1748429168967533.000000000,1748429168967369.000000000
1748429168.978036,0.998580337,-0.000000006,-0.000000001,0.053267431,-0.042558212,-0.005330525,0.046768524,0.997984529,7.000000000,1748429168977538.000000000,1748429168977372.000000000
1748429168.988952,0.998580337,-0.000000006,-0.000000001,0.053267431,-0.042528033,-0.005322562,0.046785839,0.997985065,7.000000000,1748429168987544.000000000,1748429168987375.000000000
1748429168.999950,0.998580337,-0.000000006,-0.000000001,0.053267431,-0.042494856,-0.005329742,0.046787303,0.997986376,7.000000000,1748429168997544.000000000,1748429168997378.000000000
1748429169.009985,0.998580337,-0.000000006,-0.000000001,0.053267431,-0.042461235,-0.005339210,0.046796773,0.997987270,7.000000000,1748429169007594.000000000,1748429169007380.000000000
1748429169.020051,0.998580337,-0.000000006,-0.000000001,0.053267431,-0.042462584,-0.005349460,0.046786871,0.997987628,7.000000000,1748429169017546.000000000,1748429169017383.000000000
1748429169.031667,0.998580337,-0.000000006,-0.000000001,0.053267431,-0.042473018,-0.005357446,0.046782289,0.997987330,7.000000000,1748429169027551.000000000,1748429169027386.000000000
1748429169.039988,0.998580337,-0.000000006,-0.000000001,0.053267431,-0.042486869,-0.005371474,0.046771459,0.997987211,7.000000000,1748429169037557.000000000,1748429169037389.000000000
1748429169.050073,0.998580337,-0.000000006,-0.000000001,0.053267431,-0.042481791,-0.005372230,0.046776053,0.997987211,7.000000000,1748429169042550.000000000,1748429169042390.000000000
1748429169.058998,0.998580337,-0.000000006,-0.000000001,0.053267431,-0.042449597,-0.005358326,0.046769135,0.997988939,7.000000000,1748429169057570.000000000,1748429169057395.000000000
1748429169.068065,0.998580337,-0.000000006,-0.000000001,0.053267431,-0.042412985,-0.005376306,0.046772711,0.997990251,7.000000000,1748429169067581.000000000,1748429169067398.000000000
1748429169.079942,0.998580337,-0.000000006,-0.000000001,0.053267431,-0.042364046,-0.005377844,0.046773348,0.997992396,7.000000000,1748429169077564.000000000,1748429169077400.000000000
1748429169.089033,0.998580337,-0.000000006,-0.000000001,0.053267431,-0.042339049,-0.005372561,0.046774618,0.997993410,7.000000000,1748429169087568.000000000,1748429169087403.000000000
1748429169.101134,0.998580337,-0.000000006,-0.000000001,0.053267431,-0.042304449,-0.005372695,0.046780806,0.997994483,7.000000000,1748429169092564.000000000,1748429169092405.000000000
1748429169.110929,0.998580337,-0.000000006,-0.000000001,0.053267431,-0.042288385,-0.005377893,0.046772696,0.997995615,7.000000000,1748429169107592.000000000,1748429169107410.000000000
1748429169.119935,0.998580337,-0.000000006,-0.000000001,0.053267431,-0.042285725,-0.005381091,0.046781253,0.997995317,7.000000000,1748429169112570.000000000,1748429169112410.000000000
1748429169.128996,0.998580337,-0.000000006,-0.000000001,0.053267431,-0.042294730,-0.005396347,0.046777535,0.997995019,7.000000000,1748429169122578.000000000,1748429169122413.000000000
1748429169.139916,0.998580337,-0.000000006,-0.000000001,0.053267431,-0.042324699,-0.005385923,0.046767555,0.997994244,7.000000000,1748429169137590.000000000,1748429169137417.000000000
1748429169.148014,0.998580337,-0.000000006,-0.000000001,0.053267431,-0.042320583,-0.005387919,0.046753693,0.997995079,7.000000000,1748429169147587.000000000,1748429169147420.000000000
1748429169.158989,0.998580337,-0.000000006,-0.000000001,0.053267431,-0.042298865,-0.005395378,0.046759240,0.997995675,7.000000000,1748429169157595.000000000,1748429169157423.000000000
1748429169.168061,0.998580337,-0.000000006,-0.000000001,0.053267431,-0.042282306,-0.005402058,0.046746984,0.997996926,7.000000000,1748429169167604.000000000,1748429169167426.000000000
1748429169.181999,0.998580337,-0.000000006,-0.000000001,0.053267431,-0.042246372,-0.005400076,0.046759002,0.997997820,7.000000000,1748429169177618.000000000,1748429169177453.000000000
1748429169.188990,0.998580337,-0.000000006,-0.000000001,0.053267431,-0.042212348,-0.005385232,0.046754394,0.997999668,7.000000000,1748429169187622.000000000,1748429169187455.000000000
1748429169.198947,0.998580337,-0.000000006,-0.000000001,0.053267431,-0.042172424,-0.005374947,0.046761014,0.998001099,7.000000000,1748429169197663.000000000,1748429169197458.000000000
1748429169.209940,0.998580337,-0.000000006,-0.000000001,0.053267431,-0.042175602,-0.005365506,0.046765871,0.998000741,7.000000000,1748429169207671.000000000,1748429169207461.000000000
1748429169.219931,0.998580337,-0.000000006,-0.000000001,0.053267431,-0.042175863,-0.005365512,0.046757773,0.998001099,7.000000000,1748429169212722.000000000,1748429169212462.000000000
1748429169.229011,0.998580337,-0.000000006,-0.000000001,0.053267431,-0.042190526,-0.005365937,0.046763338,0.998000264,7.000000000,1748429169227639.000000000,1748429169227467.000000000
1748429169.239077,0.998580337,-0.000000006,-0.000000001,0.053267431,-0.042208005,-0.005367185,0.046754189,0.997999907,7.000000000,1748429169237644.000000000,1748429169237470.000000000
1748429169.248928,0.998580337,-0.000000006,-0.000000001,0.053267431,-0.042232711,-0.005393133,0.046742283,0.997999251,7.000000000,1748429169247653.000000000,1748429169247473.000000000
1748429169.258939,0.998580337,-0.000000006,-0.000000001,0.053267431,-0.042248789,-0.005384035,0.046742890,0.997998595,7.000000000,1748429169257651.000000000,1748429169257476.000000000
1748429169.268924,0.998580337,-0.000000006,-0.000000001,0.053267431,-0.042236935,-0.005391049,0.046732191,0.997999609,7.000000000,1748429169267647.000000000,1748429169267478.000000000
1748429169.278958,0.998580337,-0.000000006,-0.000000001,0.053267431,-0.042215213,-0.005397737,0.046733197,0.998000443,7.000000000,1748429169277651.000000000,1748429169277481.000000000
1748429169.288987,0.998580337,-0.000000006,-0.000000001,0.053267431,-0.042168278,-0.005407707,0.046736870,0.998002112,7.000000000,1748429169287685.000000000,1748429169287484.000000000
1748429169.298980,0.998580337,-0.000000006,-0.000000001,0.053267431,-0.042125389,-0.005418842,0.046728205,0.998004317,7.000000000,1748429169297650.000000000,1748429169297487.000000000
1748429169.310934,0.998580337,-0.000000006,-0.000000001,0.053267431,-0.042084359,-0.005434200,0.046734955,0.998005629,7.000000000,1748429169307650.000000000,1748429169307490.000000000
1748429169.320946,0.998580337,-0.000000006,-0.000000001,0.053267431,-0.042079058,-0.005430898,0.046731185,0.998006046,7.000000000,1748429169312653.000000000,1748429169312491.000000000
1748429169.328974,0.998580337,-0.000000006,-0.000000001,0.053267431,-0.042050768,-0.005442990,0.046734877,0.998006999,7.000000000,1748429169327670.000000000,1748429169327495.000000000
1748429169.338041,0.998580337,-0.000000006,-0.000000001,0.053267431,-0.042057958,-0.005443111,0.046731357,0.998006880,7.000000000,1748429169337664.000000000,1748429169337498.000000000
1748429169.348907,0.998580337,-0.000000006,-0.000000001,0.053267431,-0.042063210,-0.005446342,0.046724498,0.998006999,7.000000000,1748429169347671.000000000,1748429169347501.000000000
1748429169.358917,0.998580337,-0.000000006,-0.000000001,0.053267431,-0.042054377,-0.005460493,0.046723120,0.998007357,7.000000000,1748429169357679.000000000,1748429169357504.000000000
1748429169.368941,0.998580337,-0.000000006,-0.000000001,0.053267431,-0.042017907,-0.005447308,0.046737045,0.998008251,7.000000000,1748429169367673.000000000,1748429169367507.000000000
1748429169.378935,0.998580337,-0.000000006,-0.000000001,0.053267431,-0.041991733,-0.005461399,0.046736255,0.998009324,7.000000000,1748429169377677.000000000,1748429169377510.000000000
1748429169.390033,0.998580337,-0.000000006,-0.000000001,0.053267431,-0.041951239,-0.005450028,0.046743810,0.998010695,7.000000000,1748429169387677.000000000,1748429169387512.000000000
1748429169.399978,0.998580337,-0.000000006,-0.000000001,0.053267431,-0.041941695,-0.005442041,0.046733934,0.998011649,7.000000000,1748429169392717.000000000,1748429169392514.000000000
1748429169.409923,0.998580337,-0.000000006,-0.000000001,0.053267431,-0.041894738,-0.005429416,0.046726875,0.998014092,7.000000000,1748429169402677.000000000,1748429169402517.000000000
1748429169.419066,0.998580337,-0.000000006,-0.000000001,0.053267431,-0.041861713,-0.005455578,0.046737459,0.998014808,7.000000000,1748429169417687.000000000,1748429169417521.000000000
1748429169.428997,0.998580337,-0.000000006,-0.000000001,0.053267431,-0.041847356,-0.005449177,0.046724103,0.998016000,7.000000000,1748429169427697.000000000,1748429169427524.000000000
1748429169.440033,0.998580337,-0.000000006,-0.000000001,0.053267431,-0.041843560,-0.005444737,0.046725813,0.998016119,7.000000000,1748429169432688.000000000,1748429169432525.000000000
1748429169.450028,0.998580337,-0.000000006,-0.000000001,0.053267431,-0.041836321,-0.005465810,0.046720296,0.998016596,7.000000000,1748429169447700.000000000,1748429169447529.000000000
1748429169.458992,0.998580337,-0.000000006,-0.000000001,0.053267431,-0.041834299,-0.005445693,0.046729375,0.998016417,7.000000000,1748429169457758.000000000,1748429169457532.000000000
1748429169.468985,0.998580337,-0.000000006,-0.000000001,0.053267431,-0.041789938,-0.005449068,0.046727460,0.998018324,7.000000000,1748429169467702.000000000,1748429169467535.000000000
1748429169.478940,0.998580337,-0.000000006,-0.000000001,0.053267431,-0.041767929,-0.005452538,0.046735466,0.998018861,7.000000000,1748429169477736.000000000,1748429169477538.000000000
1748429169.488923,0.998580337,-0.000000006,-0.000000001,0.053267431,-0.041750874,-0.005451762,0.046733242,0.998019695,7.000000000,1748429169482704.000000000,1748429169482539.000000000
1748429169.500009,0.998580337,-0.000000006,-0.000000001,0.053267431,-0.041704789,-0.005485089,0.046712290,0.998022318,7.000000000,1748429169497736.000000000,1748429169497543.000000000
1748429169.510989,0.998580337,-0.000000006,-0.000000001,0.053267431,-0.041675001,-0.005476651,0.046730381,0.998022854,7.000000000,1748429169507711.000000000,1748429169507546.000000000
1748429169.520966,0.998580337,-0.000000006,-0.000000001,0.053267431,-0.041658517,-0.005477237,0.046726756,0.998023629,7.000000000,1748429169512712.000000000,1748429169512548.000000000
1748429169.532042,0.998580337,-0.000000006,-0.000000001,0.053267431,-0.041634936,-0.005475483,0.046751417,0.998023510,7.000000000,1748429169527725.000000000,1748429169527552.000000000
1748429169.540003,0.998580337,-0.000000006,-0.000000001,0.053267431,-0.041631524,-0.005474421,0.046744753,0.998023987,7.000000000,1748429169537722.000000000,1748429169537555.000000000
1748429169.548998,0.998580337,-0.000000006,-0.000000001,0.053267431,-0.041626483,-0.005464850,0.046763740,0.998023391,7.000000000,1748429169547724.000000000,1748429169547558.000000000
1748429169.558943,0.998580337,-0.000000006,-0.000000001,0.053267431,-0.041625984,-0.005487893,0.046738479,0.998024464,7.000000000,1748429169557733.000000000,1748429169557560.000000000
1748429169.570028,0.998580337,-0.000000006,-0.000000001,0.053267431,-0.041577905,-0.005473383,0.046752166,0.998025894,7.000000000,1748429169567737.000000000,1748429169567563.000000000
1748429169.579972,0.998580337,-0.000000006,-0.000000001,0.053267431,-0.041547045,-0.005478808,0.046743091,0.998027563,7.000000000,1748429169577731.000000000,1748429169577566.000000000
1748429169.590062,0.998580337,-0.000000006,-0.000000001,0.053267431,-0.041527513,-0.005465576,0.046742663,0.998028457,7.000000000,1748429169582773.000000000,1748429169582567.000000000
1748429169.599053,0.998580337,-0.000000006,-0.000000001,0.053267431,-0.041486453,-0.005461428,0.046745528,0.998030066,7.000000000,1748429169592895.000000000,1748429169592571.000000000
1748429169.608951,0.998580337,-0.000000006,-0.000000001,0.053267431,-0.041438363,-0.005471297,0.046741523,0.998032153,7.000000000,1748429169602890.000000000,1748429169602573.000000000
1748429169.619995,0.998580337,-0.000000006,-0.000000001,0.053267431,-0.041403923,-0.005477280,0.046753965,0.998032987,7.000000000,1748429169612748.000000000,1748429169612576.000000000
1748429169.630986,0.998580337,-0.000000006,-0.000000001,0.053267431,-0.041377421,-0.005497181,0.046743743,0.998034477,7.000000000,1748429169627771.000000000,1748429169627581.000000000
1748429169.640026,0.998580337,-0.000000006,-0.000000001,0.053267431,-0.041372437,-0.005492167,0.046757389,0.998034060,7.000000000,1748429169637749.000000000,1748429169637583.000000000
1748429169.648973,0.998580337,-0.000000006,-0.000000001,0.053267431,-0.041361280,-0.005471777,0.046745274,0.998035192,7.000000000,1748429169647750.000000000,1748429169647586.000000000
1748429169.658939,0.998580337,-0.000000006,-0.000000001,0.053267431,-0.041349150,-0.005463254,0.046747569,0.998035610,7.000000000,1748429169657763.000000000,1748429169657589.000000000
1748429169.668923,0.998580337,-0.000000006,-0.000000001,0.053267431,-0.041331183,-0.005470587,0.046747304,0.998036385,7.000000000,1748429169667760.000000000,1748429169667592.000000000
1748429169.680086,0.998580337,-0.000000006,-0.000000001,0.053267431,-0.041313335,-0.005476340,0.046765339,0.998036206,7.000000000,1748429169677781.000000000,1748429169677595.000000000
1748429169.689074,0.998580337,-0.000000006,-0.000000001,0.053267431,-0.041293249,-0.005494472,0.046748094,0.998037815,7.000000000,1748429169687763.000000000,1748429169687598.000000000
1748429169.700949,0.998580337,-0.000000006,-0.000000001,0.053267431,-0.041268684,-0.005479305,0.046753217,0.998038650,7.000000000,1748429169697765.000000000,1748429169697600.000000000
1748429169.709941,0.998580337,-0.000000006,-0.000000001,0.053267431,-0.041261636,-0.005475753,0.046742313,0.998039484,7.000000000,1748429169702766.000000000,1748429169702602.000000000
1748429169.719942,0.998580337,-0.000000006,-0.000000001,0.053267431,-0.041220762,-0.005473598,0.046754695,0.998040497,7.000000000,1748429169717774.000000000,1748429169717606.000000000
1748429169.729075,0.998580337,-0.000000006,-0.000000001,0.053267431,-0.041204963,-0.005462044,0.046750486,0.998041511,7.000000000,1748429169727790.000000000,1748429169727609.000000000
1748429169.738920,0.998580337,-0.000000006,-0.000000001,0.053267431,-0.041183043,-0.005459049,0.046735898,0.998043060,7.000000000,1748429169737788.000000000,1748429169737612.000000000
1748429169.748973,0.998580337,-0.000000006,-0.000000001,0.053267431,-0.041172195,-0.005449759,0.046737578,0.998043478,7.000000000,1748429169747783.000000000,1748429169747615.000000000
1748429169.758940,0.998580337,-0.000000006,-0.000000001,0.053267431,-0.041131154,-0.005448455,0.046750523,0.998044550,7.000000000,1748429169757793.000000000,1748429169757617.000000000
1748429169.768989,0.998580337,-0.000000006,-0.000000001,0.053267431,-0.041115370,-0.005440459,0.046763688,0.998044610,7.000000000,1748429169767784.000000000,1748429169767620.000000000
1748429169.781990,0.998580337,-0.000000006,-0.000000001,0.053267431,-0.041108992,-0.005436114,0.046770196,0.998044610,7.000000000,1748429169777811.000000000,1748429169777623.000000000
1748429169.789924,0.998580337,-0.000000006,-0.000000001,0.053267431,-0.041090060,-0.005433260,0.046753842,0.998046160,7.000000000,1748429169782787.000000000,1748429169782624.000000000
1748429169.798986,0.998580337,-0.000000006,-0.000000001,0.053267431,-0.041055191,-0.005442946,0.046763778,0.998047113,7.000000000,1748429169792788.000000000,1748429169792627.000000000
1748429169.809922,0.998580337,-0.000000006,-0.000000001,0.053267431,-0.041021742,-0.005430123,0.046758767,0.998048782,7.000000000,1748429169807799.000000000,1748429169807632.000000000
1748429169.818994,0.998580337,-0.000000006,-0.000000001,0.053267431,-0.040981095,-0.005444441,0.046768222,0.998049974,7.000000000,1748429169817800.000000000,1748429169817635.000000000
1748429169.828961,0.998580337,-0.000000006,-0.000000001,0.053267431,-0.040972970,-0.005452151,0.046762463,0.998050451,7.000000000,1748429169827811.000000000,1748429169827637.000000000
1748429169.838922,0.998580337,-0.000000006,-0.000000001,0.053267431,-0.040971905,-0.005423192,0.046753708,0.998051167,7.000000000,1748429169837807.000000000,1748429169837640.000000000
1748429169.850017,0.998580337,-0.000000006,-0.000000001,0.053267431,-0.040980119,-0.005417721,0.046743784,0.998051286,7.000000000,1748429169842803.000000000,1748429169842641.000000000
1748429169.858947,0.998580337,-0.000000006,-0.000000001,0.053267431,-0.040966928,-0.005418883,0.046739519,0.998052061,7.000000000,1748429169857817.000000000,1748429169857646.000000000
1748429169.868920,0.998580337,-0.000000006,-0.000000001,0.053267431,-0.040956602,-0.005412088,0.046750817,0.998052001,7.000000000,1748429169867859.000000000,1748429169867649.000000000
1748429169.879012,0.998580337,-0.000000006,-0.000000001,0.053267431,-0.040943481,-0.005399968,0.046747666,0.998052657,7.000000000,1748429169877813.000000000,1748429169877652.000000000
1748429169.888947,0.998580337,-0.000000006,-0.000000001,0.053267431,-0.040949084,-0.005396076,0.046754289,0.998052239,7.000000000,1748429169882815.000000000,1748429169882653.000000000
1748429169.900013,0.998580337,-0.000000006,-0.000000001,0.053267431,-0.040930733,-0.005385052,0.046746600,0.998053372,7.000000000,1748429169892818.000000000,1748429169892656.000000000
1748429169.908990,0.998580337,-0.000000006,-0.000000001,0.053267431,-0.040878233,-0.005365156,0.046764512,0.998054802,7.000000000,1748429169907825.000000000,1748429169907660.000000000
1748429169.918939,0.998580337,-0.000000006,-0.000000001,0.053267431,-0.040854640,-0.005365822,0.046765819,0.998055637,7.000000000,1748429169917827.000000000,1748429169917663.000000000
1748429169.928965,0.998580337,-0.000000006,-0.000000001,0.053267431,-0.040818218,-0.005363093,0.046784267,0.998056352,7.000000000,1748429169927838.000000000,1748429169927666.000000000
1748429169.939041,0.998580337,-0.000000006,-0.000000001,0.053267431,-0.040803589,-0.005350530,0.046763897,0.998057961,7.000000000,1748429169937832.000000000,1748429169937668.000000000
1748429169.949005,0.998580337,-0.000000006,-0.000000001,0.053267431,-0.040776804,-0.005349691,0.046765897,0.998058975,7.000000000,1748429169947836.000000000,1748429169947671.000000000
1748429169.958934,0.998580337,-0.000000006,-0.000000001,0.053267431,-0.040760428,-0.005344570,0.046774618,0.998059273,7.000000000,1748429169957933.000000000,1748429169957675.000000000
1748429169.969018,0.998580337,-0.000000006,-0.000000001,0.053267431,-0.040770885,-0.005367560,0.046764966,0.998059154,7.000000000,1748429169967928.000000000,1748429169967677.000000000
1748429169.980076,0.998580337,-0.000000006,-0.000000001,0.053267431,-0.040750653,-0.005380396,0.046767380,0.998059809,7.000000000,1748429169972944.000000000,1748429169972678.000000000
1748429169.989928,0.998580337,-0.000000006,-0.000000001,0.053267431,-0.040721525,-0.005375533,0.046762042,0.998061180,7.000000000,1748429169983014.000000000,1748429169982684.000000000
1748429169.999942,0.998580337,-0.000000006,-0.000000001,0.053267431,-0.040687900,-0.005370488,0.046764202,0.998062491,7.000000000,1748429169997864.000000000,1748429169997685.000000000
1748429170.010988,0.998580337,-0.000000006,-0.000000001,0.053267431,-0.040670518,-0.005377206,0.046765860,0.998063147,7.000000000,1748429170007869.000000000,1748429170007688.000000000
1748429170.018918,0.998580337,-0.000000006,-0.000000001,0.053267431,-0.040657006,-0.005368137,0.046772156,0.998063445,7.000000000,1748429170017860.000000000,1748429170017691.000000000
1748429170.028988,0.998580337,-0.000000006,-0.000000001,0.053267431,-0.040657144,-0.005365950,0.046770751,0.998063505,7.000000000,1748429170027869.000000000,1748429170027694.000000000
1748429170.039006,0.998580337,-0.000000006,-0.000000001,0.053267431,-0.040645733,-0.005356505,0.046762008,0.998064399,7.000000000,1748429170037860.000000000,1748429170037697.000000000
1748429170.049099,0.998580337,-0.000000006,-0.000000001,0.053267431,-0.040618092,-0.005349942,0.046760667,0.998065710,7.000000000,1748429170047867.000000000,1748429170047700.000000000
1748429170.060010,0.998580337,-0.000000006,-0.000000001,0.053267431,-0.040607393,-0.005344845,0.046757188,0.998066306,7.000000000,1748429170057875.000000000,1748429170057703.000000000
1748429170.069983,0.998580337,-0.000000006,-0.000000001,0.053267431,-0.040596426,-0.005341677,0.046777155,0.998065770,7.000000000,1748429170062862.000000000,1748429170062704.000000000
1748429170.078902,0.998580337,-0.000000006,-0.000000001,0.053267431,-0.040589292,-0.005337461,0.046760328,0.998066962,7.000000000,1748429170072870.000000000,1748429170072707.000000000
1748429170.089931,0.998580337,-0.000000006,-0.000000001,0.053267431,-0.040533680,-0.005339471,0.046762422,0.998069108,7.000000000,1748429170087876.000000000,1748429170087711.000000000
1748429170.101933,0.998580337,-0.000000006,-0.000000001,0.053267431,-0.040494632,-0.005353693,0.046749692,0.998071194,7.000000000,1748429170092872.000000000,1748429170092713.000000000
1748429170.110932,0.998580337,-0.000000006,-0.000000001,0.053267431,-0.040457051,-0.005356874,0.046766251,0.998071969,7.000000000,1748429170107883.000000000,1748429170107717.000000000
1748429170.118919,0.998580337,-0.000000006,-0.000000001,0.053267431,-0.040428869,-0.005344600,0.046763912,0.998073280,7.000000000,1748429170117887.000000000,1748429170117719.000000000
1748429170.130047,0.998580337,-0.000000006,-0.000000001,0.053267431,-0.040416721,-0.005334319,0.046771698,0.998073339,7.000000000,1748429170122886.000000000,1748429170122721.000000000
1748429170.138997,0.998580337,-0.000000006,-0.000000001,0.053267431,-0.040388223,-0.005325042,0.046776902,0.998074353,7.000000000,1748429170137930.000000000,1748429170137725.000000000
1748429170.149989,0.998580337,-0.000000006,-0.000000001,0.053267431,-0.040388264,-0.005328279,0.046769872,0.998074710,7.000000000,1748429170147934.000000000,1748429170147728.000000000
1748429170.160949,0.998580337,-0.000000006,-0.000000001,0.053267431,-0.040387738,-0.005347642,0.046758980,0.998075128,7.000000000,1748429170157900.000000000,1748429170157731.000000000
1748429170.168993,0.998580337,-0.000000006,-0.000000001,0.053267431,-0.040384952,-0.005351555,0.046760213,0.998075068,7.000000000,1748429170162890.000000000,1748429170162732.000000000
1748429170.182044,0.998580337,-0.000000006,-0.000000001,0.053267431,-0.040339340,-0.005339894,0.046752881,0.998077333,7.000000000,1748429170177917.000000000,1748429170177755.000000000
1748429170.192015,0.998580337,-0.000000006,-0.000000001,0.053267431,-0.040313464,-0.005333041,0.046745475,0.998078763,7.000000000,1748429170187922.000000000,1748429170187757.000000000
1748429170.202936,0.998580337,-0.000000006,-0.000000001,0.053267431,-0.040281128,-0.005345740,0.046756424,0.998079538,7.000000000,1748429170197928.000000000,1748429170197760.000000000
1748429170.211944,0.998580337,-0.000000006,-0.000000001,0.053267431,-0.040266927,-0.005348109,0.046761978,0.998079896,7.000000000,1748429170207929.000000000,1748429170207763.000000000
1748429170.219981,0.998580337,-0.000000006,-0.000000001,0.053267431,-0.040229790,-0.005349914,0.046760548,0.998081326,7.000000000,1748429170217931.000000000,1748429170217766.000000000
1748429170.229088,0.998580337,-0.000000006,-0.000000001,0.053267431,-0.040196776,-0.005352600,0.046756957,0.998082876,7.000000000,1748429170227945.000000000,1748429170227769.000000000
1748429170.240984,0.998580337,-0.000000006,-0.000000001,0.053267431,-0.040188327,-0.005362446,0.046762336,0.998082876,7.000000000,1748429170237970.000000000,1748429170237771.000000000
1748429170.249015,0.998580337,-0.000000006,-0.000000001,0.053267431,-0.040176302,-0.005386359,0.046769146,0.998082995,7.000000000,1748429170247938.000000000,1748429170247775.000000000
1748429170.259943,0.998580337,-0.000000006,-0.000000001,0.053267431,-0.040173307,-0.005387730,0.046761818,0.998083413,7.000000000,1748429170257991.000000000,1748429170257777.000000000
1748429170.268088,0.998580337,-0.000000006,-0.000000001,0.053267431,-0.040170774,-0.005393489,0.046760943,0.998083472,7.000000000,1748429170262937.000000000,1748429170262779.000000000
1748429170.279008,0.998580337,-0.000000006,-0.000000001,0.053267431,-0.040148295,-0.005404660,0.046753049,0.998084784,7.000000000,1748429170277952.000000000,1748429170277783.000000000
1748429170.289027,0.998580337,-0.000000006,-0.000000001,0.053267431,-0.040130254,-0.005407462,0.046757706,0.998085201,7.000000000,1748429170287952.000000000,1748429170287786.000000000
1748429170.298933,0.998580337,-0.000000006,-0.000000001,0.053267431,-0.040111028,-0.005413230,0.046752989,0.998086214,7.000000000,1748429170297954.000000000,1748429170297789.000000000
1748429170.308931,0.998580337,-0.000000006,-0.000000001,0.053267431,-0.040067833,-0.005400343,0.046759468,0.998087704,7.000000000,1748429170307956.000000000,1748429170307791.000000000
1748429170.318943,0.998580337,-0.000000006,-0.000000001,0.053267431,-0.040020511,-0.005398136,0.046761498,0.998089552,7.000000000,1748429170317959.000000000,1748429170317794.000000000
1748429170.329019,0.998580337,-0.000000006,-0.000000001,0.053267431,-0.039985888,-0.005404714,0.046775192,0.998090208,7.000000000,1748429170327992.000000000,1748429170327797.000000000
1748429170.342050,0.998580337,-0.000000006,-0.000000001,0.053267431,-0.039955471,-0.005422838,0.046770055,0.998091578,7.000000000,1748429170338060.000000000,1748429170337800.000000000
1748429170.350042,0.998580337,-0.000000006,-0.000000001,0.053267431,-0.039946470,-0.005424038,0.046768684,0.998091996,7.000000000,1748429170343014.000000000,1748429170342801.000000000
1748429170.359914,0.998580337,-0.000000006,-0.000000001,0.053267431,-0.039943233,-0.005421671,0.046762716,0.998092413,7.000000000,1748429170353079.000000000,1748429170352804.000000000
1748429170.370975,0.998580337,-0.000000006,-0.000000001,0.053267431,-0.039945442,-0.005418390,0.046764385,0.998092234,7.000000000,1748429170362977.000000000,1748429170362807.000000000
1748429170.380041,0.998580337,-0.000000006,-0.000000001,0.053267431,-0.039922718,-0.005396244,0.046768337,0.998093128,7.000000000,1748429170377992.000000000,1748429170377811.000000000
1748429170.390027,0.998580337,-0.000000006,-0.000000001,0.053267431,-0.039924130,-0.005397909,0.046768963,0.998093009,7.000000000,1748429170382985.000000000,1748429170382813.000000000
1748429170.399999,0.998580337,-0.000000006,-0.000000001,0.053267431,-0.039923150,-0.005408579,0.046774562,0.998092711,7.000000000,1748429170392980.000000000,1748429170392816.000000000
1748429170.409011,0.998580337,-0.000000006,-0.000000001,0.053267431,-0.039898522,-0.005374075,0.046769787,0.998094141,7.000000000,1748429170408022.000000000,1748429170407820.000000000
1748429170.419001,0.998580337,-0.000000006,-0.000000001,0.053267431,-0.039884962,-0.005371282,0.046770945,0.998094678,7.000000000,1748429170417991.000000000,1748429170417823.000000000
1748429170.430108,0.998580337,-0.000000006,-0.000000001,0.053267431,-0.039873287,-0.005381977,0.046765704,0.998095274,7.000000000,1748429170428057.000000000,1748429170427825.000000000
1748429170.440009,0.998580337,-0.000000006,-0.000000001,0.053267431,-0.039855264,-0.005393481,0.046784896,0.998095036,7.000000000,1748429170432991.000000000,1748429170432827.000000000
1748429170.448915,0.998580337,-0.000000006,-0.000000001,0.053267431,-0.039840028,-0.005392833,0.046795666,0.998095155,7.000000000,1748429170442990.000000000,1748429170442830.000000000
1748429170.459967,0.998580337,-0.000000006,-0.000000001,0.053267431,-0.039830167,-0.005389492,0.046783123,0.998096168,7.000000000,1748429170452993.000000000,1748429170452833.000000000
1748429170.469034,0.998580337,-0.000000006,-0.000000001,0.053267431,-0.039831910,-0.005378250,0.046784911,0.998096108,7.000000000,1748429170468006.000000000,1748429170467837.000000000
1748429170.479114,0.998580337,-0.000000006,-0.000000001,0.053267431,-0.039812960,-0.005366767,0.046793547,0.998096466,7.000000000,1748429170478008.000000000,1748429170477840.000000000
1748429170.489014,0.998580337,-0.000000006,-0.000000001,0.053267431,-0.039809518,-0.005365727,0.046791568,0.998096764,7.000000000,1748429170488008.000000000,1748429170487843.000000000
1748429170.499203,0.998580337,-0.000000006,-0.000000001,0.053267431,-0.039806359,-0.005354827,0.046797436,0.998096645,7.000000000,1748429170498017.000000000,1748429170497845.000000000
1748429170.508989,0.998580337,-0.000000006,-0.000000001,0.053267431,-0.039785590,-0.005366824,0.046803497,0.998097062,7.000000000,1748429170508017.000000000,1748429170507848.000000000
1748429170.522985,0.998580337,-0.000000006,-0.000000001,0.053267431,-0.039768081,-0.005359225,0.046806924,0.998097718,7.000000000,1748429170513015.000000000,1748429170512850.000000000
1748429170.533009,0.998580337,-0.000000006,-0.000000001,0.053267431,-0.039772358,-0.005343512,0.046807788,0.998097479,7.000000000,1748429170528029.000000000,1748429170527854.000000000
1748429170.540936,0.998580337,-0.000000006,-0.000000001,0.053267431,-0.039779805,-0.005339825,0.046801958,0.998097599,7.000000000,1748429170533015.000000000,1748429170532855.000000000
1748429170.549976,0.998580337,-0.000000006,-0.000000001,0.053267431,-0.039765444,-0.005332711,0.046804678,0.998098075,7.000000000,1748429170543021.000000000,1748429170542858.000000000
1748429170.559935,0.998580337,-0.000000006,-0.000000001,0.053267431,-0.039767761,-0.005344470,0.046824113,0.998096943,7.000000000,1748429170558034.000000000,1748429170557863.000000000
1748429170.569043,0.998580337,-0.000000006,-0.000000001,0.053267431,-0.039749648,-0.005336928,0.046823636,0.998097777,7.000000000,1748429170568033.000000000,1748429170567865.000000000
1748429170.578978,0.998580337,-0.000000006,-0.000000001,0.053267431,-0.039735712,-0.005317778,0.046835743,0.998097777,7.000000000,1748429170578037.000000000,1748429170577868.000000000
1748429170.588984,0.998580337,-0.000000006,-0.000000001,0.053267431,-0.039732855,-0.005319177,0.046831481,0.998098075,7.000000000,1748429170588042.000000000,1748429170587871.000000000
1748429170.598982,0.998580337,-0.000000006,-0.000000001,0.053267431,-0.039708089,-0.005316759,0.046830360,0.998099208,7.000000000,1748429170598042.000000000,1748429170597874.000000000
1748429170.608980,0.998580337,-0.000000006,-0.000000001,0.053267431,-0.039687976,-0.005331947,0.046832129,0.998099864,7.000000000,1748429170608062.000000000,1748429170607877.000000000
1748429170.618982,0.998580337,-0.000000006,-0.000000001,0.053267431,-0.039680663,-0.005332777,0.046834640,0.998100042,7.000000000,1748429170618045.000000000,1748429170617880.000000000
1748429170.628982,0.998580337,-0.000000006,-0.000000001,0.053267431,-0.039670307,-0.005322010,0.046824068,0.998100936,7.000000000,1748429170623041.000000000,1748429170622881.000000000
1748429170.639016,0.998580337,-0.000000006,-0.000000001,0.053267431,-0.039631955,-0.005339805,0.046843860,0.998101413,7.000000000,1748429170638051.000000000,1748429170637885.000000000
1748429170.650940,0.998580337,-0.000000006,-0.000000001,0.053267431,-0.039622948,-0.005338620,0.046837516,0.998102069,7.000000000,1748429170648058.000000000,1748429170647888.000000000
1748429170.660080,0.998580337,-0.000000006,-0.000000001,0.053267431,-0.039625369,-0.005332434,0.046837669,0.998102069,7.000000000,1748429170658058.000000000,1748429170657891.000000000
1748429170.669992,0.998580337,-0.000000006,-0.000000001,0.053267431,-0.039608121,-0.005341604,0.046832930,0.998102903,7.000000000,1748429170663061.000000000,1748429170662892.000000000
1748429170.680006,0.998580337,-0.000000006,-0.000000001,0.053267431,-0.039607242,-0.005352082,0.046821032,0.998103499,7.000000000,1748429170678069.000000000,1748429170677897.000000000
1748429170.690030,0.998580337,-0.000000006,-0.000000001,0.053267431,-0.039598331,-0.005351161,0.046816893,0.998103976,7.000000000,1748429170688069.000000000,1748429170687899.000000000
1748429170.699988,0.998580337,-0.000000006,-0.000000001,0.053267431,-0.039573614,-0.005363074,0.046823625,0.998104632,7.000000000,1748429170698069.000000000,1748429170697902.000000000
1748429170.709021,0.998580337,-0.000000006,-0.000000001,0.053267431,-0.039580058,-0.005368893,0.046810053,0.998104930,7.000000000,1748429170708073.000000000,1748429170707905.000000000
1748429170.719141,0.998580337,-0.000000006,-0.000000001,0.053267431,-0.039560147,-0.005358200,0.046832874,0.998104751,7.000000000,1748429170718123.000000000,1748429170717908.000000000
1748429170.730200,0.998580337,-0.000000006,-0.000000001,0.053267431,-0.039545611,-0.005341875,0.046837807,0.998105168,7.000000000,1748429170728239.000000000,1748429170727911.000000000
1748429170.740996,0.998580337,-0.000000006,-0.000000001,0.053267431,-0.039527260,-0.005338417,0.046850096,0.998105288,7.000000000,1748429170733227.000000000,1748429170732912.000000000
1748429170.749031,0.998580337,-0.000000006,-0.000000001,0.053267431,-0.039530657,-0.005326116,0.046825215,0.998106420,7.000000000,1748429170743078.000000000,1748429170742916.000000000
1748429170.759984,0.998580337,-0.000000006,-0.000000001,0.053267431,-0.039512884,-0.005323534,0.046829034,0.998107016,7.000000000,1748429170753092.000000000,1748429170752918.000000000
1748429170.769042,0.998580337,-0.000000006,-0.000000001,0.053267431,-0.039485544,-0.005294874,0.046823140,0.998108506,7.000000000,1748429170768090.000000000,1748429170767922.000000000
1748429170.780014,0.998580337,-0.000000006,-0.000000001,0.053267431,-0.039481305,-0.005298776,0.046834707,0.998108089,7.000000000,1748429170778093.000000000,1748429170777925.000000000
1748429170.789000,0.998580337,-0.000000006,-0.000000001,0.053267431,-0.039465312,-0.005293965,0.046824597,0.998109162,7.000000000,1748429170788097.000000000,1748429170787928.000000000
1748429170.800994,0.998580337,-0.000000006,-0.000000001,0.053267431,-0.039449152,-0.005283962,0.046825595,0.998109877,7.000000000,1748429170798097.000000000,1748429170797931.000000000
1748429170.808995,0.998580337,-0.000000006,-0.000000001,0.053267431,-0.039429910,-0.005288447,0.046832401,0.998110235,7.000000000,1748429170808104.000000000,1748429170807933.000000000
1748429170.818988,0.998580337,-0.000000006,-0.000000001,0.053267431,-0.039405093,-0.005287229,0.046837669,0.998110950,7.000000000,1748429170818167.000000000,1748429170817936.000000000
1748429170.830066,0.998580337,-0.000000006,-0.000000001,0.053267431,-0.039414652,-0.005293586,0.046842299,0.998110414,7.000000000,1748429170823099.000000000,1748429170822938.000000000
1748429170.839930,0.998580337,-0.000000006,-0.000000001,0.053267431,-0.039388694,-0.005253871,0.046847612,0.998111308,7.000000000,1748429170833102.000000000,1748429170832941.000000000
1748429170.849028,0.998580337,-0.000000006,-0.000000001,0.053267431,-0.039383151,-0.005252158,0.046853878,0.998111308,7.000000000,1748429170843105.000000000,1748429170842943.000000000
1748429170.859019,0.998580337,-0.000000006,-0.000000001,0.053267431,-0.039366610,-0.005246144,0.046840288,0.998112559,7.000000000,1748429170853108.000000000,1748429170852946.000000000
1748429170.869034,0.998580337,-0.000000006,-0.000000001,0.053267431,-0.039353758,-0.005248387,0.046834018,0.998113453,7.000000000,1748429170868115.000000000,1748429170867951.000000000
1748429170.880001,0.998580337,-0.000000006,-0.000000001,0.053267431,-0.039347738,-0.005259221,0.046844285,0.998113155,7.000000000,1748429170878120.000000000,1748429170877953.000000000
1748429170.888980,0.998580337,-0.000000006,-0.000000001,0.053267431,-0.039326224,-0.005281292,0.046856292,0.998113275,7.000000000,1748429170888125.000000000,1748429170887956.000000000
1748429170.899007,0.998580337,-0.000000006,-0.000000001,0.053267431,-0.039298363,-0.005279545,0.046859272,0.998114228,7.000000000,1748429170898126.000000000,1748429170897959.000000000
1748429170.908997,0.998580337,-0.000000006,-0.000000001,0.053267431,-0.039282512,-0.005269829,0.046852462,0.998115242,7.000000000,1748429170908166.000000000,1748429170907962.000000000
1748429170.919934,0.998580337,-0.000000006,-0.000000001,0.053267431,-0.039246779,-0.005269045,0.046845485,0.998117030,7.000000000,1748429170918130.000000000,1748429170917965.000000000
1748429170.930054,0.998580337,-0.000000006,-0.000000001,0.053267431,-0.039251287,-0.005261922,0.046840195,0.998117030,7.000000000,1748429170923125.000000000,1748429170922966.000000000
1748429170.939946,0.998580337,-0.000000006,-0.000000001,0.053267431,-0.039238878,-0.005240670,0.046841409,0.998117566,7.000000000,1748429170933131.000000000,1748429170932969.000000000
1748429170.949915,0.998580337,-0.000000006,-0.000000001,0.053267431,-0.039242581,-0.005232660,0.046853460,0.998116970,7.000000000,1748429170943135.000000000,1748429170942972.000000000
1748429170.959978,0.998580337,-0.000000006,-0.000000001,0.053267431,-0.039203010,-0.005241668,0.046840034,0.998119116,7.000000000,1748429170958193.000000000,1748429170957976.000000000
1748429170.969053,0.998580337,-0.000000006,-0.000000001,0.053267431,-0.039212659,-0.005244420,0.046840850,0.998118639,7.000000000,1748429170968145.000000000,1748429170967979.000000000
1748429170.978996,0.998580337,-0.000000006,-0.000000001,0.053267431,-0.039196212,-0.005229132,0.046837479,0.998119593,7.000000000,1748429170978154.000000000,1748429170977982.000000000
1748429170.989007,0.998580337,-0.000000006,-0.000000001,0.053267431,-0.039160278,-0.005209478,0.046829268,0.998121500,7.000000000,1748429170988155.000000000,1748429170987985.000000000
1748429170.999031,0.998580337,-0.000000006,-0.000000001,0.053267431,-0.039141279,-0.005226026,0.046833131,0.998121917,7.000000000,1748429170998176.000000000,1748429170997987.000000000
1748429171.009946,0.998580337,-0.000000006,-0.000000001,0.053267431,-0.039133511,-0.005232696,0.046823818,0.998122692,7.000000000,1748429171008160.000000000,1748429171007990.000000000
1748429171.019927,0.998580337,-0.000000006,-0.000000001,0.053267431,-0.039129864,-0.005230407,0.046824500,0.998122692,7.000000000,1748429171013152.000000000,1748429171012992.000000000
1748429171.030031,0.998580337,-0.000000006,-0.000000001,0.053267431,-0.039106827,-0.005235649,0.046817828,0.998123884,7.000000000,1748429171023163.000000000,1748429171022995.000000000
1748429171.041001,0.998580337,-0.000000006,-0.000000001,0.053267431,-0.039091527,-0.005234822,0.046820194,0.998124480,7.000000000,1748429171033160.000000000,1748429171032997.000000000
1748429171.050043,0.998580337,-0.000000006,-0.000000001,0.053267431,-0.039079092,-0.005203525,0.046824209,0.998124897,7.000000000,1748429171048166.000000000,1748429171048002.000000000
1748429171.059981,0.998580337,-0.000000006,-0.000000001,0.053267431,-0.039061349,-0.005201690,0.046818011,0.998125911,7.000000000,1748429171053167.000000000,1748429171053003.000000000
1748429171.069144,0.998580337,-0.000000006,-0.000000001,0.053267431,-0.039038945,-0.005236612,0.046810303,0.998126984,7.000000000,1748429171068170.000000000,1748429171068008.000000000
1748429171.078948,0.998580337,-0.000000006,-0.000000001,0.053267431,-0.039032403,-0.005228252,0.046812367,0.998127103,7.000000000,1748429171073169.000000000,1748429171073009.000000000
1748429171.089041,0.998580337,-0.000000006,-0.000000001,0.053267431,-0.039007597,-0.005199619,0.046811339,0.998128295,7.000000000,1748429171088180.000000000,1748429171088014.000000000
1748429171.099928,0.998580337,-0.000000006,-0.000000001,0.053267431,-0.039019059,-0.005200656,0.046827123,0.998127103,7.000000000,1748429171098294.000000000,1748429171098016.000000000
1748429171.111988,0.998580337,-0.000000006,-0.000000001,0.053267431,-0.038996048,-0.005215993,0.046818551,0.998128355,7.000000000,1748429171103254.000000000,1748429171103017.000000000
1748429171.120949,0.998580337,-0.000000006,-0.000000001,0.053267431,-0.038976051,-0.005219616,0.046825457,0.998128831,7.000000000,1748429171113325.000000000,1748429171113020.000000000
1748429171.131045,0.998580337,-0.000000006,-0.000000001,0.053267431,-0.038939416,-0.005218227,0.046817303,0.998130560,7.000000000,1748429171123191.000000000,1748429171123023.000000000
1748429171.140983,0.998580337,-0.000000006,-0.000000001,0.053267431,-0.038925506,-0.005201247,0.046813425,0.998131454,7.000000000,1748429171133199.000000000,1748429171133026.000000000
1748429171.150993,0.998580337,-0.000000006,-0.000000001,0.053267431,-0.038877729,-0.005193944,0.046835609,0.998132288,7.000000000,1748429171148196.000000000,1748429171148030.000000000
1748429171.160936,0.998580337,-0.000000006,-0.000000001,0.053267431,-0.038855579,-0.005162229,0.046847291,0.998132706,7.000000000,1748429171158198.000000000,1748429171158033.000000000
1748429171.168984,0.998580337,-0.000000006,-0.000000001,0.053267431,-0.038847130,-0.005165634,0.046827283,0.998133957,7.000000000,1748429171168201.000000000,1748429171168036.000000000
1748429171.178996,0.998580337,-0.000000006,-0.000000001,0.053267431,-0.038803883,-0.005173048,0.046834692,0.998135269,7.000000000,1748429171178206.000000000,1748429171178039.000000000
1748429171.189985,0.998580337,-0.000000006,-0.000000001,0.053267431,-0.038789891,-0.005178919,0.046838526,0.998135686,7.000000000,1748429171188249.000000000,1748429171188062.000000000
1748429171.200956,0.998580337,-0.000000006,-0.000000001,0.053267431,-0.038772535,-0.005180397,0.046811603,0.998137534,7.000000000,1748429171198230.000000000,1748429171198066.000000000
1748429171.209135,0.998580337,-0.000000006,-0.000000001,0.053267431,-0.038770631,-0.005189039,0.046814505,0.998137474,7.000000000,1748429171203226.000000000,1748429171203067.000000000
1748429171.220051,0.998580337,-0.000000006,-0.000000001,0.053267431,-0.038772199,-0.005169237,0.046808712,0.998137712,7.000000000,1748429171213231.000000000,1748429171213070.000000000
1748429171.229979,0.998580337,-0.000000006,-0.000000001,0.053267431,-0.038759530,-0.005170500,0.046820424,0.998137772,7.000000000,1748429171223231.000000000,1748429171223072.000000000
1748429171.240009,0.998580337,-0.000000006,-0.000000001,0.053267431,-0.038751863,-0.005176706,0.046814006,0.998138309,7.000000000,1748429171238242.000000000,1748429171238077.000000000
1748429171.248991,0.998580337,-0.000000006,-0.000000001,0.053267431,-0.038741615,-0.005166479,0.046824284,0.998138249,7.000000000,1748429171248244.000000000,1748429171248079.000000000
1748429171.258993,0.998580337,-0.000000006,-0.000000001,0.053267431,-0.038740464,-0.005153744,0.046840671,0.998137593,7.000000000,1748429171258246.000000000,1748429171258082.000000000
1748429171.269001,0.998580337,-0.000000006,-0.000000001,0.053267431,-0.038733084,-0.005139076,0.046848860,0.998137534,7.000000000,1748429171268250.000000000,1748429171268085.000000000
1748429171.281001,0.998580337,-0.000000006,-0.000000001,0.053267431,-0.038717385,-0.005138067,0.046849553,0.998138130,7.000000000,1748429171278301.000000000,1748429171278088.000000000
1748429171.290934,0.998580337,-0.000000006,-0.000000001,0.053267431,-0.038716607,-0.005142279,0.046845350,0.998138368,7.000000000,1748429171288254.000000000,1748429171288091.000000000
1748429171.301066,0.998580337,-0.000000006,-0.000000001,0.053267431,-0.038703024,-0.005132145,0.046842471,0.998139024,7.000000000,1748429171293255.000000000,1748429171293093.000000000
1748429171.309950,0.998580337,-0.000000006,-0.000000001,0.053267431,-0.038697582,-0.005116384,0.046837822,0.998139560,7.000000000,1748429171303254.000000000,1748429171303095.000000000
1748429171.320025,0.998580337,-0.000000006,-0.000000001,0.053267431,-0.038681194,-0.005117190,0.046847101,0.998139739,7.000000000,1748429171318263.000000000,1748429171318099.000000000
1748429171.329039,0.998580337,-0.000000006,-0.000000001,0.053267431,-0.038665414,-0.005136589,0.046832152,0.998141050,7.000000000,1748429171323261.000000000,1748429171323101.000000000
1748429171.340036,0.998580337,-0.000000006,-0.000000001,0.053267431,-0.038631793,-0.005118950,0.046827968,0.998142600,7.000000000,1748429171338277.000000000,1748429171338105.000000000
1748429171.349925,0.998580337,-0.000000006,-0.000000001,0.053267431,-0.038628411,-0.005115333,0.046823665,0.998142898,7.000000000,1748429171343270.000000000,1748429171343106.000000000
1748429171.359989,0.998580337,-0.000000006,-0.000000001,0.053267431,-0.038608875,-0.005114433,0.046839915,0.998142958,7.000000000,1748429171358280.000000000,1748429171358111.000000000
1748429171.368995,0.998580337,-0.000000006,-0.000000001,0.053267431,-0.038605239,-0.005121210,0.046825860,0.998143673,7.000000000,1748429171368277.000000000,1748429171368113.000000000
1748429171.380946,0.998580337,-0.000000006,-0.000000001,0.053267431,-0.038624678,-0.005117310,0.046826944,0.998142958,7.000000000,1748429171378293.000000000,1748429171378116.000000000
1748429171.389946,0.998580337,-0.000000006,-0.000000001,0.053267431,-0.038620170,-0.005119348,0.046816956,0.998143494,7.000000000,1748429171383275.000000000,1748429171383118.000000000
1748429171.398944,0.998580337,-0.000000006,-0.000000001,0.053267431,-0.038605317,-0.005111631,0.046838973,0.998143077,7.000000000,1748429171393280.000000000,1748429171393121.000000000
1748429171.409033,0.998580337,-0.000000006,-0.000000001,0.053267431,-0.038604893,-0.005095558,0.046845924,0.998142958,7.000000000,1748429171403289.000000000,1748429171403124.000000000
1748429171.419944,0.998580337,-0.000000006,-0.000000001,0.053267431,-0.038587201,-0.005101699,0.046848219,0.998143435,7.000000000,1748429171413289.000000000,1748429171413126.000000000
1748429171.430011,0.998580337,-0.000000006,-0.000000001,0.053267431,-0.038530342,-0.005107112,0.046864092,0.998144865,7.000000000,1748429171428298.000000000,1748429171428131.000000000
1748429171.439996,0.998580337,-0.000000006,-0.000000001,0.053267431,-0.038493197,-0.005090282,0.046856698,0.998146772,7.000000000,1748429171438302.000000000,1748429171438133.000000000
1748429171.448995,0.998580337,-0.000000006,-0.000000001,0.053267431,-0.038493343,-0.005095389,0.046855897,0.998146772,7.000000000,1748429171448306.000000000,1748429171448136.000000000
1748429171.459040,0.998580337,-0.000000006,-0.000000001,0.053267431,-0.038471293,-0.005108123,0.046867900,0.998146892,7.000000000,1748429171458349.000000000,1748429171458139.000000000
1748429171.471029,0.998580337,-0.000000006,-0.000000001,0.053267431,-0.038456339,-0.005111059,0.046862375,0.998147726,7.000000000,1748429171463333.000000000,1748429171463140.000000000
1748429171.480040,0.998580337,-0.000000006,-0.000000001,0.053267431,-0.038437217,-0.005131734,0.046849061,0.998149097,7.000000000,1748429171473408.000000000,1748429171473145.000000000
1748429171.489175,0.998580337,-0.000000006,-0.000000001,0.053267431,-0.038453106,-0.005110189,0.046858232,0.998148084,7.000000000,1748429171483399.000000000,1748429171483146.000000000
1748429171.500013,0.998580337,-0.000000006,-0.000000001,0.053267431,-0.038422849,-0.005106363,0.046864226,0.998149037,7.000000000,1748429171493471.000000000,1748429171493149.000000000
1748429171.509047,0.998580337,-0.000000006,-0.000000001,0.053267431,-0.038432650,-0.005101476,0.046862692,0.998148739,7.000000000,1748429171503327.000000000,1748429171503152.000000000
1748429171.519939,0.998580337,-0.000000006,-0.000000001,0.053267431,-0.038464792,-0.005112318,0.046876889,0.998146772,7.000000000,1748429171518339.000000000,1748429171518156.000000000
1748429171.530034,0.998580337,-0.000000006,-0.000000001,0.053267431,-0.038449746,-0.005095009,0.046876047,0.998147428,7.000000000,1748429171528332.000000000,1748429171528159.000000000
1748429171.539030,0.998580337,-0.000000006,-0.000000001,0.053267431,-0.038430590,-0.005112232,0.046887182,0.998147607,7.000000000,1748429171538331.000000000,1748429171538162.000000000
1748429171.549002,0.998580337,-0.000000006,-0.000000001,0.053267431,-0.038414724,-0.005095834,0.046889640,0.998148203,7.000000000,1748429171548335.000000000,1748429171548165.000000000
1748429171.559045,0.998580337,-0.000000006,-0.000000001,0.053267431,-0.038372763,-0.005102686,0.046882324,0.998150051,7.000000000,1748429171558368.000000000,1748429171558168.000000000
1748429171.569091,0.998580337,-0.000000006,-0.000000001,0.053267431,-0.038354810,-0.005096580,0.046873607,0.998151243,7.000000000,1748429171568339.000000000,1748429171568171.000000000
1748429171.580062,0.998580337,-0.000000006,-0.000000001,0.053267431,-0.038343005,-0.005096556,0.046879034,0.998151362,7.000000000,1748429171573341.000000000,1748429171573172.000000000
1748429171.588949,0.998580337,-0.000000006,-0.000000001,0.053267431,-0.038342770,-0.005100861,0.046867181,0.998152018,7.000000000,1748429171583341.000000000,1748429171583175.000000000
1748429171.600060,0.998580337,-0.000000006,-0.000000001,0.053267431,-0.038308743,-0.005067942,0.046856523,0.998153985,7.000000000,1748429171593343.000000000,1748429171593178.000000000
1748429171.609944,0.998580337,-0.000000006,-0.000000001,0.053267431,-0.038299397,-0.005087540,0.046871364,0.998153448,7.000000000,1748429171608351.000000000,1748429171608182.000000000
1748429171.619935,0.998580337,-0.000000006,-0.000000001,0.053267431,-0.038293693,-0.005078688,0.046875175,0.998153627,7.000000000,1748429171613350.000000000,1748429171613183.000000000
1748429171.628989,0.998580337,-0.000000006,-0.000000001,0.053267431,-0.038278613,-0.005057724,0.046877876,0.998154104,7.000000000,1748429171628377.000000000,1748429171628187.000000000
1748429171.639004,0.998580337,-0.000000006,-0.000000001,0.053267431,-0.038291231,-0.005058680,0.046873409,0.998153925,7.000000000,1748429171638359.000000000,1748429171638190.000000000
1748429171.649051,0.998580337,-0.000000006,-0.000000001,0.053267431,-0.038271599,-0.005051919,0.046879925,0.998154402,7.000000000,1748429171648382.000000000,1748429171648193.000000000
1748429171.660993,0.998580337,-0.000000006,-0.000000001,0.053267431,-0.038270850,-0.005046083,0.046879411,0.998154461,7.000000000,1748429171658365.000000000,1748429171658197.000000000
1748429171.670153,0.998580337,-0.000000006,-0.000000001,0.053267431,-0.038277756,-0.005063597,0.046871871,0.998154402,7.000000000,1748429171663360.000000000,1748429171663197.000000000
1748429171.679037,0.998580337,-0.000000006,-0.000000001,0.053267431,-0.038288314,-0.005060690,0.046871420,0.998154044,7.000000000,1748429171673366.000000000,1748429171673200.000000000
1748429171.688975,0.998580337,-0.000000006,-0.000000001,0.053267431,-0.038274445,-0.005070927,0.046865333,0.998154819,7.000000000,1748429171683369.000000000,1748429171683203.000000000
1748429171.699005,0.998580337,-0.000000006,-0.000000001,0.053267431,-0.038264766,-0.005070996,0.046863683,0.998155236,7.000000000,1748429171693386.000000000,1748429171693206.000000000
1748429171.711055,0.998580337,-0.000000006,-0.000000001,0.053267431,-0.038286567,-0.005061336,0.046869036,0.998154223,7.000000000,1748429171708380.000000000,1748429171708210.000000000
1748429171.720043,0.998580337,-0.000000006,-0.000000001,0.053267431,-0.038304880,-0.005039095,0.046876911,0.998153329,7.000000000,1748429171718382.000000000,1748429171718213.000000000
1748429171.730979,0.998580337,-0.000000006,-0.000000001,0.053267431,-0.038291045,-0.005061734,0.046874575,0.998153746,7.000000000,1748429171728385.000000000,1748429171728216.000000000
1748429171.739950,0.998580337,-0.000000006,-0.000000001,0.053267431,-0.038260035,-0.005048454,0.046868257,0.998155296,7.000000000,1748429171738389.000000000,1748429171738219.000000000
1748429171.749998,0.998580337,-0.000000006,-0.000000001,0.053267431,-0.038266819,-0.005051723,0.046864130,0.998155236,7.000000000,1748429171743416.000000000,1748429171743220.000000000
1748429171.759047,0.998580337,-0.000000006,-0.000000001,0.053267431,-0.038244560,-0.005041236,0.046872769,0.998155773,7.000000000,1748429171758395.000000000,1748429171758225.000000000
1748429171.768997,0.998580337,-0.000000006,-0.000000001,0.053267431,-0.038241148,-0.005045594,0.046874695,0.998155773,7.000000000,1748429171763388.000000000,1748429171763226.000000000
1748429171.779021,0.998580337,-0.000000006,-0.000000001,0.053267431,-0.038205244,-0.005030114,0.046854220,0.998158216,7.000000000,1748429171773389.000000000,1748429171773229.000000000
1748429171.788983,0.998580337,-0.000000006,-0.000000001,0.053267431,-0.038193677,-0.005050558,0.046865880,0.998157978,7.000000000,1748429171783396.000000000,1748429171783231.000000000
1748429171.799007,0.998580337,-0.000000006,-0.000000001,0.053267431,-0.038176652,-0.005038404,0.046856541,0.998159111,7.000000000,1748429171793396.000000000,1748429171793234.000000000
1748429171.808043,0.998580337,-0.000000006,-0.000000001,0.053267431,-0.038174029,-0.005033254,0.046860579,0.998159111,7.000000000,1748429171803399.000000000,1748429171803237.000000000
1748429171.819957,0.998580337,-0.000000006,-0.000000001,0.053267431,-0.038193427,-0.005041313,0.046866044,0.998158097,7.000000000,1748429171818408.000000000,1748429171818242.000000000
1748429171.830035,0.998580337,-0.000000006,-0.000000001,0.053267431,-0.038196024,-0.005027083,0.046866864,0.998157978,7.000000000,1748429171828414.000000000,1748429171828244.000000000
1748429171.839052,0.998580337,-0.000000006,-0.000000001,0.053267431,-0.038163405,-0.005026147,0.046872802,0.998158991,7.000000000,1748429171838413.000000000,1748429171838247.000000000
1748429171.849927,0.998580337,-0.000000006,-0.000000001,0.053267431,-0.038129427,-0.005035222,0.046875410,0.998160064,7.000000000,1748429171848423.000000000,1748429171848250.000000000
1748429171.861999,0.998580337,-0.000000006,-0.000000001,0.053267431,-0.038080897,-0.005038680,0.046888988,0.998161256,7.000000000,1748429171858524.000000000,1748429171858253.000000000
1748429171.870058,0.998580337,-0.000000006,-0.000000001,0.053267431,-0.038086265,-0.005031873,0.046886645,0.998161256,7.000000000,1748429171868567.000000000,1748429171868256.000000000
1748429171.881967,0.998580337,-0.000000006,-0.000000001,0.053267431,-0.038073704,-0.005033168,0.046889108,0.998161614,7.000000000,1748429171873592.000000000,1748429171873258.000000000
1748429171.889017,0.998580337,-0.000000006,-0.000000001,0.053267431,-0.038047127,-0.005034337,0.046896331,0.998162270,7.000000000,1748429171883431.000000000,1748429171883260.000000000
1748429171.899026,0.998580337,-0.000000006,-0.000000001,0.053267431,-0.038032062,-0.005055073,0.046873454,0.998163819,7.000000000,1748429171893438.000000000,1748429171893263.000000000
1748429171.909933,0.998580337,-0.000000006,-0.000000001,0.053267431,-0.038015470,-0.005051121,0.046886191,0.998163879,7.000000000,1748429171903431.000000000,1748429171903266.000000000
1748429171.919033,0.998580337,-0.000000006,-0.000000001,0.053267431,-0.038009137,-0.005047685,0.046892628,0.998163819,7.000000000,1748429171918436.000000000,1748429171918270.000000000
1748429171.929072,0.998580337,-0.000000006,-0.000000001,0.053267431,-0.037987649,-0.005043035,0.046887416,0.998164952,7.000000000,1748429171928441.000000000,1748429171928273.000000000
1748429171.939082,0.998580337,-0.000000006,-0.000000001,0.053267431,-0.037998106,-0.005038896,0.046886299,0.998164594,7.000000000,1748429171938444.000000000,1748429171938276.000000000
