__time,/fmu/out/vehicle_acceleration/timestamp,/fmu/out/vehicle_acceleration/timestamp_sample,/fmu/out/vehicle_acceleration/xyz[0],/fmu/out/vehicle_acceleration/xyz[1],/fmu/out/vehicle_acceleration/xyz[2]
1748429168.716022,1748429168715317.000000000,1748429168715237.000000000,-0.084212691,-0.905441225,-9.812963486
1748429168.725969,1748429168720187.000000000,1748429168720107.000000000,-0.078866735,-0.918745995,-9.806251526
1748429168.734943,1748429168734802.000000000,1748429168734721.000000000,0.018976102,-1.021523833,-9.794529915
1748429168.744021,1748429168744545.000000000,1748429168744462.000000000,0.052379895,-1.036687851,-9.803534508
1748429168.754030,1748429168754444.000000000,1748429168754204.000000000,0.034749612,-0.960071802,-9.823019028
1748429168.766950,1748429168764030.000000000,1748429168763947.000000000,0.034022797,-0.908530891,-9.806840897
1748429168.783965,1748429168773772.000000000,1748429168773690.000000000,0.071044818,-0.922624052,-9.795322418
1748429168.794925,1748429168783514.000000000,1748429168783432.000000000,0.177016035,-0.922047257,-9.794960976
1748429168.803984,1748429168798138.000000000,1748429168798046.000000000,0.104082271,-0.856858253,-9.844898224
1748429168.812965,1748429168807872.000000000,1748429168807791.000000000,0.066726014,-0.858008027,-9.835631371
1748429168.823942,1748429168817615.000000000,1748429168817531.000000000,0.054883294,-0.917198360,-9.798886299
1748429168.828958,1748429168827457.000000000,1748429168827274.000000000,0.082563400,-0.970987082,-9.767456055
1748429168.837933,1748429168837101.000000000,1748429168837016.000000000,0.078929543,-0.978222311,-9.790610313
1748429168.847016,1748429168846839.000000000,1748429168846758.000000000,0.007170762,-0.923634827,-9.822319031
1748429168.857939,1748429168856586.000000000,1748429168856501.000000000,-0.012269733,-0.923871160,-9.817923546
1748429168.866969,1748429168866325.000000000,1748429168866242.000000000,0.017950276,-0.934714258,-9.794014931
1748429168.875010,1748429168871193.000000000,1748429168871112.000000000,0.033641145,-0.950706899,-9.786743164
1748429168.885919,1748429168880936.000000000,1748429168880854.000000000,0.086295225,-0.958112299,-9.804138184
1748429168.894995,1748429168895552.000000000,1748429168895467.000000000,0.051208012,-0.879024327,-9.843505859
1748429168.904992,1748429168905297.000000000,1748429168905209.000000000,0.030502358,-0.874969244,-9.821215630
1748429168.915018,1748429168915031.000000000,1748429168914951.000000000,0.045444094,-0.902457476,-9.797377586
1748429168.926042,1748429168924776.000000000,1748429168924694.000000000,0.070730507,-0.952054679,-9.791377068
1748429168.935043,1748429168934522.000000000,1748429168934436.000000000,0.067133754,-0.935880780,-9.822014809
1748429168.945010,1748429168944259.000000000,1748429168944177.000000000,0.023277506,-0.934130490,-9.833183289
1748429168.964124,1748429168954001.000000000,1748429168953918.000000000,-0.002001574,-0.970320225,-9.805723190
1748429168.974132,1748429168963741.000000000,1748429168963659.000000000,0.026471332,-0.989657819,-9.767026901
1748429168.983989,1748429168973482.000000000,1748429168973401.000000000,0.074137524,-0.988740206,-9.779513359
1748429168.994974,1748429168988097.000000000,1748429168988015.000000000,0.070811234,-0.918295085,-9.821653366
1748429168.997165,1748429168992968.000000000,1748429168992886.000000000,0.066489950,-0.893293440,-9.823504448
1748429169.008086,1748429169002719.000000000,1748429169002628.000000000,0.068488255,-0.876318395,-9.803613663
1748429169.017292,1748429169012464.000000000,1748429169012369.000000000,0.084520429,-0.900915504,-9.805090904
1748429169.026234,1748429169022190.000000000,1748429169022110.000000000,0.092724204,-0.897753239,-9.828829765
1748429169.036051,1748429169036805.000000000,1748429169036722.000000000,0.044528536,-0.879449606,-9.836647987
1748429169.045995,1748429169046559.000000000,1748429169046464.000000000,0.013661797,-0.898350298,-9.827816010
1748429169.055051,1748429169056297.000000000,1748429169056205.000000000,-0.000070401,-0.956217229,-9.776429176
1748429169.064999,1748429169066026.000000000,1748429169065946.000000000,0.034824993,-0.991124690,-9.771207809
1748429169.077103,1748429169075768.000000000,1748429169075689.000000000,0.059603807,-0.972382009,-9.802589417
1748429169.085982,1748429169085512.000000000,1748429169085430.000000000,0.068545468,-0.932455957,-9.834298134
1748429169.098005,1748429169095254.000000000,1748429169095172.000000000,0.076645024,-0.922819257,-9.804749489
1748429169.106980,1748429169105092.000000000,1748429169104913.000000000,0.084508248,-0.938962162,-9.779335976
1748429169.116996,1748429169114735.000000000,1748429169114654.000000000,0.071715347,-0.942335606,-9.781696320
1748429169.125947,1748429169124492.000000000,1748429169124396.000000000,0.070822872,-0.875513375,-9.812822342
1748429169.135964,1748429169134223.000000000,1748429169134138.000000000,0.017190445,-0.839893758,-9.822758675
1748429169.145018,1748429169143964.000000000,1748429169143881.000000000,0.005501606,-0.856107831,-9.816431999
1748429169.155939,1748429169153704.000000000,1748429169153622.000000000,0.030639743,-0.941631138,-9.787396431
1748429169.176994,1748429169173210.000000000,1748429169173130.000000000,0.023408163,-0.944665670,-9.810258865
1748429169.186020,1748429169178083.000000000,1748429169178001.000000000,0.020610521,-0.924243033,-9.814477921
1748429169.194026,1748429169187823.000000000,1748429169187741.000000000,0.024312485,-0.945799232,-9.802346230
1748429169.203909,1748429169197647.000000000,1748429169197482.000000000,0.051312160,-0.968173444,-9.776343346
1748429169.207925,1748429169207314.000000000,1748429169207223.000000000,0.067013405,-0.986144185,-9.783892632
1748429169.216950,1748429169217047.000000000,1748429169216964.000000000,0.052425094,-0.940086722,-9.803311348
1748429169.226953,1748429169226790.000000000,1748429169226705.000000000,0.033879369,-0.890795052,-9.833417892
1748429169.235995,1748429169236533.000000000,1748429169236447.000000000,0.049142629,-0.877361000,-9.828727722
1748429169.245028,1748429169246273.000000000,1748429169246188.000000000,0.052206356,-0.896729469,-9.821996689
1748429169.264117,1748429169256008.000000000,1748429169255928.000000000,0.048298895,-0.928805351,-9.797765732
1748429169.274930,1748429169265749.000000000,1748429169265669.000000000,0.042159319,-0.921422839,-9.817018509
1748429169.284017,1748429169275557.000000000,1748429169275410.000000000,0.052168779,-0.909210801,-9.824908257
1748429169.294986,1748429169285231.000000000,1748429169285151.000000000,0.077981576,-0.924801230,-9.805076599
1748429169.303008,1748429169294978.000000000,1748429169294893.000000000,0.089571163,-0.954403400,-9.789170265
1748429169.305928,1748429169304716.000000000,1748429169304634.000000000,0.074485645,-0.988459647,-9.781181335
1748429169.316017,1748429169314460.000000000,1748429169314376.000000000,0.043490782,-0.945398808,-9.794384003
1748429169.325972,1748429169324200.000000000,1748429169324117.000000000,0.039009921,-0.917750716,-9.809288979
1748429169.345001,1748429169333940.000000000,1748429169333858.000000000,0.015501476,-0.902587831,-9.816588402
1748429169.354944,1748429169348568.000000000,1748429169348469.000000000,0.012024226,-0.886886895,-9.794077873
1748429169.364020,1748429169358294.000000000,1748429169358211.000000000,0.019433139,-0.891622901,-9.795496941
1748429169.373968,1748429169368035.000000000,1748429169367951.000000000,0.048808686,-0.881339252,-9.828965187
1748429169.383937,1748429169377775.000000000,1748429169377692.000000000,0.033923596,-0.911600351,-9.830382347
1748429169.387024,1748429169387536.000000000,1748429169387433.000000000,0.055936724,-0.933593571,-9.823616028
1748429169.397044,1748429169397260.000000000,1748429169397174.000000000,0.099921852,-0.954161227,-9.779056549
1748429169.406916,1748429169406997.000000000,1748429169406915.000000000,0.078566819,-0.952991545,-9.782686234
1748429169.416045,1748429169416742.000000000,1748429169416658.000000000,0.067847125,-0.940716207,-9.803384781
1748429169.426959,1748429169426599.000000000,1748429169426399.000000000,0.076116346,-0.933180928,-9.817471504
1748429169.435039,1748429169436220.000000000,1748429169436139.000000000,0.073656850,-0.929931700,-9.817900658
1748429169.446953,1748429169445960.000000000,1748429169445879.000000000,0.054006230,-0.919099450,-9.787556648
1748429169.464023,1748429169455702.000000000,1748429169455621.000000000,0.034366265,-0.929959178,-9.780615807
1748429169.475145,1748429169465446.000000000,1748429169465363.000000000,0.025440985,-0.891210675,-9.809743881
1748429169.484044,1748429169475209.000000000,1748429169475104.000000000,0.049743444,-0.882442772,-9.811952591
1748429169.489930,1748429169484926.000000000,1748429169484845.000000000,0.052453864,-0.909656525,-9.789635658
1748429169.504958,1748429169495226.000000000,1748429169495074.000000000,0.079689085,-0.946297705,-9.789931297
1748429169.515027,1748429169504896.000000000,1748429169504816.000000000,0.084185310,-0.950462520,-9.783802032
1748429169.520995,1748429169514727.000000000,1748429169514557.000000000,0.070679761,-0.963245153,-9.801992416
1748429169.528003,1748429169524382.000000000,1748429169524300.000000000,0.060987670,-0.960273683,-9.810385704
1748429169.537058,1748429169534123.000000000,1748429169534041.000000000,0.042808849,-0.946462989,-9.791253090
1748429169.554028,1748429169543866.000000000,1748429169543783.000000000,0.023066228,-0.937059641,-9.784375191
1748429169.564038,1748429169558476.000000000,1748429169558394.000000000,0.015484178,-0.893258154,-9.805707932
1748429169.567952,1748429169563347.000000000,1748429169563265.000000000,0.017642735,-0.884874880,-9.813864708
1748429169.576930,1748429169573087.000000000,1748429169573006.000000000,0.057176381,-0.880191028,-9.822010994
1748429169.587977,1748429169582828.000000000,1748429169582747.000000000,0.071771346,-0.917867362,-9.789206505
1748429169.597041,1748429169597445.000000000,1748429169597359.000000000,0.048802778,-0.933623374,-9.791972160
1748429169.606918,1748429169607185.000000000,1748429169607101.000000000,0.041066211,-0.931847930,-9.806353569
1748429169.616979,1748429169616927.000000000,1748429169616843.000000000,0.069373608,-0.943119764,-9.803560257
1748429169.627919,1748429169626668.000000000,1748429169626584.000000000,0.080022283,-0.958441615,-9.786908150
1748429169.636938,1748429169636411.000000000,1748429169636327.000000000,0.071962796,-0.983967602,-9.794526100
1748429169.654929,1748429169646148.000000000,1748429169646067.000000000,0.044049438,-0.946629107,-9.787817001
1748429169.665021,1748429169655890.000000000,1748429169655809.000000000,0.044004925,-0.900318623,-9.808976173
1748429169.674924,1748429169665747.000000000,1748429169665551.000000000,0.069823138,-0.901385248,-9.812541962
1748429169.685921,1748429169675376.000000000,1748429169675293.000000000,0.079252265,-0.900559247,-9.795886040
1748429169.694124,1748429169685130.000000000,1748429169685034.000000000,0.063115865,-0.911906123,-9.783901215
1748429169.697953,1748429169694858.000000000,1748429169694775.000000000,0.053656656,-0.891733110,-9.796932220
1748429169.706912,1748429169704598.000000000,1748429169704516.000000000,0.067301236,-0.879318655,-9.815469742
1748429169.717131,1748429169714340.000000000,1748429169714258.000000000,0.095287986,-0.911175668,-9.816149712
1748429169.734935,1748429169724077.000000000,1748429169723997.000000000,0.091626152,-0.944655240,-9.801322937
1748429169.744981,1748429169733818.000000000,1748429169733737.000000000,0.036120266,-0.964405060,-9.774836540
1748429169.754958,1748429169748435.000000000,1748429169748350.000000000,0.006195110,-0.961824238,-9.792389870
1748429169.764055,1748429169758172.000000000,1748429169758090.000000000,0.017425127,-0.931239903,-9.799364090
1748429169.774932,1748429169767916.000000000,1748429169767832.000000000,0.026798973,-0.924949408,-9.811245918
1748429169.779011,1748429169777670.000000000,1748429169777573.000000000,0.014008780,-0.900187433,-9.787043571
1748429169.787935,1748429169787397.000000000,1748429169787313.000000000,0.015325787,-0.916497171,-9.791205406
1748429169.796958,1748429169797137.000000000,1748429169797054.000000000,0.020290600,-0.910871089,-9.809282303
1748429169.806937,1748429169806876.000000000,1748429169806794.000000000,0.051645912,-0.899959683,-9.806289673
1748429169.815977,1748429169816626.000000000,1748429169816534.000000000,0.075538293,-0.916749477,-9.793474197
1748429169.825013,1748429169826354.000000000,1748429169826273.000000000,0.092716947,-0.911322832,-9.793326378
1748429169.844044,1748429169836094.000000000,1748429169836013.000000000,0.092662536,-0.909498811,-9.782849312
1748429169.847029,1748429169845833.000000000,1748429169845754.000000000,0.046336580,-0.912444293,-9.799401283
1748429169.865002,1748429169855576.000000000,1748429169855495.000000000,0.060476709,-0.904526472,-9.814874649
1748429169.875015,1748429169865319.000000000,1748429169865236.000000000,0.034507010,-0.969472468,-9.808392525
1748429169.880056,1748429169875058.000000000,1748429169874977.000000000,0.006312763,-0.960170090,-9.779302597
1748429169.888981,1748429169884799.000000000,1748429169884719.000000000,0.004864114,-0.951649606,-9.785578728
1748429169.897034,1748429169894544.000000000,1748429169894461.000000000,-0.007832239,-0.937627256,-9.790346146
1748429169.906020,1748429169904285.000000000,1748429169904202.000000000,0.036624052,-0.908584833,-9.811964989
1748429169.924919,1748429169914025.000000000,1748429169913943.000000000,0.078077726,-0.889989793,-9.822548866
1748429169.934926,1748429169923766.000000000,1748429169923684.000000000,0.079134040,-0.908003986,-9.793241501
1748429169.944925,1748429169938378.000000000,1748429169938296.000000000,0.081544116,-0.892325044,-9.800837517
1748429169.953989,1748429169948120.000000000,1748429169948037.000000000,0.083402991,-0.912909091,-9.817597389
1748429169.964027,1748429169957917.000000000,1748429169957779.000000000,0.069947712,-0.921980441,-9.819749832
1748429169.966957,1748429169967612.000000000,1748429169967520.000000000,0.030313715,-0.958698750,-9.799659729
1748429169.977020,1748429169972474.000000000,1748429169972390.000000000,0.018156432,-0.962045252,-9.786027908
1748429169.986929,1748429169987084.000000000,1748429169987002.000000000,-0.003706103,-0.969587088,-9.784659386
1748429169.996037,1748429169996828.000000000,1748429169996743.000000000,-0.003394082,-0.936387599,-9.810030937
1748429170.007921,1748429170006569.000000000,1748429170006486.000000000,0.025113769,-0.916748762,-9.805968285
1748429170.015999,1748429170016307.000000000,1748429170016226.000000000,0.060374752,-0.920855999,-9.803447723
1748429170.034992,1748429170026047.000000000,1748429170025967.000000000,0.061376087,-0.889150321,-9.801917076
1748429170.045110,1748429170035800.000000000,1748429170035709.000000000,0.057682741,-0.895378232,-9.798747063
1748429170.055980,1748429170045529.000000000,1748429170045450.000000000,0.078159012,-0.896591783,-9.788874626
1748429170.064974,1748429170055291.000000000,1748429170055191.000000000,0.116262354,-0.899131060,-9.797660828
1748429170.070026,1748429170065015.000000000,1748429170064933.000000000,0.095667802,-0.921787798,-9.777571678
1748429170.078949,1748429170074758.000000000,1748429170074675.000000000,0.048676651,-0.933995485,-9.775197983
1748429170.086920,1748429170084500.000000000,1748429170084417.000000000,0.055130132,-0.947215915,-9.784253120
1748429170.098013,1748429170094240.000000000,1748429170094160.000000000,0.065641887,-0.951094389,-9.809244156
1748429170.107948,1748429170103983.000000000,1748429170103902.000000000,0.048939422,-0.975051641,-9.809877396
1748429170.124923,1748429170118599.000000000,1748429170118513.000000000,0.023841834,-0.941016853,-9.798990250
1748429170.127981,1748429170123466.000000000,1748429170123384.000000000,0.011416915,-0.914887190,-9.797577858
1748429170.144912,1748429170138080.000000000,1748429170137996.000000000,0.026238196,-0.915099561,-9.801482201
1748429170.153912,1748429170147918.000000000,1748429170147737.000000000,0.063933976,-0.899626851,-9.800160408
1748429170.157953,1748429170157560.000000000,1748429170157478.000000000,0.070053175,-0.889109731,-9.806207657
1748429170.166954,1748429170167302.000000000,1748429170167219.000000000,0.061268207,-0.922600806,-9.790884972
1748429170.177980,1748429170177043.000000000,1748429170176961.000000000,0.036118854,-0.895102203,-9.792531967
1748429170.189013,1748429170186858.000000000,1748429170186721.000000000,0.064716756,-0.925712645,-9.793645859
1748429170.199970,1748429170196545.000000000,1748429170196463.000000000,0.051270556,-0.949290752,-9.788712502
1748429170.208039,1748429170206285.000000000,1748429170206204.000000000,0.033956427,-0.961508155,-9.798862457
1748429170.226007,1748429170216027.000000000,1748429170215945.000000000,0.003238620,-0.934684634,-9.787637711
1748429170.234995,1748429170225766.000000000,1748429170225686.000000000,0.004264916,-0.953699589,-9.768205643
1748429170.237982,1748429170235508.000000000,1748429170235427.000000000,0.046899054,-0.942782640,-9.787446976
1748429170.253059,1748429170245250.000000000,1748429170245169.000000000,0.074697569,-0.898836493,-9.808459282
1748429170.256932,1748429170254991.000000000,1748429170254910.000000000,0.077516496,-0.915867925,-9.813772202
1748429170.268981,1748429170264902.000000000,1748429170264651.000000000,0.057759460,-0.885276794,-9.789159775
1748429170.276021,1748429170274473.000000000,1748429170274391.000000000,0.058760662,-0.914626658,-9.788878441
1748429170.286078,1748429170284213.000000000,1748429170284131.000000000,0.087500803,-0.935030401,-9.793716431
1748429170.304928,1748429170293955.000000000,1748429170293872.000000000,0.085584566,-0.921934843,-9.798234940
1748429170.314925,1748429170308566.000000000,1748429170308484.000000000,0.051409759,-0.935729384,-9.789077759
1748429170.323934,1748429170318310.000000000,1748429170318228.000000000,0.037657734,-0.947099984,-9.780098915
1748429170.334060,1748429170328048.000000000,1748429170327965.000000000,0.037055563,-0.946284533,-9.765656471
1748429170.339056,1748429170337914.000000000,1748429170337707.000000000,0.058037609,-0.948124051,-9.792369843
1748429170.348020,1748429170347541.000000000,1748429170347449.000000000,0.047794875,-0.927758276,-9.801599503
1748429170.358126,1748429170357279.000000000,1748429170357190.000000000,0.025269525,-0.909699202,-9.794153214
1748429170.368990,1748429170367015.000000000,1748429170366931.000000000,0.031024862,-0.905847788,-9.787171364
1748429170.376931,1748429170376754.000000000,1748429170376671.000000000,0.043626588,-0.923004925,-9.795343399
1748429170.385989,1748429170386518.000000000,1748429170386412.000000000,0.071163319,-0.928158045,-9.792353630
1748429170.395033,1748429170396234.000000000,1748429170396153.000000000,0.103673905,-0.915063500,-9.799966812
1748429170.415907,1748429170405975.000000000,1748429170405894.000000000,0.088406175,-0.922629893,-9.800333977
1748429170.424977,1748429170415721.000000000,1748429170415634.000000000,0.052907150,-0.925887942,-9.797216415
1748429170.434932,1748429170425499.000000000,1748429170425374.000000000,0.061208118,-0.932045400,-9.784080505
1748429170.440055,1748429170435199.000000000,1748429170435115.000000000,0.055893715,-0.939580023,-9.783395767
1748429170.449017,1748429170444938.000000000,1748429170444856.000000000,0.031350534,-0.921896458,-9.805891037
1748429170.457003,1748429170454678.000000000,1748429170454597.000000000,0.011987218,-0.915088236,-9.796947479
1748429170.466013,1748429170464421.000000000,1748429170464337.000000000,0.029156689,-0.930128276,-9.801738739
1748429170.476032,1748429170474160.000000000,1748429170474078.000000000,0.043719415,-0.929195762,-9.788743019
1748429170.494932,1748429170483908.000000000,1748429170483818.000000000,0.049786050,-0.922349751,-9.784967422
1748429170.504050,1748429170498512.000000000,1748429170498429.000000000,0.047976609,-0.912742496,-9.801576614
1748429170.514094,1748429170508252.000000000,1748429170508169.000000000,0.047922846,-0.926382482,-9.805041313
1748429170.521928,1748429170513120.000000000,1748429170513040.000000000,0.063790128,-0.933561802,-9.799724579
1748429170.529023,1748429170522877.000000000,1748429170522779.000000000,0.093048491,-0.944490135,-9.773857117
1748429170.538935,1748429170537473.000000000,1748429170537389.000000000,0.055964541,-0.906827569,-9.797660828
1748429170.548028,1748429170547213.000000000,1748429170547130.000000000,0.052502483,-0.918038964,-9.812192917
1748429170.556924,1748429170556954.000000000,1748429170556871.000000000,0.042476021,-0.909173548,-9.793783188
1748429170.566126,1748429170566701.000000000,1748429170566612.000000000,0.048850212,-0.921190500,-9.783052444
1748429170.575008,1748429170576430.000000000,1748429170576351.000000000,0.049387176,-0.917421997,-9.788656235
1748429170.594938,1748429170586170.000000000,1748429170586090.000000000,0.045066692,-0.905285835,-9.794914246
1748429170.604934,1748429170595909.000000000,1748429170595830.000000000,0.043584503,-0.884686112,-9.792732239
1748429170.614964,1748429170605650.000000000,1748429170605571.000000000,0.037977632,-0.909008622,-9.791809082
1748429170.623044,1748429170615406.000000000,1748429170615311.000000000,0.052816082,-0.931631446,-9.791242599
1748429170.629019,1748429170625137.000000000,1748429170625052.000000000,0.056162208,-0.922473907,-9.782052040
1748429170.643071,1748429170635405.000000000,1748429170635297.000000000,0.074633218,-0.915701926,-9.789993286
1748429170.647965,1748429170645103.000000000,1748429170645022.000000000,0.071541198,-0.923883915,-9.785011292
1748429170.656983,1748429170654856.000000000,1748429170654764.000000000,0.058699179,-0.943323195,-9.782212257
1748429170.666970,1748429170664587.000000000,1748429170664505.000000000,0.059896983,-0.931747317,-9.783895493
1748429170.676980,1748429170674331.000000000,1748429170674246.000000000,0.052193008,-0.937690854,-9.782575607
1748429170.696986,1748429170688950.000000000,1748429170688858.000000000,0.050067659,-0.914613426,-9.801288605
1748429170.705998,1748429170698682.000000000,1748429170698599.000000000,0.046004787,-0.894098163,-9.798846245
1748429170.714022,1748429170708424.000000000,1748429170708340.000000000,0.043063581,-0.910595834,-9.784463882
1748429170.724032,1748429170718162.000000000,1748429170718081.000000000,0.045786217,-0.937377155,-9.804552078
1748429170.727987,1748429170727913.000000000,1748429170727821.000000000,0.065776370,-0.935508430,-9.787077904
1748429170.737967,1748429170737655.000000000,1748429170737563.000000000,0.056074582,-0.931705952,-9.780145645
1748429170.747073,1748429170747389.000000000,1748429170747304.000000000,0.037467085,-0.951614499,-9.789419174
1748429170.756984,1748429170757126.000000000,1748429170757044.000000000,0.053428207,-0.962465525,-9.786780357
1748429170.766012,1748429170766867.000000000,1748429170766784.000000000,0.040509295,-0.937255621,-9.795868874
1748429170.776932,1748429170776609.000000000,1748429170776525.000000000,0.046238296,-0.909335852,-9.803822517
1748429170.785914,1748429170786349.000000000,1748429170786265.000000000,0.037800070,-0.898794532,-9.805482864
1748429170.797050,1748429170796086.000000000,1748429170796007.000000000,0.025769170,-0.904364645,-9.793940544
1748429170.815023,1748429170805828.000000000,1748429170805749.000000000,0.017200431,-0.908974111,-9.794122696
1748429170.825935,1748429170815621.000000000,1748429170815491.000000000,0.041294973,-0.913724840,-9.791399956
1748429170.830973,1748429170825317.000000000,1748429170825234.000000000,0.047457080,-0.924745679,-9.791391373
1748429170.840000,1748429170835057.000000000,1748429170834975.000000000,0.044579353,-0.913480997,-9.798368454
1748429170.849970,1748429170844797.000000000,1748429170844716.000000000,0.062591910,-0.931577206,-9.784847260
1748429170.857002,1748429170854541.000000000,1748429170854457.000000000,0.087145112,-0.945007920,-9.786448479
1748429170.866023,1748429170864285.000000000,1748429170864199.000000000,0.092966400,-0.943266869,-9.798282623
1748429170.875977,1748429170874098.000000000,1748429170873939.000000000,0.069745161,-0.931884527,-9.792707443
1748429170.894976,1748429170888632.000000000,1748429170888550.000000000,0.060559843,-0.911471307,-9.789871216
1748429170.904028,1748429170898375.000000000,1748429170898292.000000000,0.043021314,-0.918677866,-9.797824860
1748429170.914007,1748429170908150.000000000,1748429170908032.000000000,0.039188407,-0.921068549,-9.781220436
1748429170.917129,1748429170917856.000000000,1748429170917772.000000000,0.034923062,-0.921263099,-9.779611588
1748429170.926925,1748429170922722.000000000,1748429170922642.000000000,0.028530542,-0.925887287,-9.791132927
1748429170.936944,1748429170937335.000000000,1748429170937253.000000000,0.016044199,-0.924264729,-9.798321724
1748429170.947013,1748429170947099.000000000,1748429170946994.000000000,0.033163957,-0.937167048,-9.792872429
1748429170.957002,1748429170956818.000000000,1748429170956733.000000000,0.062810369,-0.941181421,-9.787563324
1748429170.966023,1748429170966556.000000000,1748429170966473.000000000,0.063866064,-0.951041162,-9.774089813
1748429170.975978,1748429170976296.000000000,1748429170976214.000000000,0.059135888,-0.930887878,-9.782287598
1748429170.994955,1748429170986034.000000000,1748429170985955.000000000,0.077826321,-0.923071921,-9.789973259
1748429171.004998,1748429170995774.000000000,1748429170995695.000000000,0.076629303,-0.919663846,-9.783140182
1748429171.014014,1748429171005529.000000000,1748429171005435.000000000,0.061670240,-0.898265004,-9.799022675
1748429171.019965,1748429171015259.000000000,1748429171015177.000000000,0.053401411,-0.885496974,-9.793955803
1748429171.030025,1748429171025158.000000000,1748429171024917.000000000,0.036289908,-0.910051703,-9.800994873
1748429171.039047,1748429171034741.000000000,1748429171034659.000000000,0.044439506,-0.905236065,-9.791540146
1748429171.047050,1748429171044489.000000000,1748429171044401.000000000,0.044243447,-0.914502621,-9.785567284
1748429171.056938,1748429171054225.000000000,1748429171054142.000000000,0.045399070,-0.924724698,-9.777828217
1748429171.074922,1748429171068839.000000000,1748429171068755.000000000,0.065379292,-0.933816612,-9.802623749
1748429171.080043,1748429171073709.000000000,1748429171073625.000000000,0.066502929,-0.925620377,-9.796441078
1748429171.094984,1748429171088320.000000000,1748429171088236.000000000,0.052666895,-0.934368610,-9.772651672
1748429171.105081,1748429171098151.000000000,1748429171097977.000000000,0.057825167,-0.928756833,-9.785752296
1748429171.109925,1748429171107803.000000000,1748429171107718.000000000,0.063466713,-0.922615945,-9.809356689
1748429171.118021,1748429171117544.000000000,1748429171117459.000000000,0.050887931,-0.909445107,-9.791384697
1748429171.128990,1748429171127286.000000000,1748429171127200.000000000,0.046820842,-0.897767425,-9.777015686
1748429171.137978,1748429171137023.000000000,1748429171136940.000000000,0.061647568,-0.913855433,-9.781900406
1748429171.147982,1748429171146773.000000000,1748429171146680.000000000,0.031609658,-0.919467449,-9.798449516
1748429171.156003,1748429171156500.000000000,1748429171156419.000000000,0.034301843,-0.921423614,-9.803673744
1748429171.165967,1748429171166243.000000000,1748429171166159.000000000,0.044754900,-0.930414736,-9.795042038
1748429171.185031,1748429171175987.000000000,1748429171175900.000000000,0.065850310,-0.942335069,-9.786701202
1748429171.196039,1748429171185741.000000000,1748429171185662.000000000,0.053455647,-0.934943914,-9.790104866
1748429171.204994,1748429171195486.000000000,1748429171195403.000000000,0.065834694,-0.948920846,-9.777312279
1748429171.210019,1748429171205223.000000000,1748429171205143.000000000,0.069025472,-0.927588880,-9.783468246
1748429171.220042,1748429171214964.000000000,1748429171214883.000000000,0.072159551,-0.923057556,-9.781538963
1748429171.227945,1748429171224707.000000000,1748429171224624.000000000,0.057825100,-0.890991926,-9.789708138
1748429171.236978,1748429171234448.000000000,1748429171234367.000000000,0.055238307,-0.913629174,-9.786710739
1748429171.246022,1748429171244188.000000000,1748429171244109.000000000,0.026980419,-0.909820557,-9.784535408
1748429171.264954,1748429171258803.000000000,1748429171258721.000000000,0.030506628,-0.908122599,-9.781811714
1748429171.273987,1748429171268545.000000000,1748429171268462.000000000,0.037138194,-0.915977538,-9.795357704
1748429171.285938,1748429171278286.000000000,1748429171278204.000000000,0.074282430,-0.907739401,-9.810590744
1748429171.289955,1748429171288032.000000000,1748429171287947.000000000,0.075074390,-0.920566082,-9.769518852
1748429171.298064,1748429171297774.000000000,1748429171297688.000000000,0.068929680,-0.942721903,-9.773246765
1748429171.307930,1748429171307513.000000000,1748429171307430.000000000,0.073177189,-0.910465240,-9.781924248
1748429171.316942,1748429171312384.000000000,1748429171312301.000000000,0.072290458,-0.912765026,-9.789244652
1748429171.326025,1748429171327007.000000000,1748429171326913.000000000,0.064338982,-0.942704618,-9.794661522
1748429171.336952,1748429171336761.000000000,1748429171336652.000000000,0.039416280,-0.912522018,-9.786991119
1748429171.345955,1748429171346474.000000000,1748429171346394.000000000,0.031992771,-0.914468944,-9.779733658
1748429171.354978,1748429171356214.000000000,1748429171356135.000000000,0.019571342,-0.915401936,-9.777155876
1748429171.374990,1748429171365957.000000000,1748429171365876.000000000,0.014624750,-0.910485148,-9.785638809
1748429171.385005,1748429171375793.000000000,1748429171375619.000000000,0.019718269,-0.898327649,-9.785311699
1748429171.389978,1748429171385442.000000000,1748429171385358.000000000,0.033484664,-0.917124093,-9.782886505
1748429171.399024,1748429171395210.000000000,1748429171395099.000000000,0.058317523,-0.919986725,-9.777338028
1748429171.409947,1748429171404922.000000000,1748429171404839.000000000,0.074089453,-0.926774800,-9.792238235
1748429171.416945,1748429171414662.000000000,1748429171414579.000000000,0.062040351,-0.935559034,-9.789898872
1748429171.427002,1748429171424404.000000000,1748429171424319.000000000,0.041717391,-0.914603770,-9.794345856
1748429171.436038,1748429171434152.000000000,1748429171434058.000000000,0.057746209,-0.954997957,-9.775061607
1748429171.454985,1748429171448751.000000000,1748429171448669.000000000,0.052051652,-0.920772970,-9.778804779
1748429171.464070,1748429171458494.000000000,1748429171458410.000000000,0.034349427,-0.887581348,-9.788846016
1748429171.466984,1748429171463365.000000000,1748429171463280.000000000,0.016531352,-0.911529005,-9.788219452
1748429171.478036,1748429171473265.000000000,1748429171473020.000000000,0.003510902,-0.913738430,-9.775585175
1748429171.487038,1748429171487716.000000000,1748429171487632.000000000,0.008498125,-0.926771402,-9.773806572
1748429171.497039,1748429171497455.000000000,1748429171497372.000000000,0.022255622,-0.947742701,-9.790768623
1748429171.506946,1748429171507195.000000000,1748429171507113.000000000,0.051612157,-0.921893120,-9.797541618
1748429171.516918,1748429171516941.000000000,1748429171516856.000000000,0.091166198,-0.907763243,-9.796700478
1748429171.527046,1748429171526683.000000000,1748429171526597.000000000,0.115830898,-0.915609658,-9.789990425
1748429171.536975,1748429171536420.000000000,1748429171536339.000000000,0.106658623,-0.947630286,-9.780942917
1748429171.546070,1748429171546248.000000000,1748429171546081.000000000,0.100076362,-0.922603488,-9.784463882
1748429171.565050,1748429171555909.000000000,1748429171555822.000000000,0.090769969,-0.931044817,-9.793258667
1748429171.573941,1748429171565647.000000000,1748429171565563.000000000,0.059598349,-0.918856442,-9.798518181
1748429171.580047,1748429171575390.000000000,1748429171575305.000000000,0.017220246,-0.891807556,-9.787268639
1748429171.589034,1748429171585142.000000000,1748429171585045.000000000,0.010050063,-0.941103220,-9.780918121
1748429171.597062,1748429171594868.000000000,1748429171594786.000000000,0.024111977,-0.929916024,-9.791593552
1748429171.606941,1748429171604610.000000000,1748429171604529.000000000,0.027987231,-0.928561509,-9.788563728
1748429171.616030,1748429171614355.000000000,1748429171614271.000000000,0.021005603,-0.920256913,-9.792562485
1748429171.634997,1748429171628965.000000000,1748429171628883.000000000,0.052166104,-0.925463080,-9.777448654
1748429171.644020,1748429171638705.000000000,1748429171638623.000000000,0.057871141,-0.925382793,-9.768093109
1748429171.654037,1748429171648446.000000000,1748429171648363.000000000,0.066845313,-0.906588614,-9.770323753
1748429171.657970,1748429171658194.000000000,1748429171658104.000000000,0.079029940,-0.909262180,-9.791646004
1748429171.667977,1748429171667931.000000000,1748429171667846.000000000,0.055734131,-0.905138016,-9.784162521
1748429171.676998,1748429171677672.000000000,1748429171677588.000000000,0.053895440,-0.951236069,-9.766104698
1748429171.687172,1748429171687414.000000000,1748429171687330.000000000,0.043135136,-0.945334315,-9.772696495
1748429171.697003,1748429171697293.000000000,1748429171697071.000000000,0.055184748,-0.928258657,-9.781899452
1748429171.708962,1748429171706893.000000000,1748429171706811.000000000,0.061570231,-0.911889255,-9.783249855
1748429171.717027,1748429171716638.000000000,1748429171716554.000000000,0.052004553,-0.904846907,-9.797480583
1748429171.725933,1748429171726378.000000000,1748429171726297.000000000,0.056370262,-0.924732387,-9.776625633
1748429171.735996,1748429171736116.000000000,1748429171736036.000000000,0.068845242,-0.955404699,-9.766865730
1748429171.748005,1748429171745891.000000000,1748429171745778.000000000,0.049960889,-0.952983558,-9.778274536
1748429171.764046,1748429171755602.000000000,1748429171755518.000000000,0.045304585,-0.925774217,-9.787178993
1748429171.769024,1748429171765340.000000000,1748429171765259.000000000,0.038154002,-0.906130254,-9.788119316
1748429171.779090,1748429171775096.000000000,1748429171775002.000000000,0.038450599,-0.915122449,-9.778945923
1748429171.789925,1748429171785405.000000000,1748429171785230.000000000,0.038048699,-0.917795479,-9.783779144
1748429171.799035,1748429171795054.000000000,1748429171794971.000000000,0.026727065,-0.927883208,-9.783023834
1748429171.808991,1748429171804795.000000000,1748429171804712.000000000,0.019320710,-0.907626510,-9.802130699
1748429171.816939,1748429171814536.000000000,1748429171814454.000000000,0.029067619,-0.909544528,-9.800480843
1748429171.826991,1748429171824278.000000000,1748429171824196.000000000,0.034059826,-0.935072958,-9.793370247
1748429171.844034,1748429171838895.000000000,1748429171838810.000000000,0.057359956,-0.933419943,-9.777036667
1748429171.854971,1748429171848635.000000000,1748429171848551.000000000,0.079698779,-0.944403768,-9.791866302
1748429171.858031,1748429171853504.000000000,1748429171853421.000000000,0.088614233,-0.938800395,-9.790236473
1748429171.867970,1748429171868117.000000000,1748429171868032.000000000,0.061056331,-0.916933477,-9.786142349
1748429171.877028,1748429171872985.000000000,1748429171872903.000000000,0.069293424,-0.924215317,-9.797096252
1748429171.887015,1748429171887604.000000000,1748429171887516.000000000,0.049179804,-0.916859806,-9.795742035
1748429171.897017,1748429171897342.000000000,1748429171897257.000000000,0.044706706,-0.926615000,-9.798443794
1748429171.907126,1748429171907081.000000000,1748429171906998.000000000,0.031491384,-0.928026497,-9.774216652
1748429171.916020,1748429171916823.000000000,1748429171916740.000000000,0.030550849,-0.936550558,-9.768058777
1748429171.926019,1748429171926568.000000000,1748429171926481.000000000,0.028595515,-0.933171451,-9.772308350
1748429171.934988,1748429171936441.000000000,1748429171936222.000000000,0.040712550,-0.918661833,-9.783518791
1748429171.955136,1748429171946043.000000000,1748429171945964.000000000,0.037308622,-0.928510368,-9.787049294
1748429171.964075,1748429171955803.000000000,1748429171955705.000000000,0.064489380,-0.937216878,-9.791250229
1748429171.969951,1748429171965530.000000000,1748429171965446.000000000,0.078576334,-0.934840143,-9.775790215
1748429171.979031,1748429171975268.000000000,1748429171975188.000000000,0.058532760,-0.917106688,-9.781401634
1748429171.989057,1748429171985024.000000000,1748429171984929.000000000,0.042782079,-0.889939785,-9.789198875
1748429171.998984,1748429171994751.000000000,1748429171994670.000000000,0.046724364,-0.906793058,-9.782759666
1748429172.006042,1748429172004492.000000000,1748429172004411.000000000,0.033712130,-0.908228517,-9.787796974
1748429172.016016,1748429172014246.000000000,1748429172014152.000000000,0.048150014,-0.912720144,-9.783441544
1748429172.030046,1748429172028846.000000000,1748429172028764.000000000,0.047831602,-0.926838815,-9.797465324
1748429172.046064,1748429172038590.000000000,1748429172038505.000000000,0.061757348,-0.927664101,-9.789963722
1748429172.050034,1748429172048345.000000000,1748429172048246.000000000,0.084531784,-0.950909734,-9.784089088
1748429172.058988,1748429172058071.000000000,1748429172057987.000000000,0.088620327,-0.955720067,-9.793194771
1748429172.067018,1748429172067812.000000000,1748429172067729.000000000,0.069520496,-0.931525767,-9.789787292
1748429172.077027,1748429172077557.000000000,1748429172077471.000000000,0.047602355,-0.897096276,-9.772741318
1748429172.086971,1748429172087307.000000000,1748429172087211.000000000,0.060438395,-0.893300474,-9.773039818
1748429172.098019,1748429172097042.000000000,1748429172096953.000000000,0.057832122,-0.897829175,-9.791459084
1748429172.107272,1748429172106775.000000000,1748429172106694.000000000,0.052924275,-0.907810211,-9.782621384
1748429172.116163,1748429172116517.000000000,1748429172116434.000000000,0.019576030,-0.913975120,-9.768965721
1748429172.125066,1748429172126256.000000000,1748429172126176.000000000,-0.012389596,-0.917554498,-9.774718285
1748429172.138963,1748429172136007.000000000,1748429172135917.000000000,-0.006860533,-0.944365263,-9.786650658
1748429172.149923,1748429172145737.000000000,1748429172145656.000000000,0.011360805,-0.917963624,-9.777916908
1748429172.159944,1748429172155479.000000000,1748429172155396.000000000,0.042958517,-0.955640495,-9.761248589
1748429172.169949,1748429172165219.000000000,1748429172165136.000000000,0.073050246,-0.942245662,-9.776455879
1748429172.179003,1748429172174960.000000000,1748429172174876.000000000,0.084023982,-0.924505234,-9.804116249
1748429172.187131,1748429172184698.000000000,1748429172184616.000000000,0.096382886,-0.918906271,-9.807410240
1748429172.197991,1748429172194463.000000000,1748429172194380.000000000,0.094195142,-0.903207839,-9.786872864
1748429172.207983,1748429172204204.000000000,1748429172204122.000000000,0.067179024,-0.896040499,-9.779965401
1748429172.224946,1748429172218816.000000000,1748429172218733.000000000,0.036740184,-0.908548832,-9.790542603
1748429172.234933,1748429172228595.000000000,1748429172228473.000000000,0.023701556,-0.924503267,-9.800971031
1748429172.237937,1748429172238310.000000000,1748429172238213.000000000,-0.007659348,-0.938965082,-9.772366524
1748429172.247938,1748429172248035.000000000,1748429172247953.000000000,-0.010000761,-0.947478414,-9.771169662
1748429172.257110,1748429172257775.000000000,1748429172257693.000000000,0.020572772,-0.947034776,-9.765534401
1748429172.267954,1748429172262665.000000000,1748429172262563.000000000,0.020747507,-0.935965955,-9.767056465
1748429172.276965,1748429172277259.000000000,1748429172277175.000000000,0.072944760,-0.915332735,-9.785259247
1748429172.286035,1748429172287001.000000000,1748429172286917.000000000,0.088825539,-0.893734336,-9.786424637
1748429172.296043,1748429172296739.000000000,1748429172296657.000000000,0.099593446,-0.879852116,-9.780158997
1748429172.305016,1748429172306524.000000000,1748429172306398.000000000,0.073410988,-0.892055511,-9.790596962
1748429172.325069,1748429172316219.000000000,1748429172316140.000000000,0.069772243,-0.892624140,-9.776048660
1748429172.334976,1748429172325977.000000000,1748429172325881.000000000,0.039840676,-0.916499138,-9.772789001
1748429172.340992,1748429172335704.000000000,1748429172335624.000000000,0.038319275,-0.922048867,-9.783778191
1748429172.349979,1748429172345449.000000000,1748429172345365.000000000,0.013399043,-0.946252584,-9.784461021
1748429172.359989,1748429172355189.000000000,1748429172355106.000000000,0.016097443,-0.932980716,-9.783966064
1748429172.369004,1748429172364927.000000000,1748429172364845.000000000,0.036696337,-0.935490668,-9.787115097
1748429172.378010,1748429172374666.000000000,1748429172374585.000000000,0.043089405,-0.931973696,-9.765887260
1748429172.386986,1748429172384567.000000000,1748429172384326.000000000,0.081621937,-0.918861449,-9.769321442
1748429172.396992,1748429172394149.000000000,1748429172394066.000000000,0.071741387,-0.917867005,-9.797703743
1748429172.414040,1748429172408760.000000000,1748429172408677.000000000,0.075624205,-0.903919637,-9.801060677
1748429172.417932,1748429172413628.000000000,1748429172413547.000000000,0.068899378,-0.909170866,-9.796750069
1748429172.429956,1748429172423372.000000000,1748429172423290.000000000,0.041794676,-0.913569033,-9.789126396
1748429172.437985,1748429172437985.000000000,1748429172437901.000000000,0.031667300,-0.914105177,-9.797228813
1748429172.447044,1748429172447724.000000000,1748429172447642.000000000,0.042427797,-0.939373791,-9.781663895
1748429172.457028,1748429172457558.000000000,1748429172457383.000000000,0.022389706,-0.918027878,-9.787815094
1748429172.468104,1748429172467204.000000000,1748429172467123.000000000,0.019566895,-0.940535545,-9.788603783
1748429172.476959,1748429172476948.000000000,1748429172476863.000000000,0.050542336,-0.941490531,-9.786909103
1748429172.487046,1748429172486686.000000000,1748429172486603.000000000,0.064946964,-0.941563427,-9.782933235
1748429172.495042,1748429172496424.000000000,1748429172496344.000000000,0.061415832,-0.944935799,-9.778595924
1748429172.515162,1748429172506165.000000000,1748429172506085.000000000,0.068271160,-0.914477825,-9.794214249
1748429172.524011,1748429172515921.000000000,1748429172515826.000000000,0.066002570,-0.902816832,-9.794710159
1748429172.530085,1748429172525649.000000000,1748429172525567.000000000,0.078410290,-0.886052728,-9.788243294
1748429172.538007,1748429172535401.000000000,1748429172535308.000000000,0.054718222,-0.904505610,-9.794551849
1748429172.546963,1748429172545130.000000000,1748429172545049.000000000,0.049129289,-0.886017680,-9.786849022
1748429172.559071,1748429172554873.000000000,1748429172554790.000000000,0.029860863,-0.907440484,-9.783292770
1748429172.567013,1748429172564613.000000000,1748429172564532.000000000,0.009292192,-0.898356497,-9.792559624
1748429172.576030,1748429172574355.000000000,1748429172574272.000000000,0.009408746,-0.941319048,-9.794358253
1748429172.594990,1748429172588967.000000000,1748429172588885.000000000,0.040030867,-0.960987926,-9.761564255
1748429172.604980,1748429172598707.000000000,1748429172598626.000000000,0.021135839,-0.943776846,-9.775094032
1748429172.610017,1748429172608619.000000000,1748429172608366.000000000,0.048967201,-0.953551233,-9.773691177
1748429172.619978,1748429172618190.000000000,1748429172618106.000000000,0.087478876,-0.932457626,-9.771614075
1748429172.628001,1748429172627931.000000000,1748429172627846.000000000,0.077320360,-0.917698026,-9.781029701
1748429172.637990,1748429172637669.000000000,1748429172637586.000000000,0.078279801,-0.921864808,-9.796985626
1748429172.647075,1748429172647416.000000000,1748429172647326.000000000,0.064302057,-0.875432670,-9.781271935
1748429172.657027,1748429172657151.000000000,1748429172657066.000000000,0.063533604,-0.881950259,-9.791047096
1748429172.666070,1748429172666890.000000000,1748429172666807.000000000,0.063827783,-0.875442684,-9.794055939
1748429172.676021,1748429172676630.000000000,1748429172676548.000000000,0.032918900,-0.876455367,-9.785312653
1748429172.685009,1748429172686371.000000000,1748429172686287.000000000,0.024331316,-0.896281183,-9.783380508
1748429172.699933,1748429172696188.000000000,1748429172696027.000000000,0.016967541,-0.914077878,-9.777770042
1748429172.710015,1748429172705849.000000000,1748429172705767.000000000,0.037281878,-0.939151943,-9.769808769
1748429172.719987,1748429172715588.000000000,1748429172715508.000000000,0.041898016,-0.939897001,-9.789728165
1748429172.729972,1748429172725333.000000000,1748429172725249.000000000,0.065259017,-0.940757275,-9.777483940
1748429172.739007,1748429172735072.000000000,1748429172734988.000000000,0.041033629,-0.938087463,-9.782233238
1748429172.749022,1748429172744808.000000000,1748429172744729.000000000,0.030321412,-0.918024659,-9.777929306
1748429172.756968,1748429172754606.000000000,1748429172754469.000000000,0.041135468,-0.926394045,-9.776518822
1748429172.766990,1748429172764290.000000000,1748429172764208.000000000,0.056693103,-0.914389491,-9.787319183
1748429172.784940,1748429172778901.000000000,1748429172778818.000000000,0.059963852,-0.886692762,-9.787165642
1748429172.795029,1748429172788735.000000000,1748429172788557.000000000,0.046713658,-0.896479487,-9.788453102
1748429172.797986,1748429172798381.000000000,1748429172798296.000000000,0.051407468,-0.894143045,-9.788820267
1748429172.807935,1748429172803246.000000000,1748429172803166.000000000,0.054996911,-0.911150038,-9.778581619
1748429172.816097,1748429172812987.000000000,1748429172812906.000000000,0.073042363,-0.919483960,-9.779607773
1748429172.827041,1748429172822727.000000000,1748429172822646.000000000,0.075247198,-0.947770417,-9.778759003
1748429172.837061,1748429172837342.000000000,1748429172837255.000000000,0.046666093,-0.936014652,-9.772628784
1748429172.846971,1748429172847077.000000000,1748429172846994.000000000,0.041939590,-0.950747430,-9.766817093
1748429172.856025,1748429172856816.000000000,1748429172856735.000000000,0.069759518,-0.964866638,-9.775218964
1748429172.864993,1748429172866567.000000000,1748429172866475.000000000,0.053923417,-0.924066663,-9.786779404
1748429172.875926,1748429172876295.000000000,1748429172876216.000000000,0.040650893,-0.904927850,-9.781083107
1748429172.893984,1748429172886036.000000000,1748429172885955.000000000,0.018200874,-0.902821720,-9.786627769
1748429172.900022,1748429172895775.000000000,1748429172895695.000000000,0.009143169,-0.882716715,-9.776810646
1748429172.909953,1748429172905650.000000000,1748429172905436.000000000,0.013654862,-0.891592205,-9.790277481
1748429172.920017,1748429172915257.000000000,1748429172915175.000000000,0.038932052,-0.909860075,-9.775248528
1748429172.930039,1748429172924995.000000000,1748429172924915.000000000,0.040206578,-0.933240891,-9.780418396
1748429172.937989,1748429172935860.000000000,1748429172935629.000000000,0.031475045,-0.931351721,-9.789256096
1748429172.950774,1748429172945454.000000000,1748429172945369.000000000,0.073013686,-0.941131532,-9.779751778
1748429172.956967,1748429172955189.000000000,1748429172955108.000000000,0.093358040,-0.945855677,-9.770686150
1748429172.969027,1748429172964928.000000000,1748429172964848.000000000,0.083779618,-0.943990111,-9.772466660
1748429172.976949,1748429172974669.000000000,1748429172974587.000000000,0.070063151,-0.927732706,-9.772815704
1748429172.986033,1748429172984414.000000000,1748429172984326.000000000,0.075119793,-0.897905529,-9.775612831
1748429173.005046,1748429172999019.000000000,1748429172998935.000000000,0.078759402,-0.907600582,-9.783799171
1748429173.014990,1748429173008955.000000000,1748429173008676.000000000,0.072382048,-0.916952312,-9.785629272
1748429173.017998,1748429173018499.000000000,1748429173018415.000000000,0.061437268,-0.908838689,-9.790465355
1748429173.028001,1748429173028239.000000000,1748429173028156.000000000,0.046462864,-0.890907884,-9.783560753
1748429173.037973,1748429173037980.000000000,1748429173037896.000000000,0.068059325,-0.901771903,-9.779885292
1748429173.049002,1748429173047720.000000000,1748429173047635.000000000,0.064282879,-0.941000044,-9.780355453
1748429173.057936,1748429173057456.000000000,1748429173057374.000000000,0.039687075,-0.948859692,-9.787902832
1748429173.068003,1748429173067196.000000000,1748429173067114.000000000,0.035655815,-0.957003295,-9.774595261
1748429173.077062,1748429173076936.000000000,1748429173076853.000000000,0.017962050,-0.954016507,-9.772124290
1748429173.085986,1748429173081862.000000000,1748429173081723.000000000,0.018191218,-0.939206719,-9.777845383
1748429173.095981,1748429173096410.000000000,1748429173096331.000000000,0.053415403,-0.906501234,-9.783968925
1748429173.110062,1748429173106165.000000000,1748429173106069.000000000,0.048176516,-0.894611835,-9.777812004
1748429173.120094,1748429173115889.000000000,1748429173115806.000000000,0.051803757,-0.879412889,-9.772304535
1748429173.129937,1748429173125626.000000000,1748429173125544.000000000,0.060356922,-0.887350559,-9.768412590
1748429173.139951,1748429173135365.000000000,1748429173135283.000000000,0.064527258,-0.896734655,-9.780063629
1748429173.148976,1748429173145102.000000000,1748429173145021.000000000,0.083808325,-0.922056019,-9.782615662
1748429173.158998,1748429173154869.000000000,1748429173154760.000000000,0.086640492,-0.959482253,-9.780805588
1748429173.166949,1748429173164581.000000000,1748429173164499.000000000,0.059579391,-0.949585617,-9.776943207
1748429173.176947,1748429173174325.000000000,1748429173174239.000000000,0.052872006,-0.963477731,-9.755506516
1748429173.194944,1748429173188930.000000000,1748429173188847.000000000,0.041621994,-0.954094350,-9.765954018
1748429173.200063,1748429173198684.000000000,1748429173198587.000000000,0.020270988,-0.916476727,-9.786190987
1748429173.210007,1748429173208430.000000000,1748429173208345.000000000,0.025236616,-0.894777656,-9.784168243
1748429173.220979,1748429173213295.000000000,1748429173213214.000000000,0.032657467,-0.896776080,-9.782652855
1748429173.228989,1748429173227905.000000000,1748429173227823.000000000,0.050194822,-0.896375120,-9.791124344
1748429173.238040,1748429173237646.000000000,1748429173237562.000000000,0.054859210,-0.896196604,-9.775948524
1748429173.248996,1748429173247387.000000000,1748429173247300.000000000,0.064180739,-0.909047961,-9.779893875
1748429173.257038,1748429173257122.000000000,1748429173257038.000000000,0.049724739,-0.927677572,-9.793185234
1748429173.267063,1748429173266858.000000000,1748429173266776.000000000,0.064499497,-0.958219588,-9.779389381
1748429173.275012,1748429173276594.000000000,1748429173276514.000000000,0.052273851,-0.954801023,-9.758145332
1748429173.285994,1748429173286372.000000000,1748429173286252.000000000,0.064057499,-0.948784471,-9.768847466
1748429173.299980,1748429173296072.000000000,1748429173295991.000000000,0.049359292,-0.934802413,-9.780675888
1748429173.309983,1748429173305929.000000000,1748429173305730.000000000,0.043860242,-0.919251204,-9.776885033
1748429173.319953,1748429173315549.000000000,1748429173315468.000000000,0.041877810,-0.908417165,-9.768624306
1748429173.330001,1748429173325290.000000000,1748429173325207.000000000,0.038020208,-0.895499229,-9.778087616
1748429173.338993,1748429173335027.000000000,1748429173334945.000000000,0.038248725,-0.913967311,-9.791860580
1748429173.347062,1748429173344765.000000000,1748429173344684.000000000,0.026964564,-0.930235088,-9.783660889
1748429173.356026,1748429173354503.000000000,1748429173354423.000000000,0.037140794,-0.916410148,-9.763355255
1748429173.365992,1748429173364241.000000000,1748429173364162.000000000,0.078230202,-0.899662614,-9.763613701
1748429173.380040,1748429173374000.000000000,1748429173373900.000000000,0.094231948,-0.913017690,-9.787218094
1748429173.388043,1748429173388595.000000000,1748429173388508.000000000,0.076500192,-0.941101253,-9.773853302
1748429173.398940,1748429173398332.000000000,1748429173398248.000000000,0.048664689,-0.943300784,-9.772081375
1748429173.407964,1748429173408074.000000000,1748429173407987.000000000,0.038820934,-0.941851020,-9.782644272
1748429173.417043,1748429173417809.000000000,1748429173417727.000000000,0.034440283,-0.954215050,-9.772677422
1748429173.427041,1748429173427554.000000000,1748429173427465.000000000,0.050209448,-0.927096784,-9.784502983
1748429173.436987,1748429173437287.000000000,1748429173437204.000000000,0.039716225,-0.907043993,-9.785301208
1748429173.447020,1748429173447026.000000000,1748429173446943.000000000,0.013471389,-0.894800425,-9.789183617
1748429173.456014,1748429173456774.000000000,1748429173456682.000000000,0.036436297,-0.900183082,-9.780913353
1748429173.465051,1748429173466506.000000000,1748429173466421.000000000,0.069674902,-0.918677032,-9.773615837
1748429173.476995,1748429173476240.000000000,1748429173476158.000000000,0.072919443,-0.898960173,-9.764028549
1748429173.490005,1748429173485989.000000000,1748429173485896.000000000,0.078821562,-0.930403471,-9.762411118
1748429173.496979,1748429173495713.000000000,1748429173495633.000000000,0.062922552,-0.943126559,-9.775302887
1748429173.509952,1748429173505453.000000000,1748429173505370.000000000,0.072915502,-0.958238423,-9.784822464
1748429173.519051,1748429173515189.000000000,1748429173515109.000000000,0.069782339,-0.944565117,-9.777330399
1748429173.529953,1748429173524938.000000000,1748429173524847.000000000,0.035697822,-0.932359099,-9.781103134
1748429173.536956,1748429173534665.000000000,1748429173534585.000000000,0.011626772,-0.919713259,-9.786096573
1748429173.547009,1748429173544412.000000000,1748429173544323.000000000,0.019156709,-0.919746220,-9.773403168
1748429173.565002,1748429173559013.000000000,1748429173558931.000000000,0.009343410,-0.900893390,-9.785637856
1748429173.568962,1748429173568755.000000000,1748429173568670.000000000,0.032493122,-0.919554293,-9.794090271
1748429173.578014,1748429173578493.000000000,1748429173578409.000000000,0.044980820,-0.922806621,-9.777597427
1748429173.587927,1748429173588232.000000000,1748429173588149.000000000,0.055314202,-0.912579954,-9.775948524
1748429173.597068,1748429173597970.000000000,1748429173597887.000000000,0.055982925,-0.922368646,-9.766910553
1748429173.607045,1748429173607714.000000000,1748429173607627.000000000,0.079511590,-0.936906934,-9.760923386
1748429173.617005,1748429173617452.000000000,1748429173617366.000000000,0.083702728,-0.933880866,-9.768117905
1748429173.625945,1748429173622316.000000000,1748429173622235.000000000,0.076112889,-0.930721223,-9.768251419
1748429173.636056,1748429173636927.000000000,1748429173636844.000000000,0.037721224,-0.935033679,-9.760657310
1748429173.645994,1748429173646672.000000000,1748429173646584.000000000,0.020787053,-0.909476817,-9.785820007
1748429173.655081,1748429173656480.000000000,1748429173656323.000000000,0.018428028,-0.915680408,-9.785553932
1748429173.670157,1748429173666143.000000000,1748429173666062.000000000,0.016102996,-0.909889102,-9.783042908
1748429173.681067,1748429173675977.000000000,1748429173675802.000000000,0.020793466,-0.904328823,-9.785690308
1748429173.689983,1748429173685625.000000000,1748429173685542.000000000,0.023062574,-0.922227085,-9.781956673
1748429173.700040,1748429173695364.000000000,1748429173695282.000000000,0.054667328,-0.936323106,-9.777464867
1748429173.708991,1748429173705103.000000000,1748429173705022.000000000,0.069151588,-0.927588701,-9.767394066
1748429173.718989,1748429173714844.000000000,1748429173714763.000000000,0.096384764,-0.929332793,-9.785825729
1748429173.727076,1748429173724585.000000000,1748429173724502.000000000,0.078812659,-0.921784461,-9.775897980
1748429173.736990,1748429173734326.000000000,1748429173734242.000000000,0.078437507,-0.913682640,-9.777439117
1748429173.755039,1748429173749090.000000000,1748429173748853.000000000,0.046199307,-0.930912197,-9.773645401
1748429173.758992,1748429173753815.000000000,1748429173753723.000000000,0.026504301,-0.927860379,-9.775727272
1748429173.768075,1748429173763547.000000000,1748429173763464.000000000,0.021147776,-0.905446947,-9.783590317
1748429173.779975,1748429173773288.000000000,1748429173773205.000000000,-0.014968170,-0.900190473,-9.790571213
1748429173.787063,1748429173787902.000000000,1748429173787816.000000000,0.015939586,-0.897930920,-9.785173416
1748429173.797036,1748429173797640.000000000,1748429173797557.000000000,0.031514868,-0.897564411,-9.795125008
1748429173.807954,1748429173807379.000000000,1748429173807297.000000000,0.057341296,-0.915210843,-9.772983551
1748429173.816961,1748429173817119.000000000,1748429173817038.000000000,0.069348611,-0.923655808,-9.785874367
1748429173.826998,1748429173827023.000000000,1748429173826778.000000000,0.085703671,-0.927511871,-9.779701233
1748429173.834980,1748429173836601.000000000,1748429173836518.000000000,0.062739179,-0.930911541,-9.765294075
1748429173.846949,1748429173846344.000000000,1748429173846257.000000000,0.059352942,-0.942116022,-9.775196075
1748429173.859974,1748429173856076.000000000,1748429173855996.000000000,0.066188581,-0.907537222,-9.788561821
1748429173.870005,1748429173865819.000000000,1748429173865736.000000000,0.072152212,-0.915471017,-9.777417183
1748429173.879939,1748429173875557.000000000,1748429173875476.000000000,0.054965463,-0.888392925,-9.771370888
1748429173.887038,1748429173885296.000000000,1748429173885215.000000000,0.040712111,-0.879286051,-9.772327423
1748429173.895998,1748429173895034.000000000,1748429173894953.000000000,0.029926771,-0.900216758,-9.783471107
1748429173.909028,1748429173904774.000000000,1748429173904692.000000000,0.032897960,-0.909582973,-9.789951324
1748429173.916970,1748429173914512.000000000,1748429173914432.000000000,0.045457255,-0.914653540,-9.772843361
1748429173.925987,1748429173924251.000000000,1748429173924171.000000000,0.042490058,-0.927415729,-9.777336121
1748429173.939033,1748429173938863.000000000,1748429173938780.000000000,0.033882178,-0.930596530,-9.769178391
1748429173.947984,1748429173948603.000000000,1748429173948520.000000000,0.051478367,-0.932436943,-9.783930779
1748429173.958047,1748429173958344.000000000,1748429173958258.000000000,0.061029684,-0.934736967,-9.773699760
1748429173.967955,1748429173968084.000000000,1748429173967997.000000000,0.055431936,-0.937005937,-9.781189919
1748429173.977981,1748429173977829.000000000,1748429173977736.000000000,0.052159250,-0.919538140,-9.769443512
1748429173.987050,1748429173987558.000000000,1748429173987476.000000000,0.020311158,-0.925732195,-9.777376175
1748429173.997939,1748429173997296.000000000,1748429173997215.000000000,0.009099300,-0.910649657,-9.784783363
1748429174.007033,1748429174007036.000000000,1748429174006953.000000000,0.014230908,-0.906957209,-9.775830269
1748429174.016944,1748429174011904.000000000,1748429174011822.000000000,0.016342862,-0.925170422,-9.781902313
1748429174.026941,1748429174026583.000000000,1748429174026432.000000000,0.053186793,-0.906876862,-9.778635025
1748429174.035033,1748429174036253.000000000,1748429174036172.000000000,0.099109769,-0.915464163,-9.768805504
1748429174.050041,1748429174046053.000000000,1748429174045912.000000000,0.099516965,-0.917910933,-9.782522202
1748429174.060934,1748429174055738.000000000,1748429174055651.000000000,0.093007773,-0.919726551,-9.791098595
1748429174.070024,1748429174065472.000000000,1748429174065390.000000000,0.070561498,-0.902150333,-9.784404755
1748429174.079965,1748429174075210.000000000,1748429174075130.000000000,0.063894838,-0.915181816,-9.769848824
1748429174.089942,1748429174085439.000000000,1748429174085357.000000000,0.027107710,-0.928167403,-9.780547142
1748429174.105013,1748429174100052.000000000,1748429174099967.000000000,0.010445490,-0.925750077,-9.780014038
1748429174.111941,1748429174104918.000000000,1748429174104837.000000000,0.011351221,-0.936599910,-9.781178474
1748429174.117983,1748429174114660.000000000,1748429174114577.000000000,0.008810873,-0.927709401,-9.776610374
1748429174.128965,1748429174124398.000000000,1748429174124317.000000000,0.009575090,-0.922727585,-9.769774437
1748429174.137042,1748429174134260.000000000,1748429174134056.000000000,0.026693923,-0.913293540,-9.774284363
