__time,/fmu/out/vehicle_odometry/angular_velocity[0],/fmu/out/vehicle_odometry/angular_velocity[1],/fmu/out/vehicle_odometry/angular_velocity[2],/fmu/out/vehicle_odometry/orientation_variance[0],/fmu/out/vehicle_odometry/orientation_variance[1],/fmu/out/vehicle_odometry/orientation_variance[2],/fmu/out/vehicle_odometry/pose_frame,/fmu/out/vehicle_odometry/position[0],/fmu/out/vehicle_odometry/position[1],/fmu/out/vehicle_odometry/position[2],/fmu/out/vehicle_odometry/position_variance[0],/fmu/out/vehicle_odometry/position_variance[1],/fmu/out/vehicle_odometry/position_variance[2],/fmu/out/vehicle_odometry/q[0],/fmu/out/vehicle_odometry/q[1],/fmu/out/vehicle_odometry/q[2],/fmu/out/vehicle_odometry/q[3],/fmu/out/vehicle_odometry/quality,/fmu/out/vehicle_odometry/reset_counter,/fmu/out/vehicle_odometry/timestamp,/fmu/out/vehicle_odometry/timestamp_sample,/fmu/out/vehicle_odometry/velocity[0],/fmu/out/vehicle_odometry/velocity[1],/fmu/out/vehicle_odometry/velocity[2],/fmu/out/vehicle_odometry/velocity_frame,/fmu/out/vehicle_odometry/velocity_variance[0],/fmu/out/vehicle_odometry/velocity_variance[1],/fmu/out/vehicle_odometry/velocity_variance[2]
1748429168.721991,0.004432662,-0.006450348,-0.000578460,0.000028476,0.000410537,0.043812446,1.000000000,-892.543945313,-257.664154053,-0.869154632,0.000066337,0.000066349,0.080165498,-0.043254048,-0.005300308,0.046758659,0.997955203,0.000000000,113.000000000,1748429168717784.000000000,1748429168717298.000000000,0.006994911,0.000415952,-0.080593891,1.000000000,0.000685757,0.000686187,0.007743449
1748429168.732031,0.003527572,-0.003786575,0.003415000,0.000028521,0.000410768,0.043812301,1.000000000,-892.543823242,-257.664215088,-0.868918896,0.000069299,0.000069311,0.079783209,-0.043261882,-0.005308097,0.046753362,0.997955143,0.000000000,113.000000000,1748429168727805.000000000,1748429168727301.000000000,0.007642886,0.000756194,-0.080195181,1.000000000,0.000704126,0.000704711,0.007803954
1748429168.742029,0.003258565,-0.000803433,-0.001324908,0.000028602,0.000410740,0.043799438,1.000000000,-892.543701172,-257.664276123,-0.868892133,0.000072801,0.000072816,0.079942182,-0.043232061,-0.005312862,0.046746574,0.997956693,0.000000000,113.000000000,1748429168737920.000000000,1748429168737304.000000000,0.007729106,0.002212500,-0.079922751,1.000000000,0.000726639,0.000726991,0.007878607
1748429168.752988,0.000225194,0.000474554,0.000325615,0.000028671,0.000411029,0.043799225,1.000000000,-892.543579102,-257.664337158,-0.868687212,0.000076083,0.000076100,0.080085434,-0.043202121,-0.005312772,0.046749856,0.997957885,0.000000000,113.000000000,1748429168747746.000000000,1748429168747307.000000000,0.007777731,0.002758190,-0.079753168,1.000000000,0.000745563,0.000745707,0.007943905
1748429168.762953,0.002675287,-0.003147374,-0.015173975,0.000028720,0.000410992,0.043799344,1.000000000,-892.543457031,-257.664398193,-0.868500173,0.000079523,0.000079541,0.080230325,-0.043139432,-0.005307563,0.046754956,0.997960389,0.000000000,113.000000000,1748429168757768.000000000,1748429168757310.000000000,0.008068755,0.002749472,-0.079498865,1.000000000,0.000764848,0.000765175,0.008009489
1748429168.773170,0.000543601,0.003722383,-0.010113967,0.000028784,0.000410931,0.043799479,1.000000000,-892.543334961,-257.664459229,-0.868329048,0.000083125,0.000083145,0.080376871,-0.043072902,-0.005303773,0.046768881,0.997962594,0.000000000,113.000000000,1748429168767805.000000000,1748429168767312.000000000,0.008054506,0.002603878,-0.079141870,1.000000000,0.000784411,0.000784668,0.008075359
1748429168.782004,-0.002438170,-0.006183538,-0.012777456,0.000028821,0.000411054,0.043799449,1.000000000,-892.543212891,-257.664489746,-0.868207455,0.000086896,0.000086917,0.079999231,-0.042978570,-0.005282325,0.046771474,0.997966588,0.000000000,113.000000000,1748429168777791.000000000,1748429168777315.000000000,0.007431419,0.002581975,-0.078731284,1.000000000,0.000803902,0.000803648,0.008136902
1748429168.792031,-0.004408730,-0.000004838,0.001444156,0.000028879,0.000410956,0.043799635,1.000000000,-892.543090820,-257.664520264,-0.868099451,0.000090838,0.000090860,0.080148183,-0.042958245,-0.005290153,0.046767835,0.997967660,0.000000000,113.000000000,1748429168787768.000000000,1748429168787318.000000000,0.006022662,0.002248951,-0.078574426,1.000000000,0.000823030,0.000822444,0.008203352
1748429168.801995,0.005551491,-0.003413675,0.014546891,0.000028942,0.000410818,0.043799840,1.000000000,-892.543090820,-257.664550781,-0.868008196,0.000094955,0.000094977,0.080298834,-0.042977754,-0.005274643,0.046769578,0.997966766,0.000000000,113.000000000,1748429168797771.000000000,1748429168797321.000000000,0.005818999,0.001471497,-0.078656420,1.000000000,0.000842535,0.000841767,0.008270089
1748429168.811990,-0.002437883,0.005960740,0.006663736,0.000029002,0.000410633,0.043800112,1.000000000,-892.543090820,-257.664581299,-0.867933989,0.000099252,0.000099274,0.080451213,-0.043008603,-0.005281551,0.046754260,0.997966111,0.000000000,113.000000000,1748429168807764.000000000,1748429168807324.000000000,0.005673947,0.000768103,-0.078646146,1.000000000,0.000862099,0.000861677,0.008337116
1748429168.822030,0.002195910,0.006653065,0.004054010,0.000029042,0.000411037,0.043787375,1.000000000,-892.543090820,-257.664611816,-0.867874444,0.000103734,0.000103756,0.080605350,-0.043000478,-0.005300467,0.046760119,0.997966170,0.000000000,113.000000000,1748429168818001.000000000,1748429168817327.000000000,0.005695048,0.000722088,-0.078375012,1.000000000,0.000881664,0.000881671,0.008404437
1748429168.827970,-0.001319245,-0.001815833,0.003415475,0.000029096,0.000411003,0.043787491,1.000000000,-892.543029785,-257.664642334,-0.868017554,0.000108405,0.000108428,0.080761261,-0.043020576,-0.005288720,0.046738893,0.997966349,0.000000000,113.000000000,1748429168827870.000000000,1748429168827329.000000000,0.005254863,0.001319812,-0.077910222,1.000000000,0.000901505,0.000901459,0.008472054
1748429168.844990,0.004166726,-0.002774447,0.001976203,0.000029160,0.000411246,0.043787360,1.000000000,-892.543029785,-257.664672852,-0.867972791,0.000113882,0.000113905,0.080407254,-0.043013502,-0.005299889,0.046738543,0.997966588,0.000000000,113.000000000,1748429168837904.000000000,1748429168837332.000000000,0.005184334,0.001695723,-0.077744819,1.000000000,0.000925588,0.000925276,0.008544759
1748429168.853995,-0.003290010,-0.000058648,-0.001699452,0.000029226,0.000411428,0.043787256,1.000000000,-892.543029785,-257.664703369,-0.867943108,0.000118969,0.000118992,0.080565937,-0.043008260,-0.005299131,0.046740972,0.997966707,0.000000000,113.000000000,1748429168847951.000000000,1748429168847335.000000000,0.005931506,0.001596551,-0.077836119,1.000000000,0.000946056,0.000945733,0.008612983
1748429168.864105,0.001982856,-0.000537479,-0.007237785,0.000029277,0.000411439,0.043787327,1.000000000,-892.542968750,-257.664733887,-0.867928684,0.000124261,0.000124284,0.080726452,-0.042949665,-0.005305592,0.046746232,0.997968972,0.000000000,113.000000000,1748429168857835.000000000,1748429168857338.000000000,0.006438428,0.001683509,-0.077745423,1.000000000,0.000966923,0.000966691,0.008681502
1748429168.872008,-0.000838950,0.000100754,-0.011817973,0.000029294,0.000411457,0.043787427,1.000000000,-892.542846680,-257.664764404,-0.867927015,0.000129763,0.000129787,0.080888800,-0.042869881,-0.005312770,0.046737645,0.997972727,0.000000000,113.000000000,1748429168867825.000000000,1748429168867341.000000000,0.006787295,0.001849963,-0.077497557,1.000000000,0.000987970,0.000987604,0.008750309
1748429168.882046,0.003367269,0.001325438,-0.014907901,0.000029327,0.000411649,0.043787312,1.000000000,-892.542724609,-257.664794922,-0.867937922,0.000135480,0.000135503,0.081053019,-0.042773843,-0.005308561,0.046762120,0.997975767,0.000000000,113.000000000,1748429168877921.000000000,1748429168877344.000000000,0.006475974,0.002219613,-0.077451587,1.000000000,0.001008768,0.001008168,0.008819412
1748429168.892067,-0.000733836,-0.001927080,-0.008622612,0.000029026,0.000410506,0.043735966,1.000000000,-892.542602539,-257.664825439,-0.867963314,0.000058578,0.000058582,0.081219107,-0.042718314,-0.005320637,0.046757601,0.997978210,0.000000000,113.000000000,1748429168888058.000000000,1748429168887347.000000000,0.006179227,0.002191063,-0.077605285,1.000000000,0.000639707,0.000639214,0.008888799
1748429168.903956,0.001397357,-0.001234935,-0.003136775,0.000029083,0.000410436,0.043734442,1.000000000,-892.542541504,-257.664855957,-0.867674291,0.000060708,0.000060712,0.079372510,-0.042677768,-0.005305399,0.046772383,0.997979462,0.000000000,113.000000000,1748429168897981.000000000,1748429168897349.000000000,0.006371484,0.001524548,-0.077452891,1.000000000,0.000647067,0.000646806,0.007315275
1748429168.912078,0.002886612,0.001803903,-0.000103737,0.000029118,0.000410516,0.043734461,1.000000000,-892.542419434,-257.664886475,-0.867404163,0.000063375,0.000063378,0.079510435,-0.042632043,-0.005315797,0.046774570,0.997981191,0.000000000,113.000000000,1748429168907847.000000000,1748429168907354.000000000,0.006571975,0.001137018,-0.077029198,1.000000000,0.000665057,0.000665408,0.007374631
1748429168.922048,0.002941428,0.000789527,-0.001646405,0.000029177,0.000410475,0.043734588,1.000000000,-892.542297363,-257.664916992,-0.867339015,0.000066181,0.000066184,0.079649873,-0.042613879,-0.005322093,0.046765972,0.997982323,0.000000000,113.000000000,1748429168917906.000000000,1748429168917355.000000000,0.006518363,0.001179956,-0.076555446,1.000000000,0.000683070,0.000683913,0.007434243
1748429168.934000,0.002889980,0.002653506,-0.003615745,0.000029243,0.000410417,0.043734755,1.000000000,-892.542175293,-257.664947510,-0.867099285,0.000069503,0.000069508,0.079808325,-0.042607795,-0.005314641,0.046759713,0.997982919,0.000000000,113.000000000,1748429168927809.000000000,1748429168927358.000000000,0.006246593,0.001326582,-0.076280721,1.000000000,0.000704911,0.000706176,0.007503167
1748429168.943002,0.002568505,0.002600130,0.006610680,0.000029294,0.000410511,0.043734755,1.000000000,-892.542053223,-257.664978027,-0.866878629,0.000072617,0.000072625,0.079951033,-0.042627625,-0.005324872,0.046772752,0.997981429,0.000000000,113.000000000,1748429168937805.000000000,1748429168937361.000000000,0.006399784,0.001271077,-0.076173268,1.000000000,0.000723266,0.000724696,0.007563325
1748429168.952951,-0.003342775,-0.002512873,0.004266166,0.000029341,0.000410628,0.043734726,1.000000000,-892.541931152,-257.665008545,-0.866714299,0.000075884,0.000075895,0.079575017,-0.042638589,-0.005321153,0.046757046,0.997981727,0.000000000,113.000000000,1748429168947841.000000000,1748429168947365.000000000,0.006732009,0.001620346,-0.076046951,1.000000000,0.000741880,0.000743515,0.007619358
1748429168.962054,-0.003450305,-0.003525453,-0.004256398,0.000029389,0.000410891,0.043734547,1.000000000,-892.541870117,-257.665039063,-0.866565287,0.000079307,0.000079323,0.079719938,-0.042617593,-0.005315074,0.046752505,0.997982800,0.000000000,113.000000000,1748429168957857.000000000,1748429168957366.000000000,0.007244668,0.002208044,-0.075578429,1.000000000,0.000760671,0.000762295,0.007680027
1748429168.972105,0.002941072,0.000682595,-0.003509336,0.000029420,0.000410859,0.043723565,1.000000000,-892.541809082,-257.665069580,-0.866428792,0.000082892,0.000082912,0.079866447,-0.042589746,-0.005325687,0.046764005,0.997983456,0.000000000,113.000000000,1748429168967978.000000000,1748429168967369.000000000,0.007146833,0.002862618,-0.074964903,1.000000000,0.000779583,0.000780848,0.007740948
1748429168.982052,0.004326193,-0.002832178,0.002189138,0.000029480,0.000410844,0.043723669,1.000000000,-892.541748047,-257.665069580,-0.866306305,0.000086642,0.000086666,0.080014564,-0.042558212,-0.005330525,0.046768524,0.997984529,0.000000000,113.000000000,1748429168977820.000000000,1748429168977372.000000000,0.006791293,0.003345960,-0.074877217,1.000000000,0.000798739,0.000799192,0.007802123
1748429168.993026,-0.000095206,0.000629965,-0.002124361,0.000029512,0.000410903,0.043723725,1.000000000,-892.541625977,-257.665039063,-0.866200447,0.000090563,0.000090589,0.080164321,-0.042528033,-0.005322562,0.046785839,0.997985065,0.000000000,113.000000000,1748429168987819.000000000,1748429168987375.000000000,0.006694045,0.003163715,-0.074755147,1.000000000,0.000818209,0.000818357,0.007863563
1748429169.003048,0.004326183,-0.003578341,-0.003669082,0.000029568,0.000410699,0.043724019,1.000000000,-892.541503906,-257.665039063,-0.866133094,0.000094659,0.000094686,0.079792581,-0.042494856,-0.005329742,0.046787303,0.997986376,0.000000000,113.000000000,1748429168997905.000000000,1748429168997378.000000000,0.006654362,0.002704954,-0.074694194,1.000000000,0.000837866,0.000837699,0.007920434
1748429169.014198,0.002728916,0.005955453,-0.001378563,0.000029640,0.000410850,0.043723937,1.000000000,-892.541381836,-257.665039063,-0.866078973,0.000098934,0.000098962,0.079944655,-0.042461235,-0.005339210,0.046796773,0.997987270,0.000000000,113.000000000,1748429169007870.000000000,1748429169007380.000000000,0.006622052,0.002274342,-0.074251585,1.000000000,0.000857442,0.000857254,0.007982374
1748429169.024022,0.000649535,0.005310466,0.004104055,0.000029685,0.000410547,0.043724358,1.000000000,-892.541320801,-257.665008545,-0.866218567,0.000103954,0.000103983,0.080117486,-0.042462584,-0.005349460,0.046786871,0.997987628,0.000000000,113.000000000,1748429169017826.000000000,1748429169017383.000000000,0.006047668,0.001982407,-0.074490339,1.000000000,0.000881051,0.000880859,0.008053917
1748429169.034067,-0.003130673,0.001747098,0.007196557,0.000029748,0.000410593,0.043724407,1.000000000,-892.541320801,-257.665008545,-0.866193295,0.000108624,0.000108654,0.080273151,-0.042473018,-0.005357446,0.046782289,0.997987330,0.000000000,113.000000000,1748429169027824.000000000,1748429169027386.000000000,0.006116338,0.001718375,-0.074615292,1.000000000,0.000900827,0.000900712,0.008116402
1748429169.043024,-0.002225173,0.000363135,0.002615979,0.000029797,0.000410675,0.043724429,1.000000000,-892.541259766,-257.665008545,-0.866183758,0.000113487,0.000113517,0.080430530,-0.042486869,-0.005371474,0.046771459,0.997987211,0.000000000,113.000000000,1748429169037839.000000000,1748429169037389.000000000,0.006280610,0.001150072,-0.074746527,1.000000000,0.000920933,0.000921120,0.008179144
1748429169.053204,-0.001852256,-0.003045615,-0.000526428,0.000029858,0.000410715,0.043713983,1.000000000,-892.541137695,-257.665008545,-0.866190255,0.000118548,0.000118581,0.080589652,-0.042473804,-0.005363540,0.046771850,0.997987807,0.000000000,113.000000000,1748429169048013.000000000,1748429169047392.000000000,0.006848579,0.001089420,-0.074725524,1.000000000,0.000941119,0.000941596,0.008242146
1748429169.062942,-0.002438154,-0.007253408,-0.005053796,0.000029921,0.000410619,0.043714151,1.000000000,-892.541015625,-257.665008545,-0.866221368,0.000123812,0.000123847,0.080221698,-0.042449597,-0.005358326,0.046769135,0.997988939,0.000000000,113.000000000,1748429169057883.000000000,1748429169057395.000000000,0.007330930,0.001604989,-0.074281201,1.000000000,0.000961441,0.000962155,0.008299950
1748429169.072043,-0.004781720,0.004038396,-0.004840743,0.000029970,0.000411058,0.043713804,1.000000000,-892.540893555,-257.665008545,-0.866262555,0.000129283,0.000129322,0.080383256,-0.042412985,-0.005376306,0.046772711,0.997990251,0.000000000,113.000000000,1748429169067861.000000000,1748429169067398.000000000,0.007313593,0.002284292,-0.074032381,1.000000000,0.000981876,0.000982510,0.008363447
1748429169.083011,-0.001053790,0.003611954,-0.003185298,0.000030026,0.000411030,0.043713901,1.000000000,-892.540771484,-257.665008545,-0.866316020,0.000134966,0.000135008,0.080546603,-0.042364046,-0.005377844,0.046773348,0.997992396,0.000000000,113.000000000,1748429169077926.000000000,1748429169077400.000000000,0.007258564,0.002621857,-0.074145138,1.000000000,0.001002582,0.001003075,0.008427201
1748429169.092026,-0.002650459,-0.002571266,-0.001641832,0.000029672,0.000410318,0.043674260,1.000000000,-892.540710449,-257.665039063,-0.866384506,0.000058483,0.000058491,0.080711752,-0.042339049,-0.005372561,0.046774618,0.997993410,0.000000000,113.000000000,1748429169087917.000000000,1748429169087403.000000000,0.007100572,0.002459300,-0.074348420,1.000000000,0.000637128,0.000637262,0.008491214
1748429169.105033,0.001184769,0.005205534,0.000650151,0.000029721,0.000410365,0.043672971,1.000000000,-892.540649414,-257.665069580,-0.866082430,0.000060608,0.000060617,0.079388261,-0.042298127,-0.005384291,0.046783410,0.997994602,0.000000000,113.000000000,1748429169097967.000000000,1748429169097406.000000000,0.006763767,0.002565619,-0.073832855,1.000000000,0.000644503,0.000644629,0.007048013
1748429169.114057,-0.007337820,0.000198765,0.005602876,0.000029789,0.000410280,0.043673173,1.000000000,-892.540588379,-257.665069580,-0.866011202,0.000063602,0.000063611,0.079031371,-0.042288385,-0.005377893,0.046772696,0.997995615,0.000000000,113.000000000,1748429169107896.000000000,1748429169107410.000000000,0.006451814,0.002737790,-0.073278442,1.000000000,0.000666248,0.000666361,0.007107686
1748429169.124056,0.000598578,0.003128274,0.006721743,0.000029832,0.000410129,0.043663334,1.000000000,-892.540527344,-257.665100098,-0.865775645,0.000066414,0.000066424,0.079171181,-0.042294696,-0.005386780,0.046782684,0.997994721,0.000000000,113.000000000,1748429169118024.000000000,1748429169117412.000000000,0.006205782,0.002560487,-0.072745822,1.000000000,0.000684268,0.000684328,0.007163207
1748429169.133022,-0.002810267,-0.006299323,0.006135854,0.000029892,0.000410395,0.043663144,1.000000000,-892.540527344,-257.665100098,-0.865557909,0.000069371,0.000069382,0.079312474,-0.042300943,-0.005378225,0.046771448,0.997995138,0.000000000,113.000000000,1748429169127856.000000000,1748429169127415.000000000,0.006362590,0.001812829,-0.072649114,1.000000000,0.000702504,0.000702614,0.007218956
1748429169.143932,-0.003610218,0.001370684,0.004165985,0.000029939,0.000410181,0.043663464,1.000000000,-892.540466309,-257.665100098,-0.865358293,0.000072475,0.000072487,0.079455271,-0.042324699,-0.005385923,0.046767555,0.997994244,0.000000000,113.000000000,1748429169137874.000000000,1748429169137417.000000000,0.006923531,0.000950535,-0.072395265,1.000000000,0.000720796,0.000721133,0.007274937
1748429169.152055,-0.006325362,-0.001720036,-0.002066832,0.000029984,0.000410147,0.043663599,1.000000000,-892.540405273,-257.665100098,-0.865175903,0.000075731,0.000075743,0.079599544,-0.042320583,-0.005387919,0.046753693,0.997995079,0.000000000,113.000000000,1748429169147862.000000000,1748429169147420.000000000,0.007202714,0.000897441,-0.072061196,1.000000000,0.000739178,0.000739880,0.007331129
1748429169.162961,0.002408419,0.003128132,-0.003132553,0.000030047,0.000410388,0.043663457,1.000000000,-892.540344238,-257.665100098,-0.864979982,0.000079142,0.000079157,0.079229593,-0.042298865,-0.005395378,0.046759240,0.997995675,0.000000000,113.000000000,1748429169157908.000000000,1748429169157423.000000000,0.007456618,0.001187362,-0.071568571,1.000000000,0.000757727,0.000758489,0.007383085
1748429169.172029,-0.002330884,-0.001825222,-0.001747115,0.000030105,0.000410511,0.043663438,1.000000000,-892.540283203,-257.665100098,-0.864800572,0.000082714,0.000082732,0.079376027,-0.042282306,-0.005402058,0.046746984,0.997996926,0.000000000,113.000000000,1748429169167882.000000000,1748429169167426.000000000,0.007717997,0.001495600,-0.071329989,1.000000000,0.000776506,0.000777158,0.007439745
1748429169.184992,0.001610601,0.001636887,-0.004623318,0.000030147,0.000410833,0.043663226,1.000000000,-892.540222168,-257.665100098,-0.864639103,0.000086450,0.000086471,0.079524010,-0.042246372,-0.005400076,0.046759002,0.997997820,0.000000000,113.000000000,1748429169177946.000000000,1748429169177453.000000000,0.008021199,0.001470049,-0.071228825,1.000000000,0.000795502,0.000796099,0.007496629
1748429169.192976,-0.005260326,-0.001186245,-0.008990793,0.000030207,0.000410905,0.043663256,1.000000000,-892.540161133,-257.665100098,-0.864494979,0.000090356,0.000090379,0.079673573,-0.042212348,-0.005385232,0.046754394,0.997999668,0.000000000,113.000000000,1748429169187961.000000000,1748429169187455.000000000,0.008295117,0.001806204,-0.071044825,1.000000000,0.000814700,0.000815222,0.007553745
1748429169.202943,0.002463465,-0.004435070,-0.009044144,0.000030270,0.000411025,0.043653443,1.000000000,-892.540100098,-257.665100098,-0.864366174,0.000094434,0.000094460,0.079824701,-0.042172424,-0.005374947,0.046761014,0.998001099,0.000000000,113.000000000,1748429169198134.000000000,1748429169197458.000000000,0.008284422,0.002192755,-0.070604920,1.000000000,0.000834033,0.000834472,0.007611078
1748429169.214077,0.005020333,0.001264493,0.004804974,0.000030342,0.000410924,0.043653663,1.000000000,-892.540039063,-257.665069580,-0.864482641,0.000099228,0.000099256,0.079477370,-0.042175602,-0.005365506,0.046765871,0.998000741,0.000000000,113.000000000,1748429169207973.000000000,1748429169207461.000000000,0.008155423,0.002897916,-0.070404775,1.000000000,0.000857617,0.000857751,0.007672494
1748429169.223041,0.001290980,0.000731422,0.005496650,0.000030402,0.000410901,0.043653764,1.000000000,-892.539978027,-257.665069580,-0.864440799,0.000103691,0.000103721,0.079630956,-0.042182714,-0.005365692,0.046761144,0.998000622,0.000000000,113.000000000,1748429169218026.000000000,1748429169217464.000000000,0.008246623,0.002814250,-0.070358947,1.000000000,0.000877326,0.000877414,0.007730318
1748429169.233106,0.002568827,-0.000280731,0.002034372,0.000030468,0.000410779,0.043653972,1.000000000,-892.539916992,-257.665069580,-0.864415228,0.000108341,0.000108372,0.079786129,-0.042190526,-0.005365937,0.046763338,0.998000264,0.000000000,113.000000000,1748429169227946.000000000,1748429169227467.000000000,0.008514023,0.002430071,-0.070521213,1.000000000,0.000897284,0.000897268,0.007788349
1748429169.242943,-0.003982087,-0.000333868,0.007573921,0.000030510,0.000410825,0.043654032,1.000000000,-892.539855957,-257.665069580,-0.864405632,0.000113185,0.000113217,0.079942979,-0.042208005,-0.005367185,0.046754189,0.997999907,0.000000000,113.000000000,1748429169237958.000000000,1748429169237470.000000000,0.008589130,0.001993799,-0.070597723,1.000000000,0.000917258,0.000917481,0.007846623
1748429169.252030,-0.002330932,0.007229507,0.004431384,0.000030556,0.000410824,0.043654140,1.000000000,-892.539794922,-257.665069580,-0.864411294,0.000118226,0.000118260,0.080101490,-0.042232711,-0.005393133,0.046742283,0.997999251,0.000000000,113.000000000,1748429169247961.000000000,1748429169247473.000000000,0.008666662,0.001812337,-0.070594840,1.000000000,0.000937189,0.000937808,0.007905121
1748429169.262028,0.004113929,-0.000014279,0.005709709,0.000030629,0.000410942,0.043654099,1.000000000,-892.539733887,-257.665069580,-0.864430249,0.000123468,0.000123505,0.080261685,-0.042248789,-0.005384035,0.046742890,0.997998595,0.000000000,113.000000000,1748429169257982.000000000,1748429169257476.000000000,0.008770592,0.001881773,-0.070465423,1.000000000,0.000957273,0.000958034,0.007963848
1748429169.272943,0.000172305,-0.000226717,-0.002172168,0.000030685,0.000410917,0.043644942,1.000000000,-892.539672852,-257.665069580,-0.864542425,0.000128916,0.000128957,0.079899035,-0.042236935,-0.005391049,0.046732191,0.997999609,0.000000000,113.000000000,1748429169268199.000000000,1748429169267478.000000000,0.008938021,0.001710908,-0.070612177,1.000000000,0.000977626,0.000978421,0.008017291
1748429169.282115,-0.002916571,0.004085228,0.000172732,0.000030718,0.000410959,0.043644980,1.000000000,-892.539611816,-257.665069580,-0.864666939,0.000134574,0.000134619,0.080061585,-0.042215213,-0.005397737,0.046733197,0.998000443,0.000000000,113.000000000,1748429169278092.000000000,1748429169277481.000000000,0.008956604,0.001614616,-0.070737116,1.000000000,0.000998233,0.000998949,0.008076464
1748429169.292994,0.000172987,0.005199852,-0.012184482,0.000030348,0.000410255,0.043611720,1.000000000,-892.539611816,-257.665100098,-0.864802003,0.000058411,0.000058420,0.080225870,-0.042168278,-0.005407707,0.046736870,0.998002112,0.000000000,113.000000000,1748429169288033.000000000,1748429169287484.000000000,0.008580685,0.001591550,-0.070715331,1.000000000,0.000635190,0.000635404,0.008135867
1748429169.302978,0.000066542,0.001364787,-0.003555833,0.000030386,0.000410111,0.043611310,1.000000000,-892.539611816,-257.665100098,-0.864740491,0.000060850,0.000060860,0.078924753,-0.042125389,-0.005418842,0.046728205,0.998004317,0.000000000,113.000000000,1748429169298035.000000000,1748429169297487.000000000,0.008159032,0.002150475,-0.070212908,1.000000000,0.000646177,0.000646312,0.006808102
1748429169.314194,-0.003715145,0.002376802,-0.007390782,0.000030446,0.000410325,0.043611187,1.000000000,-892.539611816,-257.665100098,-0.864522517,0.000063516,0.000063526,0.079064146,-0.042084359,-0.005434200,0.046734955,0.998005629,0.000000000,113.000000000,1748429169307940.000000000,1748429169307490.000000000,0.008103190,0.002699590,-0.069788262,1.000000000,0.000664013,0.000664063,0.006859825
1748429169.323934,-0.001478097,0.002483315,-0.000573090,0.000030488,0.000410178,0.043611441,1.000000000,-892.539611816,-257.665100098,-0.864320934,0.000066320,0.000066331,0.079204984,-0.042069186,-0.005435423,0.046727467,0.998006642,0.000000000,113.000000000,1748429169317938.000000000,1748429169317493.000000000,0.008191541,0.002596418,-0.069454797,1.000000000,0.000682115,0.000682116,0.006911764
1748429169.333002,0.004860597,-0.000977908,0.003208763,0.000030547,0.000410163,0.043611538,1.000000000,-892.539611816,-257.665100098,-0.864169240,0.000069268,0.000069280,0.078836605,-0.042050768,-0.005442990,0.046734877,0.998006999,0.000000000,113.000000000,1748429169328021.000000000,1748429169327495.000000000,0.008421555,0.002434744,-0.069316134,1.000000000,0.000700442,0.000700461,0.006959648
1748429169.342040,0.004488395,-0.001458268,0.000332448,0.000030601,0.000409982,0.043611810,1.000000000,-892.539611816,-257.665100098,-0.864033759,0.000072364,0.000072376,0.078979410,-0.042057958,-0.005443111,0.046731357,0.998006880,0.000000000,113.000000000,1748429169337946.000000000,1748429169337498.000000000,0.008807022,0.002309554,-0.068972185,1.000000000,0.000718746,0.000718867,0.007011991
1748429169.352937,-0.002650290,-0.000339823,0.000866385,0.000030662,0.000410045,0.043602839,1.000000000,-892.539611816,-257.665100098,-0.863912463,0.000075610,0.000075624,0.079123676,-0.042063210,-0.005446342,0.046724498,0.998006999,0.000000000,113.000000000,1748429169348118.000000000,1748429169347501.000000000,0.009248246,0.001912793,-0.068624929,1.000000000,0.000737091,0.000737410,0.007064534
1748429169.362028,-0.005739679,0.001417866,-0.000999239,0.000030723,0.000409894,0.043603081,1.000000000,-892.539611816,-257.665100098,-0.863805294,0.000079013,0.000079027,0.079269424,-0.042054377,-0.005460493,0.046723120,0.998007357,0.000000000,113.000000000,1748429169357961.000000000,1748429169357504.000000000,0.009656722,0.001672492,-0.068296395,1.000000000,0.000755615,0.000756133,0.007117286
1748429169.372043,0.004007984,0.001044998,-0.012077938,0.000030773,0.000410132,0.043602947,1.000000000,-892.539611816,-257.665100098,-0.863713264,0.000082575,0.000082591,0.079416670,-0.042017907,-0.005447308,0.046737045,0.998008251,0.000000000,113.000000000,1748429169367946.000000000,1748429169367507.000000000,0.009681476,0.001190602,-0.068340078,1.000000000,0.000774376,0.000775047,0.007170246
1748429169.382109,-0.002756454,0.006637627,-0.008615832,0.000030809,0.000410090,0.043603104,1.000000000,-892.539550781,-257.665100098,-0.863738000,0.000086300,0.000086319,0.079051942,-0.041991733,-0.005461399,0.046736255,0.998009324,0.000000000,113.000000000,1748429169378039.000000000,1748429169377510.000000000,0.009960261,0.001114318,-0.068383537,1.000000000,0.000793201,0.000794099,0.007218743
1748429169.394040,0.005713088,-0.002310929,-0.004034827,0.000030850,0.000410236,0.043603066,1.000000000,-892.539489746,-257.665100098,-0.863943934,0.000090194,0.000090216,0.079201236,-0.041951239,-0.005450028,0.046743810,0.998010695,0.000000000,113.000000000,1748429169387948.000000000,1748429169387512.000000000,0.009856217,0.001242552,-0.068555839,1.000000000,0.000812167,0.000813138,0.007272097
1748429169.404115,-0.004513212,-0.002683877,-0.007018444,0.000030900,0.000410365,0.043603066,1.000000000,-892.539428711,-257.665100098,-0.863991261,0.000094774,0.000094799,0.079370767,-0.041916449,-0.005434352,0.046723068,0.998013318,0.000000000,113.000000000,1748429169397963.000000000,1748429169397515.000000000,0.009295027,0.001465382,-0.068125516,1.000000000,0.000835307,0.000836299,0.007333930
1748429169.413039,0.005020855,0.010260292,0.001504276,0.000030951,0.000410333,0.043603193,1.000000000,-892.539367676,-257.665100098,-0.864048123,0.000099039,0.000099068,0.079523340,-0.041892327,-0.005454062,0.046738554,0.998013496,0.000000000,113.000000000,1748429169407964.000000000,1748429169407518.000000000,0.009252865,0.001759412,-0.067914531,1.000000000,0.000854702,0.000855739,0.007387719
1748429169.423073,0.004008151,0.004666726,0.000437956,0.000031003,0.000410341,0.043594915,1.000000000,-892.539306641,-257.665100098,-0.864116073,0.000103487,0.000103520,0.079677477,-0.041861713,-0.005455578,0.046737459,0.998014808,0.000000000,113.000000000,1748429169418145.000000000,1748429169417521.000000000,0.009084254,0.001805655,-0.067874528,1.000000000,0.000874302,0.000875448,0.007441712
1748429169.433091,-0.002490157,0.000778648,0.001930262,0.000031055,0.000410238,0.043595113,1.000000000,-892.539245605,-257.665100098,-0.864262342,0.000108123,0.000108160,0.079316296,-0.041847356,-0.005449177,0.046724103,0.998016000,0.000000000,113.000000000,1748429169428002.000000000,1748429169427524.000000000,0.008868384,0.001826846,-0.068003215,1.000000000,0.000894095,0.000895200,0.007490812
1748429169.443966,-0.001211833,-0.000552944,0.002196583,0.000031135,0.000410107,0.043595321,1.000000000,-892.539184570,-257.665100098,-0.864419281,0.000112950,0.000112992,0.079472594,-0.041842002,-0.005441740,0.046723071,0.998016417,0.000000000,113.000000000,1748429169437971.000000000,1748429169437527.000000000,0.008725852,0.001861884,-0.067982495,1.000000000,0.000913998,0.000915100,0.007545206
1748429169.453942,0.002570473,0.005413264,0.002568234,0.000031175,0.000410158,0.043595392,1.000000000,-892.539123535,-257.665100098,-0.864583611,0.000117974,0.000118020,0.079630487,-0.041836321,-0.005465810,0.046720296,0.998016596,0.000000000,113.000000000,1748429169447975.000000000,1748429169447529.000000000,0.008864131,0.001758652,-0.067739256,1.000000000,0.000933991,0.000935168,0.007599800
1748429169.463003,0.007257313,-0.002364525,0.006032495,0.000031235,0.000410033,0.043595601,1.000000000,-892.539062500,-257.665100098,-0.864754856,0.000123198,0.000123249,0.079790004,-0.041834299,-0.005445693,0.046729375,0.998016417,0.000000000,113.000000000,1748429169458046.000000000,1748429169457532.000000000,0.009128678,0.001906521,-0.067532390,1.000000000,0.000954220,0.000955451,0.007654598
1748429169.472989,-0.000679107,0.005732654,-0.003928259,0.000031295,0.000410098,0.043595612,1.000000000,-892.539001465,-257.665100098,-0.864934504,0.000128629,0.000128685,0.079951160,-0.041789938,-0.005449068,0.046727460,0.998018324,0.000000000,113.000000000,1748429169468029.000000000,1748429169467535.000000000,0.009426396,0.001392999,-0.067654915,1.000000000,0.000974593,0.000975796,0.007709604
1748429169.482052,-0.000465732,-0.000660542,-0.006114715,0.000031348,0.000410220,0.043595560,1.000000000,-892.539001465,-257.665100098,-0.865123570,0.000134269,0.000134330,0.080113977,-0.041767929,-0.005452538,0.046735466,0.998018861,0.000000000,113.000000000,1748429169478101.000000000,1748429169477538.000000000,0.009505585,0.001042814,-0.067635000,1.000000000,0.000995064,0.000996071,0.007764815
1748429169.495035,-0.000890874,0.007643713,-0.006540353,0.000030941,0.000409238,0.043562002,1.000000000,-892.539001465,-257.665100098,-0.865506351,0.000058482,0.000058494,0.079775922,-0.041729260,-0.005470388,0.046730317,0.998020530,0.000000000,113.000000000,1748429169493098.000000000,1748429169487541.000000000,0.009359051,0.001167187,-0.067608617,1.000000000,0.000635801,0.000636193,0.007823032
1748429169.504013,-0.006111449,0.007270089,0.001715010,0.000030993,0.000409307,0.043552976,1.000000000,-892.539001465,-257.665100098,-0.865328312,0.000060601,0.000060614,0.078460947,-0.041704789,-0.005485089,0.046712290,0.998022318,0.000000000,113.000000000,1748429169498270.000000000,1748429169497543.000000000,0.009101709,0.001311086,-0.067135245,1.000000000,0.000642938,0.000643382,0.006582194
1748429169.515009,0.004222632,0.000719850,-0.004144913,0.000031048,0.000409228,0.043553166,1.000000000,-892.539001465,-257.665100098,-0.865164816,0.000063249,0.000063264,0.078600466,-0.041675001,-0.005476651,0.046730381,0.998022854,0.000000000,113.000000000,1748429169507994.000000000,1748429169507546.000000000,0.008795821,0.001678951,-0.066721588,1.000000000,0.000660714,0.000661206,0.006630818
1748429169.525009,0.001346263,-0.001357920,-0.003131467,0.000031109,0.000409396,0.043553088,1.000000000,-892.539001465,-257.665100098,-0.865017533,0.000066035,0.000066051,0.078741357,-0.041641742,-0.005472672,0.046730544,0.998024225,0.000000000,113.000000000,1748429169518002.000000000,1748429169517550.000000000,0.008632245,0.001966506,-0.066625997,1.000000000,0.000678655,0.000679249,0.006679624
1748429169.534982,0.005074452,0.001038292,-0.000202244,0.000031161,0.000409382,0.043553196,1.000000000,-892.539001465,-257.665100098,-0.864886820,0.000068963,0.000068981,0.078883633,-0.041634936,-0.005475483,0.046751417,0.998023510,0.000000000,113.000000000,1748429169528003.000000000,1748429169527552.000000000,0.008574275,0.002241458,-0.066367209,1.000000000,0.000696729,0.000697511,0.006728610
1748429169.544005,-0.000837234,-0.001518396,-0.000414012,0.000031216,0.000409315,0.043553360,1.000000000,-892.539001465,-257.665100098,-0.864828646,0.000072037,0.000072058,0.078520767,-0.041631524,-0.005474421,0.046744753,0.998023987,0.000000000,113.000000000,1748429169538036.000000000,1748429169537555.000000000,0.008814408,0.002381773,-0.065962829,1.000000000,0.000714999,0.000715971,0.006773443
1748429169.552031,0.007259774,-0.004499583,-0.000413049,0.000031285,0.000409344,0.043553401,1.000000000,-892.539001465,-257.665100098,-0.864782393,0.000075262,0.000075286,0.078664951,-0.041626483,-0.005464850,0.046763740,0.998023391,0.000000000,113.000000000,1748429169548001.000000000,1748429169547558.000000000,0.009055504,0.002459552,-0.065647826,1.000000000,0.000733404,0.000734583,0.006822796
1748429169.562048,-0.001955656,0.004128411,-0.002758193,0.000031323,0.000409603,0.043553241,1.000000000,-892.539001465,-257.665100098,-0.864748836,0.000078642,0.000078669,0.078810573,-0.041625984,-0.005487893,0.046738479,0.998024464,0.000000000,113.000000000,1748429169558021.000000000,1748429169557560.000000000,0.009504603,0.002110696,-0.065457463,1.000000000,0.000752043,0.000753153,0.006872333
1748429169.574034,-0.000037328,-0.004233075,-0.003984103,0.000031393,0.000409576,0.043545742,1.000000000,-892.539001465,-257.665100098,-0.864729047,0.000082180,0.000082211,0.078957647,-0.041577905,-0.005473383,0.046752166,0.998025894,0.000000000,113.000000000,1748429169568226.000000000,1748429169567563.000000000,0.009820507,0.001687200,-0.065456986,1.000000000,0.000770740,0.000772025,0.006922058
1748429169.583962,-0.000677049,-0.001889154,-0.004622834,0.000031443,0.000409743,0.043545689,1.000000000,-892.539001465,-257.665100098,-0.864721358,0.000086349,0.000086384,0.079124570,-0.041547045,-0.005478808,0.046743091,0.998027563,0.000000000,113.000000000,1748429169578062.000000000,1748429169577566.000000000,0.009564405,0.001422880,-0.065388188,1.000000000,0.000793535,0.000794787,0.006979778
1748429169.593995,-0.002701758,0.000932453,-0.006220760,0.000031480,0.000409437,0.043546110,1.000000000,-892.539001465,-257.665100098,-0.864725351,0.000090239,0.000090279,0.079274751,-0.041504707,-0.005466923,0.046736021,0.998029709,0.000000000,113.000000000,1748429169588113.000000000,1748429169587569.000000000,0.009495898,0.001404978,-0.064889014,1.000000000,0.000812465,0.000813440,0.007029892
1748429169.604004,0.002731794,0.002212142,-0.004888034,0.000031555,0.000409747,0.043545868,1.000000000,-892.539001465,-257.665100098,-0.864931762,0.000094301,0.000094345,0.078914747,-0.041467249,-0.005466413,0.046752334,0.998030484,0.000000000,113.000000000,1748429169598213.000000000,1748429169597572.000000000,0.009628047,0.001502920,-0.064856261,1.000000000,0.000831547,0.000832564,0.007075352
1748429169.613105,0.004488782,0.001518350,-0.007072980,0.000031610,0.000409773,0.043545935,1.000000000,-892.539001465,-257.665100098,-0.864991844,0.000098541,0.000098590,0.079066947,-0.041413784,-0.005475022,0.046752751,0.998032629,0.000000000,113.000000000,1748429169608059.000000000,1748429169607575.000000000,0.009701854,0.001586475,-0.064834960,1.000000000,0.000850852,0.000851782,0.007125833
1748429169.624014,0.004115667,0.000400668,0.000117552,0.000031656,0.000409594,0.043546211,1.000000000,-892.539001465,-257.665100098,-0.865063787,0.000102963,0.000103015,0.079220645,-0.041397355,-0.005477369,0.046764467,0.998032808,0.000000000,113.000000000,1748429169618072.000000000,1748429169617577.000000000,0.009511421,0.001731717,-0.064720459,1.000000000,0.000870325,0.000871134,0.007176492
1748429169.634053,-0.003447467,0.009507821,-0.009682883,0.000031700,0.000409617,0.043546285,1.000000000,-892.539001465,-257.665100098,-0.865145922,0.000107570,0.000107627,0.079375863,-0.041377421,-0.005497181,0.046743743,0.998034477,0.000000000,113.000000000,1748429169628080.000000000,1748429169627581.000000000,0.009230097,0.002159741,-0.064538985,1.000000000,0.000889939,0.000890671,0.007227331
1748429169.644043,-0.001051408,-0.000771049,0.002622142,0.000031780,0.000409632,0.043546356,1.000000000,-892.539001465,-257.665100098,-0.865239203,0.000112367,0.000112428,0.079532616,-0.041372437,-0.005492167,0.046757389,0.998034060,0.000000000,113.000000000,1748429169638083.000000000,1748429169637583.000000000,0.009145997,0.002702085,-0.064509585,1.000000000,0.000909721,0.000910497,0.007278352
1748429169.652954,0.001879649,-0.003168863,-0.004518196,0.000031809,0.000409748,0.043539029,1.000000000,-892.539001465,-257.665100098,-0.865352452,0.000117360,0.000117426,0.079175882,-0.041361280,-0.005471777,0.046745274,0.998035192,0.000000000,113.000000000,1748429169648271.000000000,1748429169647586.000000000,0.009348019,0.002754443,-0.064353585,1.000000000,0.000929597,0.000930565,0.007324296
1748429169.663021,-0.000837472,-0.003221533,-0.005580797,0.000031868,0.000409760,0.043539103,1.000000000,-892.539001465,-257.665100098,-0.865476310,0.000122553,0.000122624,0.079334751,-0.041349150,-0.005463254,0.046747569,0.998035610,0.000000000,113.000000000,1748429169658066.000000000,1748429169657589.000000000,0.009455253,0.002466468,-0.064475916,1.000000000,0.000949824,0.000950840,0.007375685
1748429169.672034,-0.000944021,0.002157592,-0.000468239,0.000031924,0.000409936,0.043539044,1.000000000,-892.539001465,-257.665100098,-0.865611732,0.000127951,0.000128028,0.079495192,-0.041331183,-0.005470587,0.046747304,0.998036385,0.000000000,113.000000000,1748429169668081.000000000,1748429169667592.000000000,0.009266012,0.002281006,-0.064460307,1.000000000,0.000970174,0.000971127,0.007427256
1748429169.683929,0.002198568,-0.000613209,-0.001584198,0.000031996,0.000409910,0.043539152,1.000000000,-892.538940430,-257.665100098,-0.865754843,0.000134403,0.000134486,0.079681337,-0.041313335,-0.005476340,0.046765339,0.998036206,0.000000000,113.000000000,1748429169678175.000000000,1748429169677595.000000000,0.009149680,0.002032618,-0.064377360,1.000000000,0.000995580,0.000996500,0.007488718
1748429169.693986,-0.004565581,-0.001098030,-0.005525159,0.000031531,0.000408603,0.043502264,1.000000000,-892.538940430,-257.665130615,-0.866064489,0.000058378,0.000058393,0.079845205,-0.041293249,-0.005494472,0.046748094,0.998037815,0.000000000,113.000000000,1748429169688096.000000000,1748429169687598.000000000,0.009119563,0.001729203,-0.064296953,1.000000000,0.000635006,0.000635283,0.007540682
1748429169.705007,-0.002438362,-0.000620077,-0.002698914,0.000031554,0.000408897,0.043501019,1.000000000,-892.538940430,-257.665161133,-0.865872085,0.000060493,0.000060509,0.078018144,-0.041268684,-0.005479305,0.046753217,0.998038650,0.000000000,113.000000000,1748429169698159.000000000,1748429169697600.000000000,0.009150673,0.001403593,-0.064067259,1.000000000,0.000642137,0.000642368,0.006377426
1748429169.713944,0.005606984,0.000019785,-0.006537182,0.000031603,0.000408937,0.043501075,1.000000000,-892.538940430,-257.665161133,-0.865697443,0.000063135,0.000063152,0.078157745,-0.041237626,-0.005475365,0.046756510,0.998039722,0.000000000,113.000000000,1748429169708050.000000000,1748429169707603.000000000,0.008772864,0.000931456,-0.063877985,1.000000000,0.000659838,0.000660062,0.006423323
1748429169.723978,0.002677794,0.000393712,0.000387675,0.000031658,0.000409320,0.043500781,1.000000000,-892.538940430,-257.665161133,-0.865540922,0.000065914,0.000065933,0.078298680,-0.041220762,-0.005473598,0.046754695,0.998040497,0.000000000,113.000000000,1748429169718102.000000000,1748429169717606.000000000,0.008283771,0.001013146,-0.063875467,1.000000000,0.000677682,0.000677928,0.006469382
1748429169.732961,-0.000197973,-0.004187508,-0.007336170,0.000031711,0.000409190,0.043493871,1.000000000,-892.538940430,-257.665161133,-0.865400732,0.000068834,0.000068855,0.078440964,-0.041204963,-0.005462044,0.046750486,0.998041511,0.000000000,113.000000000,1748429169728235.000000000,1748429169727609.000000000,0.008176746,0.001216425,-0.063348725,1.000000000,0.000695674,0.000696046,0.006515609
1748429169.742105,-0.001476292,0.001671444,-0.002702271,0.000031752,0.000409534,0.043493632,1.000000000,-892.538940430,-257.665161133,-0.865274727,0.000071901,0.000071924,0.078584626,-0.041183043,-0.005459049,0.046735898,0.998043060,0.000000000,113.000000000,1748429169738077.000000000,1748429169737612.000000000,0.008451317,0.001709027,-0.063011631,1.000000000,0.000713836,0.000714330,0.006562006
1748429169.753087,-0.001103449,-0.000565615,-0.004300166,0.000031831,0.000409178,0.043494064,1.000000000,-892.538940430,-257.665161133,-0.865163982,0.000075118,0.000075143,0.078729659,-0.041172195,-0.005449759,0.046737578,0.998043478,0.000000000,113.000000000,1748429169748061.000000000,1748429169747615.000000000,0.008883213,0.002122039,-0.062795714,1.000000000,0.000732199,0.000732868,0.006608564
1748429169.762975,0.007631518,0.003961639,-0.006217781,0.000031869,0.000409429,0.043493930,1.000000000,-892.538940430,-257.665161133,-0.865136325,0.000078489,0.000078517,0.078371473,-0.041131154,-0.005448455,0.046750523,0.998044550,0.000000000,113.000000000,1748429169758128.000000000,1748429169757617.000000000,0.009213858,0.002165407,-0.062591471,1.000000000,0.000750749,0.000751527,0.006650788
1748429169.772975,0.004810174,0.002523126,-0.004622133,0.000031930,0.000409324,0.043494117,1.000000000,-892.538940430,-257.665161133,-0.865122378,0.000082019,0.000082050,0.078518361,-0.041115370,-0.005440459,0.046763688,0.998044610,0.000000000,113.000000000,1748429169768108.000000000,1748429169767620.000000000,0.009448312,0.002229246,-0.062575407,1.000000000,0.000769430,0.000770033,0.006697674
1748429169.777980,0.000601533,0.002203363,0.011199127,0.000031971,0.000409241,0.043494303,1.000000000,-892.538940430,-257.665161133,-0.865274191,0.000085712,0.000085746,0.078666687,-0.041108992,-0.005436114,0.046770196,0.998044610,0.000000000,113.000000000,1748429169778095.000000000,1748429169777623.000000000,0.009990438,0.001927161,-0.062272478,1.000000000,0.000788197,0.000788765,0.006744740
1748429169.794034,0.002784762,0.000712690,0.001771826,0.000032033,0.000409555,0.043494102,1.000000000,-892.538940430,-257.665161133,-0.865283012,0.000090058,0.000090095,0.078834966,-0.041088164,-0.005433637,0.046760987,0.998045981,0.000000000,113.000000000,1748429169788068.000000000,1748429169787626.000000000,0.010394349,0.002027343,-0.062173203,1.000000000,0.000811111,0.000811740,0.006799447
1748429169.803941,-0.001902542,-0.008288682,-0.000678632,0.000032099,0.000409548,0.043487366,1.000000000,-892.538940430,-257.665161133,-0.865305364,0.000094111,0.000094151,0.078986324,-0.041046377,-0.005420695,0.046760105,0.998047769,0.000000000,113.000000000,1748429169798246.000000000,1748429169797629.000000000,0.010668173,0.001787701,-0.062125545,1.000000000,0.000830196,0.000830885,0.006846862
1748429169.813952,-0.003021066,0.001245433,-0.006058202,0.000032154,0.000409783,0.043487225,1.000000000,-892.538940430,-257.665161133,-0.865393877,0.000098340,0.000098384,0.078631155,-0.041021742,-0.005430123,0.046758767,0.998048782,0.000000000,113.000000000,1748429169808107.000000000,1748429169807632.000000000,0.010608604,0.001561581,-0.062068824,1.000000000,0.000849428,0.000850037,0.006889532
1748429169.822990,0.005394521,0.003269440,-0.009626849,0.000032231,0.000409500,0.043487579,1.000000000,-892.538940430,-257.665161133,-0.865492523,0.000102750,0.000102797,0.078784458,-0.040981095,-0.005444441,0.046768222,0.998049974,0.000000000,113.000000000,1748429169818086.000000000,1748429169817635.000000000,0.010396245,0.001501117,-0.061925910,1.000000000,0.000868770,0.000869291,0.006937274
1748429169.832949,-0.002914259,-0.000138810,-0.002330890,0.000032278,0.000409763,0.043487415,1.000000000,-892.538940430,-257.665161133,-0.865601182,0.000107347,0.000107397,0.078939244,-0.040972970,-0.005452151,0.046762463,0.998050451,0.000000000,113.000000000,1748429169828089.000000000,1748429169827637.000000000,0.010061683,0.001355710,-0.061801109,1.000000000,0.000888278,0.000888811,0.006985182
1748429169.842041,0.000813471,-0.004985324,0.007311870,0.000032308,0.000409594,0.043487698,1.000000000,-892.538940430,-257.665161133,-0.865718961,0.000112132,0.000112186,0.079095505,-0.040971905,-0.005423192,0.046753708,0.998051167,0.000000000,113.000000000,1748429169838095.000000000,1748429169837640.000000000,0.009767590,0.001148735,-0.061527871,1.000000000,0.000907988,0.000908619,0.007033252
1748429169.854041,-0.000890515,-0.002909103,0.004221591,0.000032351,0.000409667,0.043487728,1.000000000,-892.538940430,-257.665161133,-0.865846276,0.000117113,0.000117170,0.079253279,-0.040983707,-0.005408534,0.046742123,0.998051286,0.000000000,113.000000000,1748429169848089.000000000,1748429169847643.000000000,0.009943484,0.001014271,-0.061626889,1.000000000,0.000927915,0.000928556,0.007081495
1748429169.863001,-0.003021050,-0.001098149,0.001505170,0.000032412,0.000409709,0.043487772,1.000000000,-892.538940430,-257.665161133,-0.866033375,0.000122293,0.000122355,0.078901090,-0.040966928,-0.005418883,0.046739519,0.998052061,0.000000000,113.000000000,1748429169858168.000000000,1748429169857646.000000000,0.009922595,0.000799524,-0.061739728,1.000000000,0.000947983,0.000948479,0.007124572
1748429169.872929,0.003050962,-0.003921100,0.000439901,0.000032471,0.000410048,0.043487512,1.000000000,-892.538940430,-257.665161133,-0.866230130,0.000127677,0.000127743,0.079060882,-0.040956602,-0.005412088,0.046750817,0.998052001,0.000000000,113.000000000,1748429169868196.000000000,1748429169867649.000000000,0.010158262,0.001475995,-0.061825301,1.000000000,0.000968217,0.000968592,0.007173140
1748429169.884948,0.003370410,-0.005679398,-0.004457525,0.000032544,0.000409753,0.043481160,1.000000000,-892.538940430,-257.665161133,-0.866583765,0.000133970,0.000134041,0.079242207,-0.040943481,-0.005399968,0.046747666,0.998052657,0.000000000,113.000000000,1748429169878364.000000000,1748429169877652.000000000,0.010803699,0.001938159,-0.061722182,1.000000000,0.000992742,0.000993074,0.007229549
1748429169.893920,-0.004085566,-0.000785703,-0.000515172,0.000031999,0.000408877,0.043449003,1.000000000,-892.538940430,-257.665161133,-0.866794407,0.000058299,0.000058312,0.079405285,-0.040941760,-0.005392515,0.046744339,0.998053014,0.000000000,113.000000000,1748429169888153.000000000,1748429169887654.000000000,0.011318096,0.002045032,-0.061729241,1.000000000,0.000634109,0.000634097,0.007278469
1748429169.904153,0.005075689,-0.002276589,-0.006800347,0.000032028,0.000408928,0.043448281,1.000000000,-892.538940430,-257.665161133,-0.866652489,0.000060412,0.000060425,0.078084983,-0.040904891,-0.005378728,0.046759680,0.998053849,0.000000000,113.000000000,1748429169898188.000000000,1748429169897657.000000000,0.011627330,0.002110650,-0.061395951,1.000000000,0.000641397,0.000641196,0.006193055
1748429169.913065,0.002145879,-0.002862484,-0.000036118,0.000032080,0.000408939,0.043448370,1.000000000,-892.538940430,-257.665161133,-0.866527259,0.000063049,0.000063063,0.078225479,-0.040878233,-0.005365156,0.046764512,0.998054802,0.000000000,113.000000000,1748429169908104.000000000,1748429169907660.000000000,0.011666912,0.001558437,-0.061352134,1.000000000,0.000659104,0.000658784,0.006236542
1748429169.922968,0.003796864,-0.001210742,-0.002805342,0.000032121,0.000408904,0.043448515,1.000000000,-892.538940430,-257.665161133,-0.866504371,0.000065824,0.000065838,0.077869117,-0.040854640,-0.005365822,0.046765819,0.998055637,0.000000000,113.000000000,1748429169918142.000000000,1748429169917663.000000000,0.011262468,0.001604416,-0.061142687,1.000000000,0.000676903,0.000676587,0.006275946
1748429169.932039,0.005927564,-0.001211334,-0.007333177,0.000032172,0.000408707,0.043448817,1.000000000,-892.538940430,-257.665161133,-0.866492689,0.000068741,0.000068755,0.078011334,-0.040818218,-0.005363093,0.046784267,0.998056352,0.000000000,113.000000000,1748429169928116.000000000,1748429169927666.000000000,0.011056534,0.001287282,-0.060807064,1.000000000,0.000694823,0.000694653,0.006319729
1748429169.942942,-0.006162893,-0.000251620,-0.004615831,0.000032215,0.000408770,0.043448851,1.000000000,-892.538940430,-257.665161133,-0.866492271,0.000071804,0.000071817,0.078154884,-0.040803589,-0.005350530,0.046763897,0.998057961,0.000000000,113.000000000,1748429169938120.000000000,1748429169937668.000000000,0.010760300,0.000913245,-0.060643591,1.000000000,0.000712925,0.000712936,0.006363663
1748429169.952939,-0.001689127,-0.002595100,-0.002058711,0.000032269,0.000408964,0.043442246,1.000000000,-892.538940430,-257.665161133,-0.866504788,0.000075015,0.000075030,0.078299776,-0.040776804,-0.005349691,0.046765897,0.998058975,0.000000000,113.000000000,1748429169948330.000000000,1748429169947671.000000000,0.010425170,0.000776758,-0.060632270,1.000000000,0.000731205,0.000731345,0.006407748
1748429169.963049,0.000865688,-0.002117004,0.001353490,0.000032313,0.000409215,0.043442104,1.000000000,-892.538940430,-257.665161133,-0.866531432,0.000078381,0.000078397,0.078446023,-0.040760428,-0.005344570,0.046774618,0.998059273,0.000000000,113.000000000,1748429169958225.000000000,1748429169957675.000000000,0.010265111,0.000675363,-0.060713895,1.000000000,0.000749657,0.000749893,0.006451989
1748429169.973935,0.002039373,0.003902087,0.009071863,0.000032370,0.000409369,0.043442070,1.000000000,-892.538940430,-257.665161133,-0.866717398,0.000082350,0.000082368,0.078611940,-0.040770885,-0.005367560,0.046764966,0.998059154,0.000000000,113.000000000,1748429169968209.000000000,1748429169967677.000000000,0.010615173,0.001190995,-0.060674280,1.000000000,0.000772233,0.000772632,0.006503525
1748429169.983961,-0.000943366,-0.000518789,-0.002539512,0.000032421,0.000409260,0.043442279,1.000000000,-892.538940430,-257.665161133,-0.866774619,0.000086057,0.000086076,0.078257933,-0.040737052,-0.005377656,0.046765260,0.998060465,0.000000000,113.000000000,1748429169978300.000000000,1748429169977680.000000000,0.010915354,0.001741775,-0.060330536,1.000000000,0.000790994,0.000791592,0.006543411
1748429169.993031,-0.001211795,-0.003234548,0.000230684,0.000032462,0.000409278,0.043442365,1.000000000,-892.538940430,-257.665161133,-0.866842091,0.000089932,0.000089953,0.078407526,-0.040714696,-0.005365706,0.046759568,0.998061717,0.000000000,113.000000000,1748429169988166.000000000,1748429169987683.000000000,0.011517832,0.002106431,-0.060183752,1.000000000,0.000809953,0.000810658,0.006588121
1748429170.003944,0.002518104,-0.001637053,-0.002271098,0.000032526,0.000409304,0.043442424,1.000000000,-892.538940430,-257.665161133,-0.866921484,0.000093979,0.000094002,0.078558519,-0.040687900,-0.005370488,0.046764202,0.998062491,0.000000000,113.000000000,1748429169998184.000000000,1748429169997685.000000000,0.012046169,0.002131193,-0.060242999,1.000000000,0.000829067,0.000829698,0.006632982
1748429170.014965,0.002039917,0.001185229,0.004437955,0.000032597,0.000409509,0.043442294,1.000000000,-892.538940430,-257.665161133,-0.867012680,0.000098202,0.000098228,0.078710921,-0.040670518,-0.005377206,0.046765860,0.998063147,0.000000000,113.000000000,1748429170008190.000000000,1748429170007688.000000000,0.012220616,0.002100646,-0.060207356,1.000000000,0.000848303,0.000848802,0.006677995
1748429170.022943,-0.001690107,0.003688190,-0.000780444,0.000032659,0.000409464,0.043442413,1.000000000,-892.538940430,-257.665161133,-0.867115259,0.000102605,0.000102634,0.078864738,-0.040657006,-0.005368137,0.046772156,0.998063445,0.000000000,113.000000000,1748429170018213.000000000,1748429170017691.000000000,0.012070005,0.002070774,-0.060182184,1.000000000,0.000867708,0.000867999,0.006723155
1748429170.033039,0.001666685,0.002464568,0.009657232,0.000032681,0.000409290,0.043436393,1.000000000,-892.538940430,-257.665161133,-0.867280245,0.000107193,0.000107225,0.078513548,-0.040657144,-0.005365950,0.046770751,0.998063505,0.000000000,113.000000000,1748429170028397.000000000,1748429170027694.000000000,0.012107740,0.001574534,-0.060166944,1.000000000,0.000887258,0.000887365,0.006763405
1748429170.042941,0.001346962,0.000599725,0.001082446,0.000032717,0.000409136,0.043436650,1.000000000,-892.538940430,-257.665161133,-0.867454112,0.000111973,0.000112006,0.078669272,-0.040645733,-0.005356505,0.046762008,0.998064399,0.000000000,113.000000000,1748429170038161.000000000,1748429170037697.000000000,0.012082227,0.001437580,-0.060080111,1.000000000,0.000906998,0.000907136,0.006808870
1748429170.052999,-0.009039365,0.001025860,-0.003018821,0.000032782,0.000409144,0.043436728,1.000000000,-892.538940430,-257.665161133,-0.867635727,0.000116947,0.000116981,0.078826457,-0.040618092,-0.005349942,0.046760667,0.998065710,0.000000000,113.000000000,1748429170048198.000000000,1748429170047700.000000000,0.011773549,0.001129994,-0.059976354,1.000000000,0.000926917,0.000926967,0.006854487
1748429170.064000,-0.004565251,-0.001424276,-0.000728512,0.000032827,0.000409369,0.043436617,1.000000000,-892.538940430,-257.665161133,-0.867972553,0.000122120,0.000122156,0.078985110,-0.040607393,-0.005344845,0.046757188,0.998066306,0.000000000,113.000000000,1748429170058163.000000000,1748429170057703.000000000,0.011164534,0.000860911,-0.059943378,1.000000000,0.000946790,0.000947078,0.006900256
1748429170.074985,-0.004832039,0.000332734,0.006409266,0.000032876,0.000409364,0.043436762,1.000000000,-892.538940430,-257.665161133,-0.868168771,0.000128173,0.000128211,0.079165101,-0.040606946,-0.005339948,0.046765316,0.998066008,0.000000000,113.000000000,1748429170068146.000000000,1748429170067705.000000000,0.010954616,0.000857970,-0.059698064,1.000000000,0.000971030,0.000971658,0.006953510
1748429170.083946,-0.001903254,0.003636271,0.003427860,0.000032913,0.000409351,0.043436851,1.000000000,-892.538940430,-257.665161133,-0.868371904,0.000133781,0.000133823,0.078816533,-0.040592872,-0.005344652,0.046755414,0.998066902,0.000000000,113.000000000,1748429170078272.000000000,1748429170077708.000000000,0.011100870,0.001114700,-0.059520148,1.000000000,0.000991327,0.000992316,0.006994097
1748429170.093965,0.004808987,-0.001749950,-0.006425112,0.000032332,0.000408638,0.043409266,1.000000000,-892.538940430,-257.665161133,-0.868582726,0.000058265,0.000058273,0.078978829,-0.040533680,-0.005339471,0.046762422,0.998069108,0.000000000,113.000000000,1748429170088208.000000000,1748429170087711.000000000,0.010858400,0.001305498,-0.059675451,1.000000000,0.000633409,0.000634085,0.007040337
1748429170.104945,0.004915043,-0.001536072,-0.001792251,0.000032348,0.000408654,0.043401804,1.000000000,-892.538940430,-257.665161133,-0.868449211,0.000060376,0.000060385,0.077665731,-0.040482350,-0.005348597,0.046762340,0.998071134,0.000000000,113.000000000,1748429170098417.000000000,1748429170097714.000000000,0.010677109,0.001799621,-0.059541080,1.000000000,0.000640673,0.000641322,0.006020148
1748429170.114993,0.004383583,0.004109148,-0.002377680,0.000032403,0.000408718,0.043401845,1.000000000,-892.538940430,-257.665161133,-0.868332684,0.000063012,0.000063023,0.077806182,-0.040457051,-0.005356874,0.046766251,0.998071969,0.000000000,113.000000000,1748429170108166.000000000,1748429170107717.000000000,0.010768038,0.002056655,-0.059393324,1.000000000,0.000658359,0.000658846,0.006061487
1748429170.122937,-0.004140045,-0.004786633,-0.002164968,0.000032454,0.000409057,0.043401621,1.000000000,-892.538940430,-257.665161133,-0.868231773,0.000065785,0.000065798,0.077947915,-0.040428869,-0.005344600,0.046763912,0.998073280,0.000000000,113.000000000,1748429170118173.000000000,1748429170117719.000000000,0.010959735,0.002272037,-0.059196573,1.000000000,0.000676232,0.000676597,0.006102967
1748429170.134034,0.001560529,0.001978833,0.000872255,0.000032496,0.000408759,0.043402024,1.000000000,-892.538940430,-257.665161133,-0.868146002,0.000068700,0.000068714,0.078090936,-0.040411625,-0.005337432,0.046775643,0.998073399,0.000000000,113.000000000,1748429170128177.000000000,1748429170127722.000000000,0.011383859,0.002130527,-0.058955524,1.000000000,0.000694284,0.000694468,0.006144586
1748429170.142994,0.002040166,-0.002336033,-0.002218735,0.000032549,0.000408833,0.043402053,1.000000000,-892.538940430,-257.665161133,-0.868148506,0.000071760,0.000071775,0.077738769,-0.040388223,-0.005325042,0.046776902,0.998074353,0.000000000,113.000000000,1748429170138315.000000000,1748429170137725.000000000,0.011560795,0.002082932,-0.058826555,1.000000000,0.000712457,0.000712479,0.006181970
1748429170.152946,-0.003979632,0.000594633,0.000765278,0.000032598,0.000409015,0.043401986,1.000000000,-892.538940430,-257.665161133,-0.868163526,0.000074971,0.000074987,0.077883497,-0.040388264,-0.005328279,0.046769872,0.998074710,0.000000000,113.000000000,1748429170148224.000000000,1748429170147728.000000000,0.011420380,0.001763642,-0.058667567,1.000000000,0.000730783,0.000730718,0.006223868
1748429170.165072,-0.003446135,0.004481987,-0.000566718,0.000032685,0.000408928,0.043402180,1.000000000,-892.538940430,-257.665161133,-0.868333042,0.000078759,0.000078776,0.078047611,-0.040387738,-0.005347642,0.046758980,0.998075128,0.000000000,113.000000000,1748429170158190.000000000,1748429170157731.000000000,0.011334714,0.001315847,-0.058678620,1.000000000,0.000753069,0.000753194,0.006272745
1748429170.173933,-0.001635171,-0.001909594,-0.003016830,0.000032750,0.000408983,0.043402206,1.000000000,-892.538940430,-257.665161133,-0.868371487,0.000082301,0.000082319,0.078195132,-0.040370543,-0.005345276,0.046756495,0.998075902,0.000000000,113.000000000,1748429170168177.000000000,1748429170167734.000000000,0.011244211,0.001457291,-0.058402959,1.000000000,0.000771576,0.000771906,0.006314935
1748429170.186001,0.001720458,0.001286229,-0.005253810,0.000032793,0.000408876,0.043396611,1.000000000,-892.538940430,-257.665161133,-0.868420780,0.000086005,0.000086025,0.078343995,-0.040339340,-0.005339894,0.046752881,0.998077333,0.000000000,113.000000000,1748429170178371.000000000,1748429170177755.000000000,0.011470243,0.001014296,-0.058314390,1.000000000,0.000790273,0.000790939,0.006357265
