__time,/fmu/out/vehicle_imu/accel_calibration_count,/fmu/out/vehicle_imu/accel_device_id,/fmu/out/vehicle_imu/delta_angle[0],/fmu/out/vehicle_imu/delta_angle[1],/fmu/out/vehicle_imu/delta_angle[2],/fmu/out/vehicle_imu/delta_angle_clipping,/fmu/out/vehicle_imu/delta_angle_dt,/fmu/out/vehicle_imu/delta_velocity[0],/fmu/out/vehicle_imu/delta_velocity[1],/fmu/out/vehicle_imu/delta_velocity[2],/fmu/out/vehicle_imu/delta_velocity_clipping,/fmu/out/vehicle_imu/delta_velocity_dt,/fmu/out/vehicle_imu/gyro_calibration_count,/fmu/out/vehicle_imu/gyro_device_id,/fmu/out/vehicle_imu/timestamp,/fmu/out/vehicle_imu/timestamp_sample
1748429168.723915,7.000000000,4259850.000000000,0.000022514,-0.000036419,0.000003971,0.000000000,5001.000000000,-0.000529147,-0.004512624,-0.047225896,0.000000000,4870.000000000,1.000000000,4325386.000000000,1748429168717423.000000000,1748429168717298.000000000
1748429168.733927,7.000000000,4259850.000000000,0.000017991,-0.000023102,0.000023947,0.000000000,5002.000000000,-0.000112516,-0.004791867,-0.047236130,0.000000000,4872.000000000,1.000000000,4325386.000000000,1748429168727441.000000000,1748429168727301.000000000
1748429168.742982,7.000000000,4259850.000000000,0.000016646,-0.000008181,0.000000238,0.000000000,5002.000000000,0.000141160,-0.005131874,-0.047216732,0.000000000,4870.000000000,1.000000000,4325386.000000000,1748429168737424.000000000,1748429168737304.000000000
1748429168.747035,7.000000000,4259850.000000000,0.000004939,-0.000004454,-0.000027196,0.000000000,5001.000000000,0.000095888,-0.004938800,-0.047263063,0.000000000,4871.000000000,1.000000000,4325386.000000000,1748429168742425.000000000,1748429168742305.000000000
1748429168.756933,7.000000000,4259850.000000000,-0.000003857,0.000000075,-0.000015485,0.000000000,5001.000000000,-0.000030931,-0.004614307,-0.047335781,0.000000000,4870.000000000,1.000000000,4325386.000000000,1748429168752430.000000000,1748429168752308.000000000
1748429168.767026,7.000000000,4259850.000000000,0.000024646,-0.000032695,-0.000049304,0.000000000,5001.000000000,0.000050594,-0.004411858,-0.047235597,0.000000000,4871.000000000,1.000000000,4325386.000000000,1748429168762429.000000000,1748429168762311.000000000
1748429168.782974,7.000000000,4259850.000000000,-0.000011846,-0.000035085,-0.000057036,0.000000000,5001.000000000,0.000657746,-0.004468245,-0.047172014,0.000000000,4872.000000000,1.000000000,4325386.000000000,1748429168777435.000000000,1748429168777315.000000000
1748429168.793911,7.000000000,4259850.000000000,-0.000021705,-0.000004186,0.000014089,0.000000000,5002.000000000,0.000775233,-0.004346258,-0.047399838,0.000000000,4870.000000000,1.000000000,4325386.000000000,1748429168787443.000000000,1748429168787318.000000000
1748429168.802996,7.000000000,4259850.000000000,0.000028116,-0.000021237,0.000079629,0.000000000,5002.000000000,0.000177438,-0.004069823,-0.047501136,0.000000000,4871.000000000,1.000000000,4325386.000000000,1748429168797441.000000000,1748429168797321.000000000
1748429168.813024,7.000000000,4259850.000000000,-0.000011845,0.000025648,0.000040189,0.000000000,5001.000000000,0.000159299,-0.004291694,-0.047345482,0.000000000,4871.000000000,1.000000000,4325386.000000000,1748429168807445.000000000,1748429168807324.000000000
1748429168.824063,7.000000000,4259850.000000000,0.000011331,0.000029116,0.000027144,0.000000000,5002.000000000,0.000168380,-0.004504291,-0.047171500,0.000000000,4871.000000000,1.000000000,4325386.000000000,1748429168817453.000000000,1748429168817327.000000000
1748429168.829963,7.000000000,4259850.000000000,-0.000006251,-0.000013242,0.000023945,0.000000000,5001.000000000,0.000524405,-0.007154461,-0.070665941,0.000000000,7307.000000000,1.000000000,4325386.000000000,1748429168827554.000000000,1748429168827329.000000000
1748429168.839995,7.000000000,4259850.000000000,-0.000020906,0.000035777,0.000004231,0.000000000,5002.000000000,0.000195521,-0.004790890,-0.047217250,0.000000000,4871.000000000,1.000000000,4325386.000000000,1748429168832536.000000000,1748429168832331.000000000
1748429168.848027,7.000000000,4259850.000000000,0.000020922,-0.000001789,0.000026877,0.000000000,5002.000000000,-0.000157789,-0.004421104,-0.047391262,0.000000000,4871.000000000,1.000000000,4325386.000000000,1748429168842582.000000000,1748429168842334.000000000
1748429168.858021,7.000000000,4259850.000000000,0.000001208,0.000009667,-0.000053298,0.000000000,5001.000000000,-0.000203110,-0.004532041,-0.047308851,0.000000000,4871.000000000,1.000000000,4325386.000000000,1748429168852464.000000000,1748429168852336.000000000
1748429168.872976,7.000000000,4259850.000000000,-0.000003849,-0.000003657,-0.000052237,0.000000000,5001.000000000,-0.000085313,-0.004559761,-0.047153182,0.000000000,4871.000000000,1.000000000,4325386.000000000,1748429168867461.000000000,1748429168867341.000000000
1748429168.882999,7.000000000,4259850.000000000,0.000017192,0.000002474,-0.000067703,0.000000000,5002.000000000,0.000331446,-0.004633732,-0.047327168,0.000000000,4871.000000000,1.000000000,4325386.000000000,1748429168877466.000000000,1748429168877344.000000000
1748429168.893042,7.000000000,4259850.000000000,-0.000003322,-0.000013778,-0.000036265,0.000000000,5002.000000000,0.000213625,-0.004447926,-0.047436465,0.000000000,4870.000000000,1.000000000,4325386.000000000,1748429168887469.000000000,1748429168887347.000000000
1748429168.897939,7.000000000,4259850.000000000,0.000021186,-0.000026558,-0.000021867,0.000000000,5001.000000000,0.000059652,-0.004217731,-0.047437042,0.000000000,4871.000000000,1.000000000,4325386.000000000,1748429168892469.000000000,1748429168892348.000000000
1748429168.914215,7.000000000,4259850.000000000,0.000014790,0.000004887,0.000006348,0.000000000,5003.000000000,0.000032474,-0.004263951,-0.047272220,0.000000000,4871.000000000,1.000000000,4325386.000000000,1748429168907481.000000000,1748429168907354.000000000
1748429168.924032,7.000000000,4259850.000000000,0.000015058,-0.000000188,-0.000001370,0.000000000,5001.000000000,0.000270690,-0.006904844,-0.070766665,0.000000000,7307.000000000,1.000000000,4325386.000000000,1748429168917542.000000000,1748429168917355.000000000
1748429168.930057,7.000000000,4259850.000000000,0.000014801,0.000009133,-0.000011218,0.000000000,5001.000000000,0.000258973,-0.004532057,-0.047382101,0.000000000,4871.000000000,1.000000000,4325386.000000000,1748429168927477.000000000,1748429168927358.000000000
1748429168.938012,7.000000000,4259850.000000000,0.000013730,0.000010461,0.000045248,0.000000000,5001.000000000,0.000114016,-0.004522795,-0.047363799,0.000000000,4871.000000000,1.000000000,4325386.000000000,1748429168932478.000000000,1748429168932359.000000000
1748429168.947138,7.000000000,4259850.000000000,-0.000015311,0.000009660,0.000039394,0.000000000,5001.000000000,-0.000085302,-0.004606004,-0.047409568,0.000000000,4871.000000000,1.000000000,4325386.000000000,1748429168942482.000000000,1748429168942362.000000000
1748429168.963030,7.000000000,4259850.000000000,-0.000016907,-0.000021767,-0.000014422,0.000000000,5001.000000000,-0.000103412,-0.004799142,-0.047079403,0.000000000,4870.000000000,1.000000000,4325386.000000000,1748429168957491.000000000,1748429168957366.000000000
1748429168.974041,7.000000000,4259850.000000000,0.000015056,-0.000000723,-0.000010686,0.000000000,5001.000000000,0.000159276,-0.004789900,-0.047061097,0.000000000,4870.000000000,1.000000000,4325386.000000000,1748429168967488.000000000,1748429168967369.000000000
1748429168.983015,7.000000000,4259850.000000000,0.000021983,-0.000018301,0.000017812,0.000000000,5001.000000000,0.000268084,-0.004754882,-0.047428470,0.000000000,4872.000000000,1.000000000,4325386.000000000,1748429168977493.000000000,1748429168977372.000000000
1748429168.993057,7.000000000,4259850.000000000,-0.000000128,-0.000000987,-0.000003760,0.000000000,5001.000000000,0.000159333,-0.004356388,-0.047327161,0.000000000,4871.000000000,1.000000000,4325386.000000000,1748429168987499.000000000,1748429168987375.000000000
1748429169.004995,7.000000000,4259850.000000000,0.000021988,-0.000022037,-0.000011487,0.000000000,5002.000000000,0.000159341,-0.004274072,-0.047364358,0.000000000,4872.000000000,1.000000000,4325386.000000000,1748429168997498.000000000,1748429168997378.000000000
1748429169.015017,7.000000000,4259850.000000000,0.000013995,0.000025646,-0.000000030,0.000000000,5001.000000000,0.000068717,-0.004282428,-0.047134850,0.000000000,4871.000000000,1.000000000,4325386.000000000,1748429169007526.000000000,1748429169007380.000000000
1748429169.025032,7.000000000,4259850.000000000,0.000003596,0.000022421,0.000027388,0.000000000,5001.000000000,0.000286166,-0.004328660,-0.047372948,0.000000000,4871.000000000,1.000000000,4325386.000000000,1748429169017502.000000000,1748429169017383.000000000
1748429169.028024,7.000000000,4259850.000000000,0.000007068,0.000009668,0.000017286,0.000000000,5002.000000000,0.000195509,-0.004337016,-0.047381528,0.000000000,4870.000000000,1.000000000,4325386.000000000,1748429169022507.000000000,1748429169022385.000000000
1748429169.037021,7.000000000,4259850.000000000,-0.000009450,0.000029384,0.000045782,0.000000000,5001.000000000,0.000113938,-0.004215123,-0.047371238,0.000000000,4868.000000000,1.000000000,4325386.000000000,1748429169032506.000000000,1748429169032387.000000000
1748429169.047105,7.000000000,4259850.000000000,0.000009459,-0.000000988,0.000009300,0.000000000,5001.000000000,-0.000085309,-0.004439593,-0.047427893,0.000000000,4871.000000000,1.000000000,4325386.000000000,1748429169042508.000000000,1748429169042390.000000000
1748429169.056933,7.000000000,4259850.000000000,0.000006532,0.000024318,0.000005827,0.000000000,5001.000000000,-0.000049065,-0.004763158,-0.047070768,0.000000000,4871.000000000,1.000000000,4325386.000000000,1748429169052514.000000000,1748429169052393.000000000
1748429169.072977,7.000000000,4259850.000000000,-0.000023570,0.000016062,-0.000017349,0.000000000,5002.000000000,0.000123043,-0.004808384,-0.047143497,0.000000000,4870.000000000,1.000000000,4325386.000000000,1748429169067530.000000000,1748429169067398.000000000
1748429169.083984,7.000000000,4259850.000000000,-0.000004923,0.000013927,-0.000009087,0.000000000,5001.000000000,0.000231837,-0.004671665,-0.047428466,0.000000000,4872.000000000,1.000000000,4325386.000000000,1748429169077519.000000000,1748429169077400.000000000
1748429169.093935,7.000000000,4259850.000000000,-0.000012911,-0.000016973,-0.000001370,0.000000000,5001.000000000,0.000204601,-0.004347156,-0.047336325,0.000000000,4871.000000000,1.000000000,4325386.000000000,1748429169087523.000000000,1748429169087403.000000000
1748429169.099018,7.000000000,4259850.000000000,0.000012663,-0.000003920,-0.000045323,0.000000000,5002.000000000,0.000204631,-0.004495033,-0.047208145,0.000000000,4871.000000000,1.000000000,4325386.000000000,1748429169092523.000000000,1748429169092405.000000000
1748429169.108019,7.000000000,4259850.000000000,-0.000036367,-0.000003121,0.000034875,0.000000000,5003.000000000,0.000334140,-0.006924292,-0.070794642,0.000000000,7308.000000000,1.000000000,4325386.000000000,1748429169107548.000000000,1748429169107410.000000000
1748429169.120941,7.000000000,4259850.000000000,0.000017452,0.000004870,0.000017546,0.000000000,5000.000000000,0.000168257,-0.004603139,-0.047142450,0.000000000,4868.000000000,1.000000000,4325386.000000000,1748429169112528.000000000,1748429169112410.000000000
1748429169.126984,7.000000000,4259850.000000000,-0.000009445,0.000018986,0.000022601,0.000000000,5001.000000000,0.000177416,-0.004143768,-0.047427889,0.000000000,4871.000000000,1.000000000,4325386.000000000,1748429169122535.000000000,1748429169122413.000000000
1748429169.137931,7.000000000,4259850.000000000,0.000010526,0.000013931,0.000065228,0.000000000,5001.000000000,-0.000148727,-0.004079069,-0.047272209,0.000000000,4871.000000000,1.000000000,4325386.000000000,1748429169132536.000000000,1748429169132416.000000000
1748429169.152962,7.000000000,4259850.000000000,-0.000031289,-0.000012716,-0.000003495,0.000000000,5001.000000000,0.000041513,-0.004707688,-0.047208112,0.000000000,4871.000000000,1.000000000,4325386.000000000,1748429169147541.000000000,1748429169147420.000000000
1748429169.164001,7.000000000,4259850.000000000,0.000012389,0.000011530,-0.000008824,0.000000000,5001.000000000,-0.000085316,-0.004661467,-0.047144011,0.000000000,4871.000000000,1.000000000,4325386.000000000,1748429169157550.000000000,1748429169157423.000000000
1748429169.173013,7.000000000,4259850.000000000,-0.000011315,-0.000013245,-0.000001896,0.000000000,5002.000000000,-0.000094382,-0.004541295,-0.047263063,0.000000000,4871.000000000,1.000000000,4325386.000000000,1748429169167556.000000000,1748429169167426.000000000
1748429169.178965,7.000000000,4259850.000000000,0.000015855,-0.000014301,-0.000012279,0.000000000,5001.000000000,0.000005289,-0.004606940,-0.047364350,0.000000000,4872.000000000,1.000000000,4325386.000000000,1748429169172568.000000000,1748429169172451.000000000
1748429169.195015,7.000000000,4259850.000000000,-0.000025963,-0.000010047,-0.000038122,0.000000000,5001.000000000,0.000077772,-0.004735400,-0.047226425,0.000000000,4871.000000000,1.000000000,4325386.000000000,1748429169187576.000000000,1748429169187455.000000000
1748429169.205018,7.000000000,4259850.000000000,0.000012664,-0.000026294,-0.000038388,0.000000000,5001.000000000,0.000186478,-0.004790878,-0.047144018,0.000000000,4871.000000000,1.000000000,4325386.000000000,1748429169197593.000000000,1748429169197458.000000000
1748429169.214131,7.000000000,4259850.000000000,0.000025451,0.000002210,0.000030871,0.000000000,5001.000000000,0.000168334,-0.004752930,-0.047180116,0.000000000,4870.000000000,1.000000000,4325386.000000000,1748429169207627.000000000,1748429169207461.000000000
1748429169.217004,7.000000000,4259850.000000000,-0.000016105,-0.000000459,0.000021012,0.000000000,5001.000000000,0.000068694,-0.004503381,-0.047216736,0.000000000,4870.000000000,1.000000000,4325386.000000000,1748429169212680.000000000,1748429169212462.000000000
1748429169.227025,7.000000000,4259850.000000000,-0.000008651,0.000004073,0.000039133,0.000000000,5002.000000000,-0.000030946,-0.004272318,-0.047418151,0.000000000,4870.000000000,1.000000000,4325386.000000000,1748429169222727.000000000,1748429169222466.000000000
1748429169.236979,7.000000000,4259850.000000000,0.000001468,0.000008068,0.000029809,0.000000000,5001.000000000,0.000168365,-0.004226992,-0.047327168,0.000000000,4871.000000000,1.000000000,4325386.000000000,1748429169232594.000000000,1748429169232468.000000000
1748429169.252986,7.000000000,4259850.000000000,-0.000011315,0.000032047,0.000029009,0.000000000,5002.000000000,0.000041524,-0.004550530,-0.047272209,0.000000000,4871.000000000,1.000000000,4325386.000000000,1748429169247594.000000000,1748429169247473.000000000
1748429169.263987,7.000000000,4259850.000000000,0.000020922,-0.000004186,0.000035403,0.000000000,5002.000000000,0.000041519,-0.004586565,-0.047262512,0.000000000,4870.000000000,1.000000000,4325386.000000000,1748429169257605.000000000,1748429169257476.000000000
1748429169.273988,7.000000000,4259850.000000000,0.000001206,-0.000005249,-0.000004021,0.000000000,5001.000000000,0.000114027,-0.004384142,-0.047363792,0.000000000,4871.000000000,1.000000000,4325386.000000000,1748429169267601.000000000,1748429169267478.000000000
1748429169.283972,7.000000000,4259850.000000000,-0.000014241,0.000016320,0.000007697,0.000000000,5001.000000000,0.000150218,-0.004531109,-0.047280826,0.000000000,4870.000000000,1.000000000,4325386.000000000,1748429169277602.000000000,1748429169277481.000000000
1748429169.294055,7.000000000,4259850.000000000,0.000001207,0.000021923,-0.000054115,0.000000000,5002.000000000,0.000258916,-0.004540351,-0.047308289,0.000000000,4870.000000000,1.000000000,4325386.000000000,1748429169287625.000000000,1748429169287484.000000000
1748429169.304034,7.000000000,4259850.000000000,0.000000674,0.000002741,-0.000010955,0.000000000,5002.000000000,0.000195543,-0.004818613,-0.047116540,0.000000000,4871.000000000,1.000000000,4325386.000000000,1748429169297606.000000000,1748429169297487.000000000
1748429169.306979,7.000000000,4259850.000000000,0.000033172,0.000018458,-0.000004024,0.000000000,5001.000000000,0.000231741,-0.004845355,-0.047216736,0.000000000,4870.000000000,1.000000000,4325386.000000000,1748429169302611.000000000,1748429169302488.000000000
1748429169.317013,7.000000000,4259850.000000000,-0.000007846,-0.000006856,0.000013822,0.000000000,5001.000000000,0.000104939,-0.004393388,-0.047281381,0.000000000,4871.000000000,1.000000000,4325386.000000000,1748429169312611.000000000,1748429169312491.000000000
1748429169.326983,7.000000000,4259850.000000000,-0.000009176,0.000021383,-0.000012820,0.000000000,5001.000000000,0.000095888,-0.004495068,-0.047327161,0.000000000,4871.000000000,1.000000000,4325386.000000000,1748429169322613.000000000,1748429169322494.000000000
1748429169.342991,7.000000000,4259850.000000000,0.000022788,-0.000011378,0.000008493,0.000000000,5001.000000000,-0.000049063,-0.004466411,-0.047161803,0.000000000,4870.000000000,1.000000000,4325386.000000000,1748429169337619.000000000,1748429169337498.000000000
1748429169.353053,7.000000000,4259850.000000000,-0.000012913,-0.000005784,0.000011163,0.000000000,5001.000000000,-0.000012830,-0.004244590,-0.047235042,0.000000000,4870.000000000,1.000000000,4325386.000000000,1748429169347626.000000000,1748429169347501.000000000
1748429169.363072,7.000000000,4259850.000000000,-0.000028363,0.000003007,0.000001833,0.000000000,5001.000000000,0.000014227,-0.004365668,-0.047235589,0.000000000,4871.000000000,1.000000000,4325386.000000000,1748429169357634.000000000,1748429169357504.000000000
1748429169.374033,7.000000000,4259850.000000000,0.000020389,0.000001142,-0.000053582,0.000000000,5002.000000000,0.000077752,-0.004263076,-0.047518853,0.000000000,4870.000000000,1.000000000,4325386.000000000,1748429169367628.000000000,1748429169367507.000000000
1748429169.384042,7.000000000,4259850.000000000,-0.000013446,0.000029116,-0.000036265,0.000000000,5002.000000000,-0.000040039,-0.004505185,-0.047355216,0.000000000,4872.000000000,1.000000000,4325386.000000000,1748429169377632.000000000,1748429169377510.000000000
1748429169.388077,7.000000000,4259850.000000000,0.000028912,-0.000015641,-0.000013348,0.000000000,5001.000000000,0.000288776,-0.006959363,-0.070985876,0.000000000,7306.000000000,1.000000000,4325386.000000000,1748429169387632.000000000,1748429169387512.000000000
1748429169.400034,7.000000000,4259850.000000000,-0.000020373,-0.000016708,0.000003166,0.000000000,5002.000000000,0.000358613,-0.004689203,-0.047079936,0.000000000,4871.000000000,1.000000000,4325386.000000000,1748429169392636.000000000,1748429169392514.000000000
1748429169.407051,7.000000000,4259850.000000000,0.000007335,-0.000012978,-0.000021612,0.000000000,5002.000000000,0.000150245,-0.004652210,-0.047226436,0.000000000,4871.000000000,1.000000000,4325386.000000000,1748429169402636.000000000,1748429169402517.000000000
1748429169.417012,7.000000000,4259850.000000000,-0.000022239,-0.000020704,-0.000028538,0.000000000,5002.000000000,0.000268084,-0.004523723,-0.047336876,0.000000000,4872.000000000,1.000000000,4325386.000000000,1748429169412641.000000000,1748429169412520.000000000
1748429169.427048,7.000000000,4259850.000000000,-0.000015036,-0.000014572,-0.000002696,0.000000000,5001.000000000,0.000277032,-0.004568079,-0.047308289,0.000000000,4870.000000000,1.000000000,4325386.000000000,1748429169422644.000000000,1748429169422522.000000000
1748429169.439026,7.000000000,4259850.000000000,0.000003078,-0.000010307,0.000013549,0.000000000,5001.000000000,0.000222683,-0.004521866,-0.047399841,0.000000000,4870.000000000,1.000000000,4325386.000000000,1748429169432647.000000000,1748429169432525.000000000
1748429169.447959,7.000000000,4259850.000000000,-0.000016637,0.000022720,0.000007425,0.000000000,5001.000000000,0.000104927,-0.004475654,-0.047161806,0.000000000,4870.000000000,1.000000000,4325386.000000000,1748429169442649.000000000,1748429169442528.000000000
1748429169.465011,7.000000000,4259850.000000000,0.000036635,-0.000015909,0.000036999,0.000000000,5001.000000000,-0.000039999,-0.004485836,-0.047208112,0.000000000,4871.000000000,1.000000000,4325386.000000000,1748429169457658.000000000,1748429169457532.000000000
1748429169.475038,7.000000000,4259850.000000000,-0.000003055,0.000024585,-0.000012815,0.000000000,5001.000000000,0.000095892,-0.004199238,-0.047427885,0.000000000,4871.000000000,1.000000000,4325386.000000000,1748429169467657.000000000,1748429169467535.000000000
1748429169.483995,7.000000000,4259850.000000000,-0.000001990,-0.000007383,-0.000023743,0.000000000,5002.000000000,0.000086823,-0.004226977,-0.047308840,0.000000000,4871.000000000,1.000000000,4325386.000000000,1748429169477676.000000000,1748429169477538.000000000
1748429169.490943,7.000000000,4259850.000000000,-0.000004391,-0.000004182,-0.000014948,0.000000000,5001.000000000,0.000134801,-0.006746709,-0.070729546,0.000000000,7306.000000000,1.000000000,4325386.000000000,1748429169482662.000000000,1748429169482539.000000000
1748429169.498016,7.000000000,4259850.000000000,-0.000030229,0.000032304,0.000015416,0.000000000,5001.000000000,0.000150218,-0.004586564,-0.047170967,0.000000000,4870.000000000,1.000000000,4325386.000000000,1748429169497697.000000000,1748429169497543.000000000
1748429169.516009,7.000000000,4259850.000000000,0.000021451,-0.000000454,-0.000013890,0.000000000,5001.000000000,0.000104939,-0.004800139,-0.047235582,0.000000000,4871.000000000,1.000000000,4325386.000000000,1748429169507668.000000000,1748429169507546.000000000
1748429169.521084,7.000000000,4259850.000000000,-0.000007319,0.000000076,-0.000008823,0.000000000,5002.000000000,0.000222725,-0.004633728,-0.047345478,0.000000000,4871.000000000,1.000000000,4325386.000000000,1748429169512670.000000000,1748429169512548.000000000
1748429169.528934,7.000000000,4259850.000000000,0.000015862,0.000002214,0.000028201,0.000000000,5001.000000000,0.000159307,-0.004652221,-0.047272205,0.000000000,4871.000000000,1.000000000,4325386.000000000,1748429169522672.000000000,1748429169522551.000000000
1748429169.537996,7.000000000,4259850.000000000,-0.000009983,0.000009668,0.000035136,0.000000000,5002.000000000,0.000032462,-0.004559773,-0.047171496,0.000000000,4871.000000000,1.000000000,4325386.000000000,1748429169532675.000000000,1748429169532554.000000000
1748429169.552993,7.000000000,4259850.000000000,0.000036648,-0.000026561,0.000004774,0.000000000,5002.000000000,0.000023419,-0.004513556,-0.047272228,0.000000000,4871.000000000,1.000000000,4325386.000000000,1748429169547678.000000000,1748429169547558.000000000
1748429169.563077,7.000000000,4259850.000000000,-0.000009446,0.000016592,-0.000006955,0.000000000,5001.000000000,-0.000021887,-0.004273209,-0.047318004,0.000000000,4871.000000000,1.000000000,4325386.000000000,1748429169557688.000000000,1748429169557560.000000000
1748429169.568033,7.000000000,4259850.000000000,0.000025984,-0.000010048,-0.000037330,0.000000000,5002.000000000,-0.000049063,-0.004337016,-0.047354061,0.000000000,4870.000000000,1.000000000,4325386.000000000,1748429169562679.000000000,1748429169562562.000000000
1748429169.577967,7.000000000,4259850.000000000,-0.000014778,0.000021390,-0.000002163,0.000000000,5002.000000000,0.000277047,-0.004290807,-0.047344908,0.000000000,4870.000000000,1.000000000,4325386.000000000,1748429169572684.000000000,1748429169572565.000000000
1748429169.588927,7.000000000,4259850.000000000,-0.000001991,-0.000028698,-0.000016276,0.000000000,5001.000000000,0.000141190,-0.004522799,-0.047107406,0.000000000,4871.000000000,1.000000000,4325386.000000000,1748429169582713.000000000,1748429169582567.000000000
1748429169.599973,7.000000000,4259850.000000000,0.000013996,0.000007009,-0.000017606,0.000000000,5001.000000000,0.000023413,-0.004514477,-0.047263600,0.000000000,4872.000000000,1.000000000,4325386.000000000,1748429169597817.000000000,1748429169597572.000000000
1748429169.609931,7.000000000,4259850.000000000,-0.000021172,0.000007265,-0.000037588,0.000000000,5001.000000000,0.000059656,-0.004476594,-0.047318008,0.000000000,4871.000000000,1.000000000,4325386.000000000,1748429169602848.000000000,1748429169602573.000000000
1748429169.617973,7.000000000,4259850.000000000,0.000002540,0.000002735,0.000000503,0.000000000,5001.000000000,0.000277093,-0.004624478,-0.047327161,0.000000000,4871.000000000,1.000000000,4325386.000000000,1748429169612706.000000000,1748429169612576.000000000
1748429169.628026,7.000000000,4259850.000000000,-0.000023038,-0.000005785,0.000039666,0.000000000,5002.000000000,0.000249911,-0.004652224,-0.047226436,0.000000000,4871.000000000,1.000000000,4325386.000000000,1748429169622697.000000000,1748429169622579.000000000
1748429169.638010,7.000000000,4259850.000000000,0.000031572,-0.000005514,0.000010096,0.000000000,5001.000000000,0.000213713,-0.004847345,-0.047364350,0.000000000,4872.000000000,1.000000000,4325386.000000000,1748429169632701.000000000,1748429169632582.000000000
1748429169.653041,7.000000000,4259850.000000000,0.000009734,-0.000019902,-0.000015757,0.000000000,5001.000000000,0.000005287,-0.004447926,-0.047225896,0.000000000,4870.000000000,1.000000000,4325386.000000000,1748429169647706.000000000,1748429169647586.000000000
1748429169.663098,7.000000000,4259850.000000000,-0.000003854,-0.000020165,-0.000021071,0.000000000,5001.000000000,0.000077779,-0.004393350,-0.047400426,0.000000000,4871.000000000,1.000000000,4325386.000000000,1748429169657717.000000000,1748429169657589.000000000
1748429169.673991,7.000000000,4259850.000000000,-0.000004388,0.000006737,0.000004498,0.000000000,5002.000000000,0.000258962,-0.004430354,-0.047244731,0.000000000,4871.000000000,1.000000000,4325386.000000000,1748429169667715.000000000,1748429169667592.000000000
1748429169.685037,7.000000000,4259850.000000000,0.000011331,-0.000007117,-0.000001097,0.000000000,5002.000000000,0.000204651,-0.004394275,-0.047272760,0.000000000,4872.000000000,1.000000000,4325386.000000000,1748429169677717.000000000,1748429169677595.000000000
1748429169.694911,7.000000000,4259850.000000000,-0.000022505,-0.000009515,-0.000020812,0.000000000,5002.000000000,0.000225346,-0.006404788,-0.070830159,0.000000000,7306.000000000,1.000000000,4325386.000000000,1748429169687720.000000000,1748429169687598.000000000
1748429169.698025,7.000000000,4259850.000000000,0.000020649,-0.000025228,0.000003439,0.000000000,5001.000000000,0.000123067,-0.004393373,-0.047272213,0.000000000,4871.000000000,1.000000000,4325386.000000000,1748429169692717.000000000,1748429169692599.000000000
1748429169.707922,7.000000000,4259850.000000000,-0.000022238,-0.000006584,0.000007961,0.000000000,5002.000000000,0.000295149,-0.004244590,-0.047354061,0.000000000,4870.000000000,1.000000000,4325386.000000000,1748429169702724.000000000,1748429169702602.000000000
1748429169.717952,7.000000000,4259850.000000000,-0.000017709,-0.000002588,0.000000502,0.000000000,5002.000000000,0.000331381,-0.004558837,-0.047344908,0.000000000,4870.000000000,1.000000000,4325386.000000000,1748429169712725.000000000,1748429169712605.000000000
1748429169.733026,7.000000000,4259850.000000000,-0.000000658,-0.000024967,-0.000029871,0.000000000,5002.000000000,0.000059663,-0.004605993,-0.047116529,0.000000000,4871.000000000,1.000000000,4325386.000000000,1748429169727745.000000000,1748429169727609.000000000
1748429169.743033,7.000000000,4259850.000000000,-0.000007052,0.000004339,-0.000006692,0.000000000,5002.000000000,-0.000021902,-0.004670713,-0.047217283,0.000000000,4871.000000000,1.000000000,4325386.000000000,1748429169737743.000000000,1748429169737612.000000000
1748429169.753936,7.000000000,4259850.000000000,-0.000005187,-0.000006851,-0.000014685,0.000000000,5002.000000000,-0.000094375,-0.004652217,-0.047263063,0.000000000,4871.000000000,1.000000000,4325386.000000000,1748429169747738.000000000,1748429169747615.000000000
1748429169.765009,7.000000000,4259850.000000000,0.000038497,0.000015792,-0.000024272,0.000000000,5001.000000000,-0.000030946,-0.004484896,-0.047289975,0.000000000,4870.000000000,1.000000000,4325386.000000000,1748429169757746.000000000,1748429169757617.000000000
1748429169.775072,7.000000000,4259850.000000000,0.000024388,0.000008598,-0.000016292,0.000000000,5001.000000000,-0.000040003,-0.004513568,-0.047363799,0.000000000,4871.000000000,1.000000000,4325386.000000000,1748429169767739.000000000,1748429169767620.000000000
1748429169.779977,7.000000000,4259850.000000000,0.000003340,0.000006998,0.000062830,0.000000000,5001.000000000,-0.000091754,-0.006552657,-0.070738673,0.000000000,7306.000000000,1.000000000,4325386.000000000,1748429169777767.000000000,1748429169777623.000000000
1748429169.790020,7.000000000,4259850.000000000,-0.000032884,-0.000006586,-0.000018412,0.000000000,5001.000000000,-0.000021888,-0.004503381,-0.047253352,0.000000000,4870.000000000,1.000000000,4325386.000000000,1748429169782745.000000000,1748429169782624.000000000
1748429169.799921,7.000000000,4259850.000000000,0.000006528,0.000014721,-0.000047712,0.000000000,5001.000000000,-0.000040004,-0.004346258,-0.047363218,0.000000000,4870.000000000,1.000000000,4325386.000000000,1748429169792747.000000000,1748429169792627.000000000
1748429169.807913,7.000000000,4259850.000000000,0.000012928,0.000013658,0.000015950,0.000000000,5001.000000000,0.000132101,-0.004300046,-0.047326598,0.000000000,4870.000000000,1.000000000,4325386.000000000,1748429169802751.000000000,1748429169802630.000000000
1748429169.816978,7.000000000,4259850.000000000,-0.000007049,0.000010735,0.000000771,0.000000000,5001.000000000,0.000204567,-0.004447926,-0.047216743,0.000000000,4870.000000000,1.000000000,4325386.000000000,1748429169812752.000000000,1748429169812633.000000000
1748429169.833081,7.000000000,4259850.000000000,-0.000014242,-0.000004715,-0.000004831,0.000000000,5001.000000000,0.000213621,-0.004595777,-0.047198404,0.000000000,4870.000000000,1.000000000,4325386.000000000,1748429169827766.000000000,1748429169827637.000000000
1748429169.843016,7.000000000,4259850.000000000,0.000004401,-0.000028953,0.000043392,0.000000000,5001.000000000,0.000177392,-0.004466411,-0.047097716,0.000000000,4870.000000000,1.000000000,4325386.000000000,1748429169837762.000000000,1748429169837640.000000000
1748429169.847943,7.000000000,4259850.000000000,-0.000020374,-0.000010049,0.000036727,0.000000000,5001.000000000,0.000005287,-0.004429441,-0.047363222,0.000000000,4870.000000000,1.000000000,4325386.000000000,1748429169842761.000000000,1748429169842641.000000000
1748429169.863999,7.000000000,4259850.000000000,-0.000014779,-0.000009515,0.000014356,0.000000000,5002.000000000,0.000032444,-0.004374907,-0.047363780,0.000000000,4871.000000000,1.000000000,4325386.000000000,1748429169857772.000000000,1748429169857646.000000000
1748429169.874915,7.000000000,4259850.000000000,0.000015594,-0.000023635,0.000009027,0.000000000,5002.000000000,0.000005287,-0.004697474,-0.047262512,0.000000000,4870.000000000,1.000000000,4325386.000000000,1748429169867797.000000000,1748429169867649.000000000
1748429169.881971,7.000000000,4259850.000000000,0.000017192,-0.000032427,-0.000015484,0.000000000,5002.000000000,-0.000076240,-0.004781590,-0.047272224,0.000000000,4871.000000000,1.000000000,4325386.000000000,1748429169877770.000000000,1748429169877652.000000000
1748429169.890000,7.000000000,4259850.000000000,0.000012929,-0.000008713,0.000030344,0.000000000,5001.000000000,-0.000121553,-0.004532026,-0.047208127,0.000000000,4871.000000000,1.000000000,4325386.000000000,1748429169882773.000000000,1748429169882653.000000000
1748429169.898085,7.000000000,4259850.000000000,0.000003871,-0.000015376,0.000002367,0.000000000,5002.000000000,-0.000203121,-0.004596766,-0.047144018,0.000000000,4871.000000000,1.000000000,4325386.000000000,1748429169892776.000000000,1748429169892656.000000000
1748429169.907002,7.000000000,4259850.000000000,-0.000002521,-0.000010317,-0.000011752,0.000000000,5001.000000000,0.000113985,-0.004401714,-0.047390684,0.000000000,4870.000000000,1.000000000,4325386.000000000,1748429169902778.000000000,1748429169902658.000000000
1748429169.923045,7.000000000,4259850.000000000,0.000019319,-0.000010043,-0.000007221,0.000000000,5001.000000000,0.000195509,-0.004623534,-0.047189273,0.000000000,4870.000000000,1.000000000,4325386.000000000,1748429169917782.000000000,1748429169917663.000000000
1748429169.933069,7.000000000,4259850.000000000,0.000029980,-0.000010048,-0.000029871,0.000000000,5002.000000000,0.000204567,-0.004447926,-0.047198419,0.000000000,4870.000000000,1.000000000,4325386.000000000,1748429169927793.000000000,1748429169927666.000000000
1748429169.943023,7.000000000,4259850.000000000,-0.000030490,-0.000005246,-0.000016275,0.000000000,5001.000000000,0.000286155,-0.004263939,-0.047382101,0.000000000,4871.000000000,1.000000000,4325386.000000000,1748429169937787.000000000,1748429169937668.000000000
1748429169.954973,7.000000000,4259850.000000000,-0.000008117,-0.000016967,-0.000003487,0.000000000,5001.000000000,0.000249889,-0.004559788,-0.047363773,0.000000000,4871.000000000,1.000000000,4325386.000000000,1748429169947791.000000000,1748429169947671.000000000
1748429169.964972,7.000000000,4259850.000000000,0.000004661,-0.000014579,0.000013580,0.000000000,5002.000000000,0.000240849,-0.004365634,-0.047354639,0.000000000,4871.000000000,1.000000000,4325386.000000000,1748429169957825.000000000,1748429169957675.000000000
1748429169.974126,7.000000000,4259850.000000000,0.000010532,0.000015529,0.000052188,0.000000000,5002.000000000,-0.000058134,-0.004661475,-0.047308851,0.000000000,4871.000000000,1.000000000,4325386.000000000,1748429169967885.000000000,1748429169967677.000000000
1748429169.977967,7.000000000,4259850.000000000,0.000006006,0.000023518,-0.000020541,0.000000000,5001.000000000,-0.000067179,-0.004697474,-0.047061104,0.000000000,4870.000000000,1.000000000,4325386.000000000,1748429169972903.000000000,1748429169972678.000000000
1748429169.988000,7.000000000,4259850.000000000,-0.000006507,-0.000005536,-0.000010142,0.000000000,5004.000000000,-0.000175877,-0.004752930,-0.047225893,0.000000000,4870.000000000,1.000000000,4325386.000000000,1748429169982972.000000000,1748429169982684.000000000
1748429169.997957,7.000000000,4259850.000000000,-0.000003056,0.000018453,-0.000008558,0.000000000,5001.000000000,-0.000103418,-0.004624482,-0.047391262,0.000000000,4871.000000000,1.000000000,4325386.000000000,1748429169992813.000000000,1748429169992684.000000000
1748429170.008972,7.000000000,4259850.000000000,-0.000006519,0.000009135,-0.000024276,0.000000000,5002.000000000,0.000077750,-0.004495052,-0.047308847,0.000000000,4871.000000000,1.000000000,4325386.000000000,1748429170002809.000000000,1748429170002687.000000000
1748429170.023083,7.000000000,4259850.000000000,-0.000008122,0.000014456,0.000002906,0.000000000,5001.000000000,0.000213656,-0.004467336,-0.047235601,0.000000000,4871.000000000,1.000000000,4325386.000000000,1748429170017815.000000000,1748429170017691.000000000
1748429170.034023,7.000000000,4259850.000000000,0.000008666,0.000008337,0.000055104,0.000000000,5001.000000000,0.000168369,-0.004226962,-0.047354639,0.000000000,4871.000000000,1.000000000,4325386.000000000,1748429170027824.000000000,1748429170027694.000000000
1748429170.044982,7.000000000,4259850.000000000,0.000007068,-0.000000989,0.000012224,0.000000000,5002.000000000,0.000231784,-0.004458082,-0.047253892,0.000000000,4871.000000000,1.000000000,4325386.000000000,1748429170037815.000000000,1748429170037697.000000000
1748429170.054922,7.000000000,4259850.000000000,-0.000044884,0.000001142,-0.000008290,0.000000000,5002.000000000,0.000394883,-0.004448851,-0.047299691,0.000000000,4871.000000000,1.000000000,4325386.000000000,1748429170047822.000000000,1748429170047700.000000000
1748429170.057956,7.000000000,4259850.000000000,-0.000022505,-0.000011113,0.000003166,0.000000000,5002.000000000,0.000497140,-0.006617336,-0.070802756,0.000000000,7306.000000000,1.000000000,4325386.000000000,1748429170057830.000000000,1748429170057703.000000000
1748429170.070986,7.000000000,4259850.000000000,0.000039830,-0.000009783,-0.000003495,0.000000000,5001.000000000,0.000277078,-0.004569019,-0.047171500,0.000000000,4871.000000000,1.000000000,4325386.000000000,1748429170062821.000000000,1748429170062704.000000000
1748429170.080034,7.000000000,4259850.000000000,-0.000009983,-0.000007117,-0.000017615,0.000000000,5002.000000000,-0.000040003,-0.004606009,-0.047226440,0.000000000,4871.000000000,1.000000000,4325386.000000000,1748429170072828.000000000,1748429170072707.000000000
1748429170.087919,7.000000000,4259850.000000000,-0.000010249,-0.000005785,-0.000058111,0.000000000,5002.000000000,0.000195532,-0.004596762,-0.047281381,0.000000000,4871.000000000,1.000000000,4325386.000000000,1748429170082830.000000000,1748429170082710.000000000
1748429170.098908,7.000000000,4259850.000000000,-0.000024103,0.000026452,-0.000057845,0.000000000,5002.000000000,0.000159314,-0.004587497,-0.047327168,0.000000000,4871.000000000,1.000000000,4325386.000000000,1748429170092831.000000000,1748429170092713.000000000
1748429170.108922,7.000000000,4259850.000000000,-0.000013708,-0.000001251,-0.000001364,0.000000000,5001.000000000,0.000032475,-0.004671665,-0.047382671,0.000000000,4872.000000000,1.000000000,4325386.000000000,1748429170102836.000000000,1748429170102715.000000000
1748429170.123068,7.000000000,4259850.000000000,-0.000020377,-0.000027897,-0.000004029,0.000000000,5001.000000000,-0.000058142,-0.004559765,-0.047290530,0.000000000,4871.000000000,1.000000000,4325386.000000000,1748429170117842.000000000,1748429170117719.000000000
1748429170.128953,7.000000000,4259850.000000000,0.000014794,-0.000021770,-0.000001630,0.000000000,5002.000000000,-0.000139644,-0.004309288,-0.047299132,0.000000000,4870.000000000,1.000000000,4325386.000000000,1748429170122844.000000000,1748429170122721.000000000
1748429170.145010,7.000000000,4259850.000000000,0.000010530,-0.000015641,-0.000004297,0.000000000,5001.000000000,0.000023408,-0.004448828,-0.047345482,0.000000000,4871.000000000,1.000000000,4325386.000000000,1748429170137847.000000000,1748429170137725.000000000
1748429170.154960,7.000000000,4259850.000000000,-0.000019575,-0.000000985,0.000010626,0.000000000,5001.000000000,0.000277074,-0.004430358,-0.047281384,0.000000000,4871.000000000,1.000000000,4325386.000000000,1748429170147865.000000000,1748429170147728.000000000
1748429170.161050,7.000000000,4259850.000000000,-0.000016910,0.000018459,0.000003965,0.000000000,5002.000000000,0.000159276,-0.004318531,-0.047344908,0.000000000,4870.000000000,1.000000000,4325386.000000000,1748429170157857.000000000,1748429170157731.000000000
1748429170.169988,7.000000000,4259850.000000000,-0.000007852,-0.000013511,-0.000008290,0.000000000,5002.000000000,0.000123063,-0.004569004,-0.047153182,0.000000000,4871.000000000,1.000000000,4325386.000000000,1748429170167857.000000000,1748429170167734.000000000
1748429170.187020,7.000000000,4259850.000000000,0.000008933,0.000002474,-0.000019480,0.000000000,5002.000000000,0.000050608,-0.004347164,-0.047345482,0.000000000,4871.000000000,1.000000000,4325386.000000000,1748429170177873.000000000,1748429170177755.000000000
1748429170.189997,7.000000000,4259850.000000000,0.000009470,-0.000000184,0.000030335,0.000000000,5001.000000000,0.000258965,-0.004698445,-0.047299672,0.000000000,4871.000000000,1.000000000,4325386.000000000,1748429170182877.000000000,1748429170182756.000000000
1748429170.200917,7.000000000,4259850.000000000,0.000047564,0.000010200,-0.000012020,0.000000000,5002.000000000,0.000059622,-0.004624497,-0.047263052,0.000000000,4871.000000000,1.000000000,4325386.000000000,1748429170192881.000000000,1748429170192759.000000000
1748429170.209029,7.000000000,4259850.000000000,-0.000004658,-0.000010333,-0.000035501,0.000000000,5002.000000000,0.000041532,-0.004744684,-0.047290530,0.000000000,4871.000000000,1.000000000,4325386.000000000,1748429170202884.000000000,1748429170202762.000000000
1748429170.224992,7.000000000,4259850.000000000,0.000002809,0.000014726,-0.000007761,0.000000000,5001.000000000,-0.000266510,-0.004670725,-0.047061607,0.000000000,4871.000000000,1.000000000,4325386.000000000,1748429170217886.000000000,1748429170217766.000000000
1748429170.234927,7.000000000,4259850.000000000,-0.000007052,0.000007003,-0.000026407,0.000000000,5002.000000000,-0.000039999,-0.004504295,-0.047180660,0.000000000,4871.000000000,1.000000000,4325386.000000000,1748429170227900.000000000,1748429170227769.000000000
1748429170.238968,7.000000000,4259850.000000000,0.000018520,0.000006997,-0.000001095,0.000000000,5001.000000000,0.000204567,-0.004614291,-0.047280826,0.000000000,4870.000000000,1.000000000,4325386.000000000,1748429170232890.000000000,1748429170232770.000000000
1748429170.253983,7.000000000,4259850.000000000,0.000020157,0.000053092,0.000018612,0.000000000,5002.000000000,0.000195509,-0.004512624,-0.047381535,0.000000000,4870.000000000,1.000000000,4325386.000000000,1748429170247893.000000000,1748429170247775.000000000
1748429170.257927,7.000000000,4259850.000000000,-0.000020907,0.000003807,0.000032205,0.000000000,5001.000000000,0.000213678,-0.004541291,-0.047345463,0.000000000,4871.000000000,1.000000000,4325386.000000000,1748429170252895.000000000,1748429170252776.000000000
1748429170.269943,7.000000000,4259850.000000000,-0.000001191,0.000010467,0.000010892,0.000000000,5002.000000000,0.000068710,-0.004254682,-0.047189809,0.000000000,4871.000000000,1.000000000,4325386.000000000,1748429170262896.000000000,1748429170262779.000000000
1748429170.277034,7.000000000,4259850.000000000,-0.000023565,0.000017390,-0.000003492,0.000000000,5002.000000000,0.000168334,-0.004494139,-0.047262512,0.000000000,4870.000000000,1.000000000,4325386.000000000,1748429170272903.000000000,1748429170272782.000000000
1748429170.286994,7.000000000,4259850.000000000,-0.000009445,-0.000029487,0.000014096,0.000000000,5001.000000000,0.000304207,-0.004623534,-0.047189273,0.000000000,4870.000000000,1.000000000,4325386.000000000,1748429170282905.000000000,1748429170282784.000000000
1748429170.303942,7.000000000,4259850.000000000,-0.000020107,0.000009401,-0.000045856,0.000000000,5002.000000000,0.000258965,-0.004504303,-0.047290530,0.000000000,4871.000000000,1.000000000,4325386.000000000,1748429170297909.000000000,1748429170297789.000000000
1748429170.313046,7.000000000,4259850.000000000,-0.000009975,-0.000000991,-0.000003225,0.000000000,5001.000000000,0.000005291,-0.004569022,-0.047263063,0.000000000,4871.000000000,1.000000000,4325386.000000000,1748429170307911.000000000,1748429170307791.000000000
1748429170.324913,7.000000000,4259850.000000000,-0.000005453,-0.000031355,-0.000014674,0.000000000,5001.000000000,-0.000012841,-0.004731595,-0.047169305,0.000000000,4867.000000000,1.000000000,4325386.000000000,1748429170317914.000000000,1748429170317794.000000000
1748429170.335061,7.000000000,4259850.000000000,-0.000015575,0.000002738,-0.000021600,0.000000000,5001.000000000,0.000113985,-0.004614292,-0.047143497,0.000000000,4870.000000000,1.000000000,4325386.000000000,1748429170327929.000000000,1748429170327797.000000000
1748429170.340028,7.000000000,4259850.000000000,0.000013995,0.000021124,-0.000014418,0.000000000,5002.000000000,0.000234412,-0.006931628,-0.071031660,0.000000000,7306.000000000,1.000000000,4325386.000000000,1748429170338016.000000000,1748429170337800.000000000
1748429170.351040,7.000000000,4259850.000000000,-0.000002522,0.000001940,0.000000508,0.000000000,5001.000000000,0.000104927,-0.004521866,-0.047344908,0.000000000,4870.000000000,1.000000000,4325386.000000000,1748429170342971.000000000,1748429170342801.000000000
1748429170.360952,7.000000000,4259850.000000000,-0.000009713,-0.000022294,0.000021550,0.000000000,5001.000000000,-0.000021888,-0.004373985,-0.047308289,0.000000000,4870.000000000,1.000000000,4325386.000000000,1748429170353037.000000000,1748429170352804.000000000
1748429170.369092,7.000000000,4259850.000000000,-0.000014243,-0.000027357,0.000037791,0.000000000,5001.000000000,0.000005288,-0.004328660,-0.047263060,0.000000000,4871.000000000,1.000000000,4325386.000000000,1748429170362935.000000000,1748429170362807.000000000
1748429170.377926,7.000000000,4259850.000000000,0.000004132,-0.000024162,-0.000008021,0.000000000,5001.000000000,0.000086810,-0.004494139,-0.047335759,0.000000000,4870.000000000,1.000000000,4325386.000000000,1748429170372938.000000000,1748429170372810.000000000
1748429170.387036,7.000000000,4259850.000000000,0.000001473,0.000003273,0.000019950,0.000000000,5002.000000000,0.000231741,-0.004568079,-0.047271665,0.000000000,4870.000000000,1.000000000,4325386.000000000,1748429170382931.000000000,1748429170382813.000000000
1748429170.398051,7.000000000,4259850.000000000,0.000016659,0.000010467,0.000013290,0.000000000,5002.000000000,0.000421963,-0.004457168,-0.047299132,0.000000000,4870.000000000,1.000000000,4325386.000000000,1748429170392938.000000000,1748429170392816.000000000
1748429170.414974,7.000000000,4259850.000000000,0.000012395,-0.000054261,-0.000018417,0.000000000,5001.000000000,0.000195562,-0.004541284,-0.047308840,0.000000000,4871.000000000,1.000000000,4325386.000000000,1748429170407974.000000000,1748429170407820.000000000
1748429170.424031,7.000000000,4259850.000000000,0.000013995,-0.000021770,-0.000007225,0.000000000,5002.000000000,0.000168358,-0.004532034,-0.047308847,0.000000000,4871.000000000,1.000000000,4325386.000000000,1748429170417946.000000000,1748429170417823.000000000
1748429170.428998,7.000000000,4259850.000000000,-0.000018503,0.000008331,0.000034058,0.000000000,5001.000000000,0.000288734,-0.006810527,-0.070866302,0.000000000,7305.000000000,1.000000000,4325386.000000000,1748429170428013.000000000,1748429170427825.000000000
1748429170.440946,7.000000000,4259850.000000000,0.000008400,-0.000025234,0.000001301,0.000000000,5002.000000000,-0.000003785,-0.004467325,-0.047290538,0.000000000,4871.000000000,1.000000000,4325386.000000000,1748429170437947.000000000,1748429170437829.000000000
1748429170.449972,7.000000000,4259850.000000000,0.000013456,0.000020587,0.000001829,0.000000000,5001.000000000,0.000005287,-0.004484896,-0.047418155,0.000000000,4870.000000000,1.000000000,4325386.000000000,1748429170442948.000000000,1748429170442830.000000000
1748429170.457955,7.000000000,4259850.000000000,-0.000014779,0.000002741,0.000014622,0.000000000,5002.000000000,-0.000148746,-0.004458097,-0.047180641,0.000000000,4871.000000000,1.000000000,4325386.000000000,1748429170452952.000000000,1748429170452833.000000000
1748429170.466998,7.000000000,4259850.000000000,-0.000000925,-0.000036157,0.000013556,0.000000000,5002.000000000,0.000023403,-0.004531109,-0.047326598,0.000000000,4870.000000000,1.000000000,4325386.000000000,1748429170462961.000000000,1748429170462836.000000000
1748429170.476995,7.000000000,4259850.000000000,0.000018251,-0.000012977,-0.000023731,0.000000000,5001.000000000,0.000068710,-0.004541295,-0.047189817,0.000000000,4871.000000000,1.000000000,4325386.000000000,1748429170472971.000000000,1748429170472838.000000000
1748429170.493959,7.000000000,4259850.000000000,-0.000013713,0.000035244,0.000009027,0.000000000,5002.000000000,0.000159276,-0.004438684,-0.047308289,0.000000000,4870.000000000,1.000000000,4325386.000000000,1748429170487960.000000000,1748429170487843.000000000
1748429170.505021,7.000000000,4259850.000000000,0.000006539,-0.000022301,0.000017012,0.000000000,5001.000000000,0.000068694,-0.004438684,-0.047308289,0.000000000,4870.000000000,1.000000000,4325386.000000000,1748429170497968.000000000,1748429170497845.000000000
1748429170.514943,7.000000000,4259850.000000000,0.000040099,0.000027248,-0.000002963,0.000000000,5001.000000000,0.000141163,-0.004549621,-0.047317445,0.000000000,4870.000000000,1.000000000,4325386.000000000,1748429170507969.000000000,1748429170507848.000000000
1748429170.522024,7.000000000,4259850.000000000,0.000006269,-0.000016175,-0.000014951,0.000000000,5002.000000000,0.000222683,-0.004549594,-0.047299132,0.000000000,4870.000000000,1.000000000,4325386.000000000,1748429170512973.000000000,1748429170512850.000000000
1748429170.530056,7.000000000,4259850.000000000,-0.000016108,0.000036051,0.000015694,0.000000000,5003.000000000,0.000488014,-0.006865982,-0.070783906,0.000000000,7305.000000000,1.000000000,4325386.000000000,1748429170522976.000000000,1748429170522854.000000000
1748429170.541943,7.000000000,4259850.000000000,-0.000012109,-0.000005513,0.000033797,0.000000000,5001.000000000,0.000159276,-0.004383228,-0.047354061,0.000000000,4870.000000000,1.000000000,4325386.000000000,1748429170532973.000000000,1748429170532855.000000000
1748429170.550978,7.000000000,4259850.000000000,0.000012127,-0.000015108,0.000011425,0.000000000,5001.000000000,0.000222733,-0.004522795,-0.047372945,0.000000000,4871.000000000,1.000000000,4325386.000000000,1748429170542980.000000000,1748429170542858.000000000
1748429170.557034,7.000000000,4259850.000000000,0.000005468,-0.000029487,0.000005033,0.000000000,5001.000000000,0.000014345,-0.004401714,-0.047189273,0.000000000,4870.000000000,1.000000000,4325386.000000000,1748429170552979.000000000,1748429170552861.000000000
1748429170.567025,7.000000000,4259850.000000000,0.000006794,-0.000010313,0.000002904,0.000000000,5001.000000000,0.000068694,-0.004558837,-0.047170967,0.000000000,4870.000000000,1.000000000,4325386.000000000,1748429170562995.000000000,1748429170562864.000000000
1748429170.576983,7.000000000,4259850.000000000,0.000042236,-0.000020971,0.000000502,0.000000000,5002.000000000,0.000032453,-0.004511692,-0.047216196,0.000000000,4869.000000000,1.000000000,4325386.000000000,1748429170572989.000000000,1748429170572867.000000000
1748429170.593937,7.000000000,4259850.000000000,-0.000017973,0.000008069,0.000019411,0.000000000,5001.000000000,0.000068683,-0.004364762,-0.047308289,0.000000000,4870.000000000,1.000000000,4325386.000000000,1748429170587997.000000000,1748429170587871.000000000
1748429170.604055,7.000000000,4259850.000000000,-0.000011049,-0.000031894,-0.000007225,0.000000000,5002.000000000,0.000077752,-0.004410956,-0.047271665,0.000000000,4870.000000000,1.000000000,4325386.000000000,1748429170597998.000000000,1748429170597874.000000000
1748429170.614105,7.000000000,4259850.000000000,-0.000012914,0.000025919,-0.000000564,0.000000000,5002.000000000,-0.000030960,-0.004430354,-0.047244750,0.000000000,4871.000000000,1.000000000,4325386.000000000,1748429170607999.000000000,1748429170607877.000000000
1748429170.624001,7.000000000,4259850.000000000,0.000014256,-0.000013244,-0.000003761,0.000000000,5001.000000000,0.000113985,-0.004540351,-0.047235046,0.000000000,4870.000000000,1.000000000,4325386.000000000,1748429170618002.000000000,1748429170617880.000000000
1748429170.629992,7.000000000,4259850.000000000,-0.000021970,-0.000021766,-0.000002955,0.000000000,5001.000000000,0.000095900,-0.004430343,-0.047198966,0.000000000,4871.000000000,1.000000000,4325386.000000000,1748429170622999.000000000,1748429170622881.000000000
1748429170.643985,7.000000000,4259850.000000000,0.000025979,-0.000006852,-0.000015209,0.000000000,5001.000000000,0.000172335,-0.004885737,-0.051943220,0.000000000,5358.000000000,1.000000000,4325386.000000000,1748429170638007.000000000,1748429170637885.000000000
1748429170.649035,7.000000000,4259850.000000000,-0.000023038,-0.000010847,0.000023680,0.000000000,5002.000000000,0.000231787,-0.004550526,-0.047244731,0.000000000,4871.000000000,1.000000000,4325386.000000000,1748429170643005.000000000,1748429170642887.000000000
1748429170.657995,7.000000000,4259850.000000000,-0.000012914,0.000006738,0.000035657,0.000000000,5001.000000000,0.000150245,-0.004615247,-0.047244743,0.000000000,4871.000000000,1.000000000,4325386.000000000,1748429170653007.000000000,1748429170652889.000000000
1748429170.667978,7.000000000,4259850.000000000,-0.000008648,0.000016592,-0.000019483,0.000000000,5001.000000000,0.000141160,-0.004521866,-0.047253352,0.000000000,4870.000000000,1.000000000,4325386.000000000,1748429170663019.000000000,1748429170662892.000000000
1748429170.677930,7.000000000,4259850.000000000,0.000020920,-0.000025496,-0.000018681,0.000000000,5001.000000000,0.000086834,-0.004578262,-0.047226444,0.000000000,4871.000000000,1.000000000,4325386.000000000,1748429170673014.000000000,1748429170672895.000000000
1748429170.694991,7.000000000,4259850.000000000,-0.000027562,-0.000012712,0.000009825,0.000000000,5001.000000000,0.000095888,-0.004421100,-0.047372960,0.000000000,4871.000000000,1.000000000,4325386.000000000,1748429170688023.000000000,1748429170687899.000000000
1748429170.704944,7.000000000,4259850.000000000,-0.000032891,0.000000347,0.000014893,0.000000000,5001.000000000,0.000086810,-0.004355501,-0.047308289,0.000000000,4870.000000000,1.000000000,4325386.000000000,1748429170698024.000000000,1748429170697902.000000000
1748429170.714999,7.000000000,4259850.000000000,-0.000015573,0.000010999,0.000013548,0.000000000,5001.000000000,0.000032455,-0.004476571,-0.047198966,0.000000000,4871.000000000,1.000000000,4325386.000000000,1748429170708029.000000000,1748429170707905.000000000
1748429170.724991,7.000000000,4259850.000000000,0.000002538,-0.000023371,0.000039933,0.000000000,5001.000000000,0.000132101,-0.004586564,-0.047372375,0.000000000,4870.000000000,1.000000000,4325386.000000000,1748429170718059.000000000,1748429170717908.000000000
1748429170.734988,7.000000000,4259850.000000000,-0.000023571,0.000008868,0.000015954,0.000000000,5002.000000000,0.000207292,-0.006847490,-0.070774756,0.000000000,7305.000000000,1.000000000,4325386.000000000,1748429170728195.000000000,1748429170727911.000000000
1748429170.741089,7.000000000,4259850.000000000,0.000024119,-0.000008712,-0.000017076,0.000000000,5001.000000000,0.000159303,-0.004596759,-0.047235582,0.000000000,4871.000000000,1.000000000,4325386.000000000,1748429170733185.000000000,1748429170732912.000000000
1748429170.750018,7.000000000,4259850.000000000,-0.000016112,-0.000022040,0.000020228,0.000000000,5002.000000000,-0.000067196,-0.004689218,-0.047336321,0.000000000,4871.000000000,1.000000000,4325386.000000000,1748429170743041.000000000,1748429170742916.000000000
1748429170.758940,7.000000000,4259850.000000000,-0.000001185,-0.000005520,0.000002366,0.000000000,5001.000000000,0.000177392,-0.004623534,-0.047198419,0.000000000,4870.000000000,1.000000000,4325386.000000000,1748429170753049.000000000,1748429170752918.000000000
1748429170.767012,7.000000000,4259850.000000000,-0.000019574,-0.000024701,0.000027677,0.000000000,5002.000000000,0.000005287,-0.004540351,-0.047271665,0.000000000,4870.000000000,1.000000000,4325386.000000000,1748429170763046.000000000,1748429170762921.000000000
1748429170.777019,7.000000000,4259850.000000000,-0.000007319,0.000012865,0.000040465,0.000000000,5002.000000000,0.000068706,-0.004495052,-0.047318004,0.000000000,4871.000000000,1.000000000,4325386.000000000,1748429170773042.000000000,1748429170772924.000000000
1748429170.793947,7.000000000,4259850.000000000,-0.000043812,-0.000020166,-0.000015483,0.000000000,5001.000000000,0.000014345,-0.004383228,-0.047335759,0.000000000,4870.000000000,1.000000000,4325386.000000000,1748429170788052.000000000,1748429170787928.000000000
1748429170.797956,7.000000000,4259850.000000000,0.000004932,-0.000003386,-0.000011752,0.000000000,5001.000000000,-0.000021883,-0.004458086,-0.047235601,0.000000000,4871.000000000,1.000000000,4325386.000000000,1748429170793055.000000000,1748429170792929.000000000
1748429170.814042,7.000000000,4259850.000000000,0.000007339,-0.000008979,0.000013817,0.000000000,5001.000000000,-0.000058134,-0.004448821,-0.047327165,0.000000000,4871.000000000,1.000000000,4325386.000000000,1748429170808058.000000000,1748429170807933.000000000
1748429170.825020,7.000000000,4259850.000000000,0.000005466,0.000017660,-0.000013880,0.000000000,5001.000000000,0.000098513,-0.006783740,-0.070912637,0.000000000,7306.000000000,1.000000000,4325386.000000000,1748429170818120.000000000,1748429170817936.000000000
1748429170.831930,7.000000000,4259850.000000000,-0.000003587,-0.000047870,-0.000017350,0.000000000,5001.000000000,0.000014342,-0.004430350,-0.047372948,0.000000000,4871.000000000,1.000000000,4325386.000000000,1748429170828058.000000000,1748429170827939.000000000
1748429170.840986,7.000000000,4259850.000000000,0.000010798,-0.000034559,0.000001567,0.000000000,5002.000000000,0.000095885,-0.004411850,-0.047290530,0.000000000,4871.000000000,1.000000000,4325386.000000000,1748429170833060.000000000,1748429170832941.000000000
1748429170.850919,7.000000000,4259850.000000000,0.000015055,-0.000008714,0.000008486,0.000000000,5001.000000000,0.000195589,-0.004532970,-0.047199491,0.000000000,4872.000000000,1.000000000,4325386.000000000,1748429170843064.000000000,1748429170842943.000000000
1748429170.857111,7.000000000,4259850.000000000,-0.000007852,-0.000022029,-0.000010420,0.000000000,5001.000000000,0.000231795,-0.004698438,-0.047244746,0.000000000,4871.000000000,1.000000000,4325386.000000000,1748429170853066.000000000,1748429170852946.000000000
1748429170.866990,7.000000000,4259850.000000000,-0.000002517,-0.000010843,-0.000010689,0.000000000,5001.000000000,0.000313329,-0.004596750,-0.047290541,0.000000000,4871.000000000,1.000000000,4325386.000000000,1748429170863093.000000000,1748429170862949.000000000
1748429170.876988,7.000000000,4259850.000000000,0.000026246,-0.000001787,0.000010620,0.000000000,5001.000000000,0.000177392,-0.004595807,-0.047244202,0.000000000,4870.000000000,1.000000000,4325386.000000000,1748429170873071.000000000,1748429170872952.000000000
1748429170.893951,7.000000000,4259850.000000000,0.000010269,0.000032036,-0.000015483,0.000000000,5001.000000000,0.000177434,-0.004439582,-0.047235586,0.000000000,4871.000000000,1.000000000,4325386.000000000,1748429170888080.000000000,1748429170887956.000000000
1748429170.904999,7.000000000,4259850.000000000,0.000019052,0.000008066,-0.000018410,0.000000000,5001.000000000,-0.000012830,-0.004568079,-0.047317445,0.000000000,4870.000000000,1.000000000,4325386.000000000,1748429170898080.000000000,1748429170897959.000000000
1748429170.915029,7.000000000,4259850.000000000,-0.000012647,-0.000016442,-0.000008823,0.000000000,5002.000000000,0.000059628,-0.004429464,-0.047143508,0.000000000,4870.000000000,1.000000000,4325386.000000000,1748429170908097.000000000,1748429170907962.000000000
1748429170.923986,7.000000000,4259850.000000000,0.000002537,0.000004068,-0.000038124,0.000000000,5001.000000000,-0.000021888,-0.004475654,-0.047335759,0.000000000,4870.000000000,1.000000000,4325386.000000000,1748429170918087.000000000,1748429170917965.000000000
1748429170.928005,7.000000000,4259850.000000000,-0.000011313,-0.000012444,0.000027134,0.000000000,5001.000000000,-0.000012852,-0.004577336,-0.047280859,0.000000000,4870.000000000,1.000000000,4325386.000000000,1748429170923083.000000000,1748429170922966.000000000
1748429170.940042,7.000000000,4259850.000000000,-0.000012110,-0.000040674,0.000007421,0.000000000,5001.000000000,-0.000067349,-0.004482960,-0.047404297,0.000000000,4878.000000000,1.000000000,4325386.000000000,1748429170933090.000000000,1748429170932969.000000000
1748429170.947995,7.000000000,4259850.000000000,0.000004137,-0.000012712,0.000014356,0.000000000,5002.000000000,-0.000021888,-0.004614292,-0.047289975,0.000000000,4870.000000000,1.000000000,4325386.000000000,1748429170943092.000000000,1748429170942972.000000000
1748429170.957998,7.000000000,4259850.000000000,0.000011864,0.000008602,0.000013023,0.000000000,5002.000000000,0.000159252,-0.004539427,-0.047298569,0.000000000,4869.000000000,1.000000000,4325386.000000000,1748429170953095.000000000,1748429170952975.000000000
1748429170.966996,7.000000000,4259850.000000000,-0.000000125,0.000025919,0.000018885,0.000000000,5002.000000000,0.000177392,-0.004660504,-0.047180116,0.000000000,4870.000000000,1.000000000,4325386.000000000,1748429170963106.000000000,1748429170962978.000000000
