__time,/offboard/controller_debug/angular_velocity,/offboard/controller_debug/pitch_angle,/offboard/controller_debug/pitch_angle_setpoint,/offboard/controller_debug/stamp/nanosec,/offboard/controller_debug/stamp/sec,/offboard/controller_debug/tilt_angle
1749047943.661121,-0.006377149,0.201959461,0.000000000,660636954.000000000,1749047943.000000000,-0.375231057
1749047943.681097,-0.001479825,0.201970890,0.000000000,680677411.000000000,1749047943.000000000,-0.385016054
1749047943.700620,0.000695221,0.201927245,0.000000000,700567906.000000000,1749047943.000000000,-0.392446995
1749047943.720731,-0.003345719,0.201919064,0.000000000,720661825.000000000,1749047943.000000000,-0.394800037
1749047943.740781,0.000300451,0.201892942,0.000000000,740720637.000000000,1749047943.000000000,-0.403479129
1749047943.760602,-0.002627941,0.201923683,0.000000000,760555536.000000000,1749047943.000000000,-0.406823844
1749047943.780607,0.000476772,0.201901004,0.000000000,780553344.000000000,1749047943.000000000,-0.415061533
1749047943.800695,-0.001657147,0.201864988,0.000000000,800629058.000000000,1749047943.000000000,-0.418939829
1749047943.820884,0.001700379,0.201904297,0.000000000,820774945.000000000,1749047943.000000000,-0.427500069
1749047943.840728,-0.001358650,0.201862186,0.000000000,840661422.000000000,1749047943.000000000,-0.430601776
1749047943.860645,-0.006602270,0.201822132,0.000000000,860573948.000000000,1749047943.000000000,-0.431898892
1749047943.880602,0.001455811,0.201764584,0.000000000,880552368.000000000,1749047943.000000000,-0.444166899
1749047943.900622,-0.001258895,0.201788947,0.000000000,900557750.000000000,1749047943.000000000,-0.447672933
1749047943.920714,0.000746905,0.201760858,0.000000000,920635067.000000000,1749047943.000000000,-0.454987615
1749047943.940696,-0.006653348,0.201751217,0.000000000,940652331.000000000,1749047943.000000000,-0.454554081
1749047943.960635,-0.007257927,0.201562688,0.000000000,960578673.000000000,1749047943.000000000,-0.459410369
1749047943.980638,-0.016327741,0.201468155,0.000000000,980563125.000000000,1749047943.000000000,-0.457432508
1749047944.000647,-0.018945530,0.201060951,0.000000000,608823.000000000,1749047944.000000000,-0.460209429
1749047944.020799,-0.019785898,0.200667620,0.000000000,20706759.000000000,1749047944.000000000,-0.464471102
1749047944.040650,-0.031893171,0.200141609,0.000000000,40618874.000000000,1749047944.000000000,-0.459154248
1749047944.060629,-0.038728181,0.199498922,0.000000000,60580022.000000000,1749047944.000000000,-0.457967758
1749047944.080620,-0.047836579,0.198689714,0.000000000,80578400.000000000,1749047944.000000000,-0.454573303
1749047944.100694,-0.056807399,0.198003322,0.000000000,100626292.000000000,1749047944.000000000,-0.451497674
1749047944.120690,-0.069259755,0.196551144,0.000000000,120631282.000000000,1749047944.000000000,-0.444101214
1749047944.140809,-0.077798001,0.195065975,0.000000000,140756731.000000000,1749047944.000000000,-0.439840674
1749047944.160614,-0.108436458,0.193216324,0.000000000,160563497.000000000,1749047944.000000000,-0.416578144
1749047944.180668,-0.112498440,0.191076428,0.000000000,180638620.000000000,1749047944.000000000,-0.414711416
1749047944.200655,-0.152906165,0.188345209,0.000000000,200596281.000000000,1749047944.000000000,-0.381617963
1749047944.220924,-0.189604595,0.185200572,0.000000000,220805588.000000000,1749047944.000000000,-0.350748718
1749047944.240790,-0.215010867,0.182336971,0.000000000,240724175.000000000,1749047944.000000000,-0.329654098
1749047944.260600,-0.251049429,0.176806808,0.000000000,260560067.000000000,1749047944.000000000,-0.294733822
1749047944.280604,-0.283945739,0.171651393,0.000000000,280562743.000000000,1749047944.000000000,-0.262952209
1749047944.300675,-0.295072615,0.165902078,0.000000000,300615193.000000000,1749047944.000000000,-0.247932434
1749047944.320745,-0.327439129,0.159465134,0.000000000,320642406.000000000,1749047944.000000000,-0.213902399
1749047944.340678,-0.370341837,0.152389720,0.000000000,340613372.000000000,1749047944.000000000,-0.169788852
1749047944.360685,-0.377767891,0.146835998,0.000000000,360630045.000000000,1749047944.000000000,-0.157648966
1749047944.380642,-0.402361363,0.136984125,0.000000000,380606071.000000000,1749047944.000000000,-0.123172969
1749047944.400695,-0.420166939,0.128593877,0.000000000,400639806.000000000,1749047944.000000000,-0.096746355
1749047944.420726,-0.435520947,0.119874500,0.000000000,420660256.000000000,1749047944.000000000,-0.071499884
1749047944.440836,-0.457863033,0.110888861,0.000000000,440769103.000000000,1749047944.000000000,-0.039731398
1749047944.460709,-0.464239836,0.101656042,0.000000000,460652303.000000000,1749047944.000000000,-0.020458117
1749047944.480720,-0.469695091,0.092315465,0.000000000,480671190.000000000,1749047944.000000000,-0.001486152
1749047944.500707,-0.471210539,0.085235417,0.000000000,500635484.000000000,1749047944.000000000,0.010295585
1749047944.520597,-0.475150913,0.075795516,0.000000000,520560714.000000000,1749047944.000000000,0.028663069
1749047944.541401,-0.465895325,0.063954830,0.000000000,541082120.000000000,1749047944.000000000,0.040835842
1749047944.560648,-0.462788343,0.054597609,0.000000000,560611462.000000000,1749047944.000000000,0.053821534
1749047944.580729,-0.451881945,0.045395058,0.000000000,580666798.000000000,1749047944.000000000,0.060332388
1749047944.600651,-0.447663665,0.036395561,0.000000000,600611545.000000000,1749047944.000000000,0.072259784
1749047944.620754,-0.436784178,0.027582437,0.000000000,620691778.000000000,1749047944.000000000,0.078585014
1749047944.641146,-0.423958480,0.016893199,0.000000000,641078319.000000000,1749047944.000000000,0.087031081
1749047944.660655,-0.405338168,0.012739725,0.000000000,660604515.000000000,1749047944.000000000,0.078856647
1749047944.680646,-0.396885753,0.002654469,0.000000000,680608444.000000000,1749047944.000000000,0.090219691
1749047944.700630,-0.371622473,-0.005022614,0.000000000,700580973.000000000,1749047944.000000000,0.083491296
1749047944.720696,-0.354966402,-0.012440399,0.000000000,720639405.000000000,1749047944.000000000,0.083619580
1749047944.741146,-0.338723183,-0.019496420,0.000000000,741059820.000000000,1749047944.000000000,0.083627909
1749047944.760720,-0.334687769,-0.026254063,0.000000000,760658844.000000000,1749047944.000000000,0.093381569
1749047944.780593,-0.307279080,-0.031032247,0.000000000,780551402.000000000,1749047944.000000000,0.080316216
1749047944.800680,-0.287530571,-0.038654469,0.000000000,800640612.000000000,1749047944.000000000,0.079001158
1749047944.820834,-0.285761595,-0.044410758,0.000000000,820740432.000000000,1749047944.000000000,0.089313418
1749047944.840735,-0.252997488,-0.049764045,0.000000000,840699546.000000000,1749047944.000000000,0.073398352
1749047944.860593,-0.240074471,-0.054736756,0.000000000,860565424.000000000,1749047944.000000000,0.073342904
1749047944.880595,-0.218154058,-0.059320260,0.000000000,880564253.000000000,1749047944.000000000,0.065262333
1749047944.900625,-0.210116029,-0.063669071,0.000000000,900586466.000000000,1749047944.000000000,0.068360701
1749047944.920719,-0.192689627,-0.066618182,0.000000000,920686777.000000000,1749047944.000000000,0.061217591
1749047944.940773,-0.167694360,-0.071141690,0.000000000,940703580.000000000,1749047944.000000000,0.050817907
1749047944.960631,-0.145299345,-0.074318111,0.000000000,960564047.000000000,1749047944.000000000,0.040197432
1749047944.980633,-0.132179037,-0.077179477,0.000000000,980592532.000000000,1749047944.000000000,0.036755070
1749047945.000609,-0.107988521,-0.079700828,0.000000000,572516.000000000,1749047945.000000000,0.023604318
1749047945.020629,-0.096946195,-0.081869029,0.000000000,20563781.000000000,1749047945.000000000,0.020746961
1749047945.040675,-0.081606314,-0.083308570,0.000000000,40614608.000000000,1749047945.000000000,0.013043344
1749047945.060639,-0.066293970,-0.084930927,0.000000000,60595683.000000000,1749047945.000000000,0.005742475
1749047945.080668,-0.057996675,-0.086530514,0.000000000,80614139.000000000,1749047945.000000000,0.004248798
1749047945.100674,-0.047672305,-0.087472923,0.000000000,100621334.000000000,1749047945.000000000,-0.000096232
1749047945.120670,-0.028433979,-0.088176183,0.000000000,120598091.000000000,1749047945.000000000,-0.012232900
1749047945.140677,-0.018220015,-0.088648759,0.000000000,140612249.000000000,1749047945.000000000,-0.017311960
1749047945.160605,-0.007053603,-0.088965014,0.000000000,160571373.000000000,1749047945.000000000,-0.023455694
1749047945.180655,-0.002291971,-0.089042395,0.000000000,180610167.000000000,1749047945.000000000,-0.024735093
1749047945.200697,0.013614993,-0.088998638,0.000000000,200645926.000000000,1749047945.000000000,-0.035457641
1749047945.220626,0.014699508,-0.088660039,0.000000000,220576596.000000000,1749047945.000000000,-0.034465998
1749047945.240649,0.030256707,-0.088224567,0.000000000,240611313.000000000,1749047945.000000000,-0.045636952
1749047945.260585,0.026186995,-0.087617449,0.000000000,260550339.000000000,1749047945.000000000,-0.040901423
1749047945.280606,0.031599980,-0.087099910,0.000000000,280565088.000000000,1749047945.000000000,-0.043861851
1749047945.300632,0.026402337,-0.086495325,0.000000000,300587702.000000000,1749047945.000000000,-0.038220286
1749047945.320906,0.030146949,-0.086065896,0.000000000,320782862.000000000,1749047945.000000000,-0.039668694
1749047945.340805,0.022422614,-0.085448645,0.000000000,340741084.000000000,1749047945.000000000,-0.031989560
1749047945.360702,0.019755682,-0.085026942,0.000000000,360662507.000000000,1749047945.000000000,-0.028148979
1749047945.380713,0.017291391,-0.084740438,0.000000000,380659552.000000000,1749047945.000000000,-0.024237067
1749047945.400706,0.006878812,-0.084569953,0.000000000,400651488.000000000,1749047945.000000000,-0.013542309
1749047945.420736,0.004217403,-0.084500305,0.000000000,420692597.000000000,1749047945.000000000,-0.009077802
1749047945.440820,-0.008105962,-0.084647872,0.000000000,440750057.000000000,1749047945.000000000,0.003781185
1749047945.460601,-0.014304755,-0.084806345,0.000000000,460551603.000000000,1749047945.000000000,0.011597708
1749047945.480682,-0.021505402,-0.085191399,0.000000000,480651022.000000000,1749047945.000000000,0.020668060
1749047945.500699,-0.024804048,-0.085570127,0.000000000,500645663.000000000,1749047945.000000000,0.026509404
1749047945.520796,-0.020156737,-0.085992567,0.000000000,520697362.000000000,1749047945.000000000,0.025868922
1749047945.540885,-0.016426522,-0.086404808,0.000000000,540786201.000000000,1749047945.000000000,0.025980160
1749047945.560683,-0.013332237,-0.086759523,0.000000000,560638673.000000000,1749047945.000000000,0.026522398
1749047945.580677,-0.004125262,-0.086886421,0.000000000,580616152.000000000,1749047945.000000000,0.021594867
1749047945.600650,0.002976218,-0.086927183,0.000000000,600574975.000000000,1749047945.000000000,0.018252954
1749047945.620824,0.004120586,-0.086843759,0.000000000,620769724.000000000,1749047945.000000000,0.019610032
1749047945.640738,0.014558929,-0.086603537,0.000000000,640680828.000000000,1749047945.000000000,0.012984887
1749047945.660674,0.014701071,-0.086247519,0.000000000,660633589.000000000,1749047945.000000000,0.014656112
1749047945.680714,0.029490899,-0.085685641,0.000000000,680663487.000000000,1749047945.000000000,0.003817186
1749047945.700710,0.029814165,-0.085116252,0.000000000,700646847.000000000,1749047945.000000000,0.004916593
1749047945.720744,0.032146040,-0.084490359,0.000000000,720652168.000000000,1749047945.000000000,0.004233360
1749047945.740859,0.033130568,-0.083817631,0.000000000,740794338.000000000,1749047945.000000000,0.004560150
1749047945.760631,0.031298339,-0.083134465,0.000000000,760591686.000000000,1749047945.000000000,0.007178821
1749047945.780696,0.031745888,-0.082488865,0.000000000,780656820.000000000,1749047945.000000000,0.007961854
1749047945.800673,0.029005583,-0.081884764,0.000000000,800624541.000000000,1749047945.000000000,0.011440933
1749047945.820910,0.027224526,-0.081320293,0.000000000,820786738.000000000,1749047945.000000000,0.014182903
1749047945.841193,0.023778837,-0.080742732,0.000000000,841101954.000000000,1749047945.000000000,0.018261760
1749047945.860651,0.023084030,-0.080121383,0.000000000,860618492.000000000,1749047945.000000000,0.019967191
1749047945.880716,0.028718794,-0.079719841,0.000000000,880662216.000000000,1749047945.000000000,0.016826533
1749047945.900695,0.022645988,-0.079280488,0.000000000,900649012.000000000,1749047945.000000000,0.023290023
1749047945.920658,0.018176306,-0.078959323,0.000000000,920623996.000000000,1749047945.000000000,0.028634153
1749047945.940817,0.011919713,-0.078622051,0.000000000,940763551.000000000,1749047945.000000000,0.035417601
1749047945.961071,0.015297222,-0.078360192,0.000000000,960666980.000000000,1749047945.000000000,0.034361176
1749047945.980730,0.010714215,-0.078141086,0.000000000,980656752.000000000,1749047945.000000000,0.039962433
1749047946.000665,0.005484696,-0.077968374,0.000000000,613782.000000000,1749047946.000000000,0.046178430
1749047946.020857,0.006164648,-0.077785596,0.000000000,20759538.000000000,1749047946.000000000,0.047481969
1749047946.040752,0.002110785,-0.077708520,0.000000000,40699887.000000000,1749047946.000000000,0.052892774
1749047946.060626,0.000846079,-0.077663951,0.000000000,60568760.000000000,1749047946.000000000,0.056054257
1749047946.080642,-0.002003421,-0.077697977,0.000000000,80588949.000000000,1749047946.000000000,0.060671441
1749047946.100688,0.003232108,-0.077692308,0.000000000,100621171.000000000,1749047946.000000000,0.058527187
1749047946.120666,0.001074461,-0.077673845,0.000000000,120604501.000000000,1749047946.000000000,0.062475398
1749047946.141268,0.004292611,-0.077618629,0.000000000,141214253.000000000,1749047946.000000000,0.061907478
1749047946.160701,0.005992936,-0.077487081,0.000000000,160657062.000000000,1749047946.000000000,0.062452041
1749047946.180703,0.007287562,-0.077357642,0.000000000,180631956.000000000,1749047946.000000000,0.063332431
1749047946.200704,0.005044657,-0.077220857,0.000000000,200671101.000000000,1749047946.000000000,0.067122132
1749047946.220680,0.011450246,-0.077010207,0.000000000,220625726.000000000,1749047946.000000000,0.063615970
1749047946.240738,0.016145369,-0.076741844,0.000000000,240696221.000000000,1749047946.000000000,0.061411843
1749047946.260696,0.017416904,-0.076515712,0.000000000,260635116.000000000,1749047946.000000000,0.062110811
1749047946.280724,0.020794548,-0.076074980,0.000000000,280656057.000000000,1749047946.000000000,0.060662750
1749047946.300704,0.018515710,-0.075709291,0.000000000,300660386.000000000,1749047946.000000000,0.064021088
1749047946.320840,0.022850005,-0.075272858,0.000000000,320755908.000000000,1749047946.000000000,0.061766766
1749047946.340692,0.029596521,-0.074785680,0.000000000,340633808.000000000,1749047946.000000000,0.057410296
1749047946.360626,0.029106166,-0.074211001,0.000000000,360572674.000000000,1749047946.000000000,0.058864731
1749047946.380680,0.030187892,-0.073628485,0.000000000,380628400.000000000,1749047946.000000000,0.058987774
1749047946.400702,0.035692625,-0.073140480,0.000000000,400672945.000000000,1749047946.000000000,0.055610582
1749047946.420737,0.037251458,-0.072247222,0.000000000,420662587.000000000,1749047946.000000000,0.054731969
1749047946.440788,0.039545599,-0.071510129,0.000000000,440737289.000000000,1749047946.000000000,0.053509589
1749047946.460688,0.043297350,-0.070676640,0.000000000,460648071.000000000,1749047946.000000000,0.050881565
1749047946.480669,0.039106935,-0.069880150,0.000000000,480635299.000000000,1749047946.000000000,0.054869220
1749047946.500690,0.046531420,-0.068950661,0.000000000,500664645.000000000,1749047946.000000000,0.048978496
1749047946.520680,0.054254852,-0.067960188,0.000000000,520637134.000000000,1749047946.000000000,0.042700998
1749047946.540713,0.056276843,-0.066906117,0.000000000,540661421.000000000,1749047946.000000000,0.040994264
1749047946.560687,0.057310555,-0.066063195,0.000000000,560641635.000000000,1749047946.000000000,0.040467162
1749047946.580716,0.053710692,-0.064720869,0.000000000,580659149.000000000,1749047946.000000000,0.042822786
1749047946.600730,0.062184904,-0.063487820,0.000000000,600674920.000000000,1749047946.000000000,0.035354361
1749047946.620877,0.061615322,-0.062285468,0.000000000,620763528.000000000,1749047946.000000000,0.035389967
1749047946.640753,0.067415893,-0.060937975,0.000000000,640698887.000000000,1749047946.000000000,0.029852178
1749047946.660689,0.067123264,-0.059962913,0.000000000,660656589.000000000,1749047946.000000000,0.030008337
1749047946.680723,0.074796319,-0.058521599,0.000000000,680676187.000000000,1749047946.000000000,0.022681640
1749047946.700719,0.075496256,-0.056703269,0.000000000,700672300.000000000,1749047946.000000000,0.020383380
1749047946.720743,0.076319396,-0.055194806,0.000000000,720683733.000000000,1749047946.000000000,0.018506812
1749047946.740823,0.078626335,-0.053678464,0.000000000,740779755.000000000,1749047946.000000000,0.015345402
1749047946.760708,0.078317016,-0.052102432,0.000000000,760661323.000000000,1749047946.000000000,0.014194764
1749047946.780721,0.080197111,-0.050506946,0.000000000,780672285.000000000,1749047946.000000000,0.011152157
1749047946.800704,0.081061810,-0.048916601,0.000000000,800641458.000000000,1749047946.000000000,0.008913986
1749047946.820829,0.083312616,-0.047706064,0.000000000,820703846.000000000,1749047946.000000000,0.006188955
1749047946.840764,0.078159586,-0.045719400,0.000000000,840707875.000000000,1749047946.000000000,0.008114561
1749047946.860682,0.082399949,-0.044071760,0.000000000,860643986.000000000,1749047946.000000000,0.002841971
1749047946.880718,0.076878041,-0.042569920,0.000000000,880672981.000000000,1749047946.000000000,0.005869683
1749047946.900701,0.077352077,-0.041056365,0.000000000,900671931.000000000,1749047946.000000000,0.003872731
1749047946.920712,0.073358938,-0.039574482,0.000000000,920662023.000000000,1749047946.000000000,0.005587432
1749047946.940814,0.075918883,-0.038421988,0.000000000,940774196.000000000,1749047946.000000000,0.002450142
1749047946.960710,0.072402745,-0.036564961,0.000000000,960670832.000000000,1749047946.000000000,0.002999528
1749047946.980705,0.071062163,-0.035138190,0.000000000,980672276.000000000,1749047946.000000000,0.002495017
1749047947.000707,0.071875840,-0.033736557,0.000000000,651628.000000000,1749047947.000000000,0.000214582
1749047947.020770,0.071499348,-0.032276683,0.000000000,20706192.000000000,1749047947.000000000,-0.001228956
1749047947.040745,0.070891589,-0.030833771,0.000000000,40704490.000000000,1749047947.000000000,-0.002490972
1749047947.060688,0.071920142,-0.029429736,0.000000000,60659536.000000000,1749047947.000000000,-0.005075380
1749047947.080651,0.072629511,-0.028397545,0.000000000,80621355.000000000,1749047947.000000000,-0.006745374
1749047947.100731,0.068020672,-0.026656665,0.000000000,100676009.000000000,1749047947.000000000,-0.005359980
1749047947.120824,0.063615456,-0.025364313,0.000000000,120743898.000000000,1749047947.000000000,-0.003359918
1749047947.140857,0.064506993,-0.024080703,0.000000000,140801678.000000000,1749047947.000000000,-0.005762182
1749047947.160757,0.060954813,-0.022815756,0.000000000,160710467.000000000,1749047947.000000000,-0.004489832
1749047947.180746,0.058595922,-0.021605775,0.000000000,180697543.000000000,1749047947.000000000,-0.004138465
1749047947.200726,0.055693325,-0.020718889,0.000000000,200661306.000000000,1749047947.000000000,-0.002771918
1749047947.220760,0.055901665,-0.019583881,0.000000000,220670204.000000000,1749047947.000000000,-0.004464596
1749047947.240906,0.050177556,-0.018348582,0.000000000,240813556.000000000,1749047947.000000000,-0.001467576
1749047947.260734,0.051325798,-0.017320862,0.000000000,260697728.000000000,1749047947.000000000,-0.003805776
1749047947.280727,0.043503042,-0.016437737,0.000000000,280668093.000000000,1749047947.000000000,0.001517008
1749047947.300710,0.041227728,-0.015574670,0.000000000,300661842.000000000,1749047947.000000000,0.002262634
1749047947.320795,0.042074062,-0.014731406,0.000000000,320700717.000000000,1749047947.000000000,0.000438060
1749047947.340723,0.038720697,-0.014161391,0.000000000,340659510.000000000,1749047947.000000000,0.002571137
1749047947.360729,0.036233444,-0.013222654,0.000000000,360679108.000000000,1749047947.000000000,0.003287290
1749047947.380716,0.032192264,-0.012575801,0.000000000,380646668.000000000,1749047947.000000000,0.005804125
1749047947.400844,0.032686446,-0.012120879,0.000000000,400794227.000000000,1749047947.000000000,0.004906747
1749047947.420692,0.023793813,-0.011464588,0.000000000,420636300.000000000,1749047947.000000000,0.011388516
1749047947.440804,0.024917869,-0.010981468,0.000000000,440752290.000000000,1749047947.000000000,0.009886282
1749047947.460736,0.024417870,-0.010501993,0.000000000,460666519.000000000,1749047947.000000000,0.009720728
1749047947.480737,0.019897638,-0.010161608,0.000000000,480670538.000000000,1749047947.000000000,0.013125672
1749047947.500736,0.020056792,-0.009708248,0.000000000,500693111.000000000,1749047947.000000000,0.012440081
1749047947.520714,0.016679011,-0.009357145,0.000000000,520661443.000000000,1749047947.000000000,0.014857534
1749047947.540829,0.015699213,-0.009048416,0.000000000,540739020.000000000,1749047947.000000000,0.015359844
1749047947.560747,0.007925244,-0.008910946,0.000000000,560697082.000000000,1749047947.000000000,0.021792058
1749047947.580699,0.004711621,-0.008771645,0.000000000,580662808.000000000,1749047947.000000000,0.024444215
1749047947.600700,0.000933163,-0.008697822,0.000000000,600655606.000000000,1749047947.000000000,0.027681230
1749047947.620705,0.000484170,-0.008650731,0.000000000,620658462.000000000,1749047947.000000000,0.028211301
1749047947.640788,-0.002488646,-0.008701622,0.000000000,640722644.000000000,1749047947.000000000,0.031009834
1749047947.660760,-0.004261048,-0.008714268,0.000000000,660702908.000000000,1749047947.000000000,0.032745726
1749047947.680740,-0.008574098,-0.008921289,0.000000000,680673984.000000000,1749047947.000000000,0.036944568
1749047947.700780,-0.006828915,-0.009027182,0.000000000,700729971.000000000,1749047947.000000000,0.035949625
1749047947.720686,-0.008304248,-0.009218712,0.000000000,720659800.000000000,1749047947.000000000,0.037780929
1749047947.740717,-0.011907807,-0.009332933,0.000000000,740670801.000000000,1749047947.000000000,0.041234866
1749047947.760702,-0.005575432,-0.009486135,0.000000000,760656916.000000000,1749047947.000000000,0.036544375
1749047947.780718,-0.010120841,-0.009739088,0.000000000,780675572.000000000,1749047947.000000000,0.041042522
1749047947.800714,0.000233912,-0.009770983,0.000000000,800667719.000000000,1749047947.000000000,0.032810684
1749047947.820720,0.003001987,-0.009785951,0.000000000,820688950.000000000,1749047947.000000000,0.030824799
1749047947.840835,0.002016309,-0.009731663,0.000000000,840731581.000000000,1749047947.000000000,0.031816289
1749047947.860791,0.009079399,-0.009546021,0.000000000,860753654.000000000,1749047947.000000000,0.025903732
1749047947.880675,0.008388091,-0.009344224,0.000000000,880639560.000000000,1749047947.000000000,0.026371159
1749047947.900764,0.011084808,-0.009235605,0.000000000,900682822.000000000,1749047947.000000000,0.024202883
1749047947.920775,0.015124841,-0.008956238,0.000000000,920725614.000000000,1749047947.000000000,0.020603340
1749047947.940810,0.014132028,-0.008572849,0.000000000,940688395.000000000,1749047947.000000000,0.020966526
1749047947.960779,0.019828059,-0.008226237,0.000000000,960704146.000000000,1749047947.000000000,0.015853437
1749047947.980825,0.015158433,-0.007929144,0.000000000,980716179.000000000,1749047947.000000000,0.019397948
1749047948.000784,0.016220834,-0.007604724,0.000000000,713275.000000000,1749047948.000000000,0.018141236
1749047948.020700,0.015546745,-0.007454545,0.000000000,20667309.000000000,1749047948.000000000,0.018635303
1749047948.040730,0.010411667,-0.007091576,0.000000000,40692217.000000000,1749047948.000000000,0.022420807
1749047948.060725,0.014349775,-0.006831824,0.000000000,60679985.000000000,1749047948.000000000,0.018881343
1749047948.080795,0.013785480,-0.006606874,0.000000000,80729750.000000000,1749047948.000000000,0.019123957
1749047948.100737,0.012674648,-0.006309413,0.000000000,100670819.000000000,1749047948.000000000,0.019677795
1749047948.120747,0.012222914,-0.006110842,0.000000000,120709834.000000000,1749047948.000000000,0.019861463
1749047948.140764,0.008018298,-0.005898315,0.000000000,140728029.000000000,1749047948.000000000,0.023118377
1749047948.160662,0.006102146,-0.005780892,0.000000000,160623844.000000000,1749047948.000000000,0.024652526
1749047948.180771,0.008335991,-0.005611175,0.000000000,180694578.000000000,1749047948.000000000,0.022653015
1749047948.200703,0.005464269,-0.005542606,0.000000000,200663640.000000000,1749047948.000000000,0.025060248
1749047948.220726,0.001460242,-0.005509965,0.000000000,220686034.000000000,1749047948.000000000,0.028468974
1749047948.240802,-0.004207507,-0.005578498,0.000000000,240737983.000000000,1749047948.000000000,0.033440929
1749047948.260775,-0.007551056,-0.005722719,0.000000000,260677359.000000000,1749047948.000000000,0.036632471
1749047948.280708,-0.008193581,-0.005825520,0.000000000,280665428.000000000,1749047948.000000000,0.037516668
1749047948.300798,-0.007254448,-0.005982894,0.000000000,300710434.000000000,1749047948.000000000,0.037196547
1749047948.320747,-0.011804137,-0.006179917,0.000000000,320707108.000000000,1749047948.000000000,0.041495357
1749047948.340734,-0.010642187,-0.006331482,0.000000000,340700106.000000000,1749047948.000000000,0.040990140
1749047948.360733,-0.009112841,-0.006499175,0.000000000,360693895.000000000,1749047948.000000000,0.040215194
1749047948.380739,-0.007092853,-0.006632473,0.000000000,380681022.000000000,1749047948.000000000,0.038975254
1749047948.400775,-0.004575524,-0.006739886,0.000000000,400689419.000000000,1749047948.000000000,0.037279595
1749047948.420719,-0.002605063,-0.006764641,0.000000000,420664222.000000000,1749047948.000000000,0.035886005
1749047948.440780,0.002611941,-0.006720747,0.000000000,440715700.000000000,1749047948.000000000,0.031679850
1749047948.460680,0.004392121,-0.006663738,0.000000000,460648224.000000000,1749047948.000000000,0.030291401
1749047948.480706,0.008224822,-0.006513029,0.000000000,480670627.000000000,1749047948.000000000,0.027029403
1749047948.500733,0.009286365,-0.006313745,0.000000000,500689103.000000000,1749047948.000000000,0.025965571
1749047948.520766,0.012539442,-0.006052392,0.000000000,520720403.000000000,1749047948.000000000,0.022967864
1749047948.540747,0.014302799,-0.005768924,0.000000000,540685698.000000000,1749047948.000000000,0.021154169
1749047948.560729,0.010603319,-0.005527869,0.000000000,560684547.000000000,1749047948.000000000,0.023930572
1749047948.580755,0.012969512,-0.005307381,0.000000000,580680731.000000000,1749047948.000000000,0.021720193
1749047948.600746,0.011311742,-0.004985896,0.000000000,600696381.000000000,1749047948.000000000,0.022645175
1749047948.620703,0.012436032,-0.004757897,0.000000000,620665694.000000000,1749047948.000000000,0.021432953
1749047948.640741,0.011863336,-0.004524695,0.000000000,640690402.000000000,1749047948.000000000,0.021608546
1749047948.660796,0.010229679,-0.004292882,0.000000000,660739676.000000000,1749047948.000000000,0.022657851
1749047948.680778,0.008078584,-0.004111183,0.000000000,680742392.000000000,1749047948.000000000,0.024221677
1749047948.700698,0.006931630,-0.003909528,0.000000000,700652403.000000000,1749047948.000000000,0.024912603
1749047948.720747,0.013437911,-0.003689259,0.000000000,720695976.000000000,1749047948.000000000,0.019231763
1749047948.740765,0.006970376,-0.003565354,0.000000000,740740401.000000000,1749047948.000000000,0.024456762
1749047948.760693,0.012218202,-0.003363714,0.000000000,760655492.000000000,1749047948.000000000,0.019841878
1749047948.780718,0.004059949,-0.003182471,0.000000000,780683034.000000000,1749047948.000000000,0.026349992
1749047948.801301,0.007694963,-0.002972320,0.000000000,801145028.000000000,1749047948.000000000,0.023042765
1749047948.820715,0.009413825,-0.002853601,0.000000000,820671615.000000000,1749047948.000000000,0.021484500
1749047948.840737,0.004880909,-0.002648328,0.000000000,840698877.000000000,1749047948.000000000,0.024934351
1749047948.860711,0.008059837,-0.002458745,0.000000000,860661097.000000000,1749047948.000000000,0.022027506
1749047948.880691,0.006174389,-0.002301836,0.000000000,880658212.000000000,1749047948.000000000,0.023365691
1749047948.901144,0.009460288,-0.002122281,0.000000000,901067005.000000000,1749047948.000000000,0.020379158
1749047948.920721,0.007534423,-0.001971181,0.000000000,920669546.000000000,1749047948.000000000,0.021752041
1749047948.940842,0.005670811,-0.001884419,0.000000000,940802658.000000000,1749047948.000000000,0.023188548
1749047948.960657,0.004138351,-0.001761373,0.000000000,960598864.000000000,1749047948.000000000,0.024281308
1749047948.980751,0.008294760,-0.001696035,0.000000000,980697662.000000000,1749047948.000000000,0.020771274
1749047949.001055,0.007286769,-0.001498855,0.000000000,995164.000000000,1749047949.000000000,0.021287235
1749047949.020719,0.008490812,-0.001387652,0.000000000,20692273.000000000,1749047949.000000000,0.020127155
1749047949.040814,0.001861662,-0.001364025,0.000000000,40725517.000000000,1749047949.000000000,0.025606852
1749047949.061151,0.005978525,-0.001275518,0.000000000,60722672.000000000,1749047949.000000000,0.022075301
1749047949.080775,0.001241848,-0.001220202,0.000000000,80721220.000000000,1749047949.000000000,0.025927378
1749047949.100764,0.003166836,-0.001179246,0.000000000,100694391.000000000,1749047949.000000000,0.024293343
1749047949.120767,0.004143113,-0.001128435,0.000000000,120717365.000000000,1749047949.000000000,0.023424726
1749047949.140777,0.003385139,-0.001038494,0.000000000,140743706.000000000,1749047949.000000000,0.023916803
1749047949.160778,0.002032037,-0.001018238,0.000000000,160717908.000000000,1749047949.000000000,0.025028007
1749047949.180806,0.002156895,-0.000974299,0.000000000,180726926.000000000,1749047949.000000000,0.024871970
1749047949.200703,0.009054211,-0.000867988,0.000000000,200667524.000000000,1749047949.000000000,0.018996086
1749047949.220911,-0.003354851,-0.000939550,0.000000000,220871791.000000000,1749047949.000000000,0.029419456
1749047949.240782,0.002359759,-0.000962820,0.000000000,240721268.000000000,1749047949.000000000,0.024761518
1749047949.260822,-0.000636068,-0.001014156,0.000000000,260764330.000000000,1749047949.000000000,0.027362464
1749047949.280776,-0.001947378,-0.001019115,0.000000000,280735015.000000000,1749047949.000000000,0.028485201
1749047949.300723,0.003439257,-0.001023680,0.000000000,300681385.000000000,1749047949.000000000,0.024066133
1749047949.320728,-0.003216329,-0.001063431,0.000000000,320666688.000000000,1749047949.000000000,0.029675024
1749047949.340794,-0.000557241,-0.001112499,0.000000000,340731171.000000000,1749047949.000000000,0.027596297
1749047949.360713,-0.002834860,-0.001158540,0.000000000,360670667.000000000,1749047949.000000000,0.029597480
1749047949.380745,-0.000605853,-0.001185265,0.000000000,380669436.000000000,1749047949.000000000,0.027835788
1749047949.400732,-0.003395768,-0.001287041,0.000000000,400676340.000000000,1749047949.000000000,0.030366283
1749047949.420777,0.001537962,-0.001353662,0.000000000,420727046.000000000,1749047949.000000000,0.026444647
1749047949.440747,0.000744926,-0.001389721,0.000000000,440703783.000000000,1749047949.000000000,0.027205931
1749047949.460719,0.001851684,-0.001481855,0.000000000,460695038.000000000,1749047949.000000000,0.026500596
1749047949.480757,-0.000421172,-0.001575237,0.000000000,480696151.000000000,1749047949.000000000,0.028596140
1749047949.500737,-0.002737620,-0.001672665,0.000000000,500692134.000000000,1749047949.000000000,0.030737897
1749047949.520762,-0.000707987,-0.001709124,0.000000000,520709668.000000000,1749047949.000000000,0.029173750
1749047949.540744,-0.001282030,-0.001752336,0.000000000,540716051.000000000,1749047949.000000000,0.029777192
1749047949.560759,0.001439474,-0.001816422,0.000000000,560690564.000000000,1749047949.000000000,0.027694184
1749047949.580767,0.001217302,-0.001812504,0.000000000,580699702.000000000,1749047949.000000000,0.027922092
1749047949.600765,0.002217299,-0.001848916,0.000000000,600691527.000000000,1749047949.000000000,0.027213633
1749047949.620825,-0.001512972,-0.001967901,0.000000000,620751621.000000000,1749047949.000000000,0.030572793
1749047949.640800,-0.000885609,-0.002062348,0.000000000,640744068.000000000,1749047949.000000000,0.030284708
1749047949.660737,0.000382428,-0.002130296,0.000000000,660702140.000000000,1749047949.000000000,0.029420089
1749047949.680727,0.002776075,-0.002185266,0.000000000,680699656.000000000,1749047949.000000000,0.027602091
1749047949.700731,-0.003622439,-0.002347541,0.000000000,700690650.000000000,1749047949.000000000,0.033258539
1749047949.720820,-0.000527423,-0.002425706,0.000000000,720776312.000000000,1749047949.000000000,0.030909486
1749047949.741120,0.004237324,-0.002513465,0.000000000,741081570.000000000,1749047949.000000000,0.027199082
1749047949.760742,0.000294983,-0.002650838,0.000000000,760692496.000000000,1749047949.000000000,0.030786606
1749047949.780777,-0.000925455,-0.002769641,0.000000000,780711493.000000000,1749047949.000000000,0.032091722
1749047949.800722,-0.002960500,-0.002928097,0.000000000,800672991.000000000,1749047949.000000000,0.034147713
1749047949.820823,0.001087307,-0.003063155,0.000000000,820759916.000000000,1749047949.000000000,0.031132417
1749047949.840789,-0.003835994,-0.003333682,0.000000000,840729710.000000000,1749047949.000000000,0.035794143
1749047949.860749,-0.003533591,-0.003464131,0.000000000,860693111.000000000,1749047949.000000000,0.035880338
1749047949.880730,-0.007720553,-0.003748992,0.000000000,880683574.000000000,1749047949.000000000,0.039970830
1749047949.900812,0.000988506,-0.003895831,0.000000000,900707260.000000000,1749047949.000000000,0.033144362
1749047949.920866,-0.004034226,-0.004088311,0.000000000,920779146.000000000,1749047949.000000000,0.037767060
1749047949.940800,-0.002494815,-0.004258784,0.000000000,940763798.000000000,1749047949.000000000,0.036925502
1749047949.960818,0.002154231,-0.004337541,0.000000000,960733021.000000000,1749047949.000000000,0.033345956
1749047949.980768,-0.000924638,-0.004497553,0.000000000,980716040.000000000,1749047949.000000000,0.036312737
1749047950.000726,-0.001205305,-0.004603155,0.000000000,690102.000000000,1749047950.000000000,0.036868114
1749047950.020706,0.001041367,-0.004810426,0.000000000,20650488.000000000,1749047950.000000000,0.035524290
1749047950.040719,-0.000113022,-0.005007545,0.000000000,40679323.000000000,1749047950.000000000,0.036981184
1749047950.060726,-0.000108341,-0.005101271,0.000000000,60685375.000000000,1749047950.000000000,0.037292879
1749047950.080725,0.002666176,-0.005265289,0.000000000,80691357.000000000,1749047950.000000000,0.035446189
1749047950.100734,0.001136616,-0.005359222,0.000000000,100696668.000000000,1749047950.000000000,0.037034836
1749047950.120826,0.000787509,-0.005527036,0.000000000,120744379.000000000,1749047950.000000000,0.037786659
1749047950.140783,0.002219040,-0.005644497,0.000000000,140701339.000000000,1749047950.000000000,0.036976658
1749047950.160753,-0.001943041,-0.005756290,0.000000000,160694016.000000000,1749047950.000000000,0.040787064
1749047950.180747,-0.002506625,-0.005909100,0.000000000,180691061.000000000,1749047950.000000000,0.041699708
1749047950.200695,-0.001300433,-0.006047950,0.000000000,200662047.000000000,1749047950.000000000,0.041126631
1749047950.220724,-0.003096332,-0.006284253,0.000000000,220665354.000000000,1749047950.000000000,0.043221969
1749047950.240784,0.002886138,-0.006316394,0.000000000,240746819.000000000,1749047950.000000000,0.038510062
1749047950.260780,-0.000733538,-0.006459682,0.000000000,260720460.000000000,1749047950.000000000,0.041949186
1749047950.280709,-0.001465721,-0.006606438,0.000000000,280672259.000000000,1749047950.000000000,0.043009970
1749047950.300753,0.003881011,-0.006734408,0.000000000,300702066.000000000,1749047950.000000000,0.039010964
1749047950.320812,-0.000954401,-0.006868794,0.000000000,320758043.000000000,1749047950.000000000,0.043451168
1749047950.340775,-0.003941865,-0.006979827,0.000000000,340727857.000000000,1749047950.000000000,0.046323024
1749047950.360734,-0.002659481,-0.007096934,0.000000000,360667724.000000000,1749047950.000000000,0.045676850
1749047950.380739,-0.000609164,-0.007290044,0.000000000,380698443.000000000,1749047950.000000000,0.044539724
1749047950.400742,0.007447963,-0.007359632,0.000000000,400664860.000000000,1749047950.000000000,0.038209390
1749047950.420763,-0.000088246,-0.007477600,0.000000000,420702873.000000000,1749047950.000000000,0.044871181
1749047950.440751,-0.004357262,-0.007555171,0.000000000,440713724.000000000,1749047950.000000000,0.048758388
1749047950.460701,0.002162924,-0.007671081,0.000000000,460671305.000000000,1749047950.000000000,0.043793034
1749047950.480744,0.005946939,-0.007776182,0.000000000,480690542.000000000,1749047950.000000000,0.041074533
1749047950.500752,-0.000417225,-0.007873089,0.000000000,500703647.000000000,1749047950.000000000,0.046739385
1749047950.520871,-0.004119269,-0.007957176,0.000000000,520720480.000000000,1749047950.000000000,0.050180819
1749047950.540803,-0.003978942,-0.008028501,0.000000000,540699611.000000000,1749047950.000000000,0.050422147
1749047950.560743,0.001281790,-0.008157958,0.000000000,560693120.000000000,1749047950.000000000,0.046537269
1749047950.580712,0.004187781,-0.008196374,0.000000000,580682190.000000000,1749047950.000000000,0.044435173
1749047950.600761,-0.000894449,-0.008184060,0.000000000,600705906.000000000,1749047950.000000000,0.048848674
1749047950.620734,0.001935186,-0.008236227,0.000000000,620703362.000000000,1749047950.000000000,0.046836007
1749047950.640749,-0.002496832,-0.008303758,0.000000000,640697031.000000000,1749047950.000000000,0.050860889
1749047950.660771,0.006642780,-0.008346776,0.000000000,660736766.000000000,1749047950.000000000,0.043614388
1749047950.680730,-0.000362028,-0.008400975,0.000000000,680694888.000000000,1749047950.000000000,0.049746126
1749047950.700732,0.000784317,-0.008366649,0.000000000,700695049.000000000,1749047950.000000000,0.048971668
1749047950.720741,0.004040986,-0.008401786,0.000000000,720693747.000000000,1749047950.000000000,0.046579272
1749047950.740855,0.000964526,-0.008398310,0.000000000,740802844.000000000,1749047950.000000000,0.049355615
1749047950.760705,0.003903042,-0.008375851,0.000000000,760671307.000000000,1749047950.000000000,0.047120437
1749047950.780745,0.002954294,-0.008398983,0.000000000,780697577.000000000,1749047950.000000000,0.048185166
1749047950.800735,0.002027038,-0.008413448,0.000000000,800676829.000000000,1749047950.000000000,0.049216688
1749047950.820778,-0.000354627,-0.008421483,0.000000000,820745649.000000000,1749047950.000000000,0.051439911
1749047950.841016,0.001745402,-0.008458449,0.000000000,840924298.000000000,1749047950.000000000,0.050009355
1749047950.860704,0.003592503,-0.008546269,0.000000000,860669888.000000000,1749047950.000000000,0.048883464
1749047950.880704,-0.002505022,-0.008530233,0.000000000,880650943.000000000,1749047950.000000000,0.054139912
1749047950.900786,-0.002664484,-0.008592801,0.000000000,900701359.000000000,1749047950.000000000,0.054629214
1749047950.920752,-0.000944439,-0.008662552,0.000000000,920708313.000000000,1749047950.000000000,0.053578697
1749047950.940768,0.004947696,-0.008712099,0.000000000,940733551.000000000,1749047950.000000000,0.049041096
1749047950.960713,-0.000031265,-0.008699292,0.000000000,960676174.000000000,1749047950.000000000,0.053382836
1749047950.980809,-0.004063046,-0.008740600,0.000000000,980753781.000000000,1749047950.000000000,0.057041038
1749047951.000732,-0.000058927,-0.008774810,0.000000000,702555.000000000,1749047951.000000000,0.054039136
1749047951.020684,-0.000287675,-0.008854072,0.000000000,20649356.000000000,1749047951.000000000,0.054623656
1749047951.040866,0.001843831,-0.008860897,0.000000000,40783279.000000000,1749047951.000000000,0.053123359
1749047951.060722,-0.000836769,-0.008896076,0.000000000,60679985.000000000,1749047951.000000000,0.055656925
1749047951.080735,-0.001227766,-0.008868816,0.000000000,80679785.000000000,1749047951.000000000,0.056181423
1749047951.100801,0.001013297,-0.008922017,0.000000000,100741232.000000000,1749047951.000000000,0.054676969
1749047951.120744,0.004782129,-0.008933573,0.000000000,120693623.000000000,1749047951.000000000,0.051832810
1749047951.140781,0.002308194,-0.008935291,0.000000000,140747696.000000000,1749047951.000000000,0.054135360
1749047951.160696,0.004736395,-0.008825803,0.000000000,160655031.000000000,1749047951.000000000,0.052176051
1749047951.180740,0.001748805,-0.008845429,0.000000000,180697883.000000000,1749047951.000000000,0.054933734
1749047951.200901,0.001536116,-0.008798989,0.000000000,200749511.000000000,1749047951.000000000,0.055273689
1749047951.220767,0.004265021,-0.008802954,0.000000000,220700289.000000000,1749047951.000000000,0.053272299
1749047951.241329,0.001623940,-0.008830572,0.000000000,241213008.000000000,1749047951.000000000,0.055757500
1749047951.260720,0.005318453,-0.008779077,0.000000000,260696012.000000000,1749047951.000000000,0.052855231
1749047951.280766,-0.000342718,-0.008718446,0.000000000,280703016.000000000,1749047951.000000000,0.057674509
1749047951.300798,0.005002488,-0.008642966,0.000000000,300733435.000000000,1749047951.000000000,0.053358939
1749047951.320761,0.004746125,-0.008644936,0.000000000,320722184.000000000,1749047951.000000000,0.053819139
1749047951.340817,0.000610193,-0.008519226,0.000000000,340736782.000000000,1749047951.000000000,0.057252016
1749047951.360714,0.004306244,-0.008490870,0.000000000,360682581.000000000,1749047951.000000000,0.054382607
1749047951.380733,0.001555007,-0.008398334,0.000000000,380701046.000000000,1749047951.000000000,0.056727137
1749047951.400735,0.008040049,-0.008279728,0.000000000,400707078.000000000,1749047951.000000000,0.051379491
1749047951.420784,0.009185365,-0.008135347,0.000000000,420742997.000000000,1749047951.000000000,0.050398216
1749047951.440937,0.007621573,-0.008074603,0.000000000,440832196.000000000,1749047951.000000000,0.051809311
1749047951.460746,0.008067896,-0.008002263,0.000000000,460704155.000000000,1749047951.000000000,0.051534206
1749047951.480722,0.011289476,-0.007876680,0.000000000,480677736.000000000,1749047951.000000000,0.048862275
1749047951.500818,0.011224440,-0.007687929,0.000000000,500748059.000000000,1749047951.000000000,0.048788577
1749047951.520739,0.003624086,-0.007546077,0.000000000,520693156.000000000,1749047951.000000000,0.055030555
1749047951.541025,0.005197257,-0.007456543,0.000000000,540951806.000000000,1749047951.000000000,0.053776346
1749047951.560745,0.008270368,-0.007399234,0.000000000,560706112.000000000,1749047951.000000000,0.051338505
1749047951.580750,0.010040403,-0.007273298,0.000000000,580690243.000000000,1749047951.000000000,0.049849723
1749047951.600779,0.006853548,-0.007087740,0.000000000,600712706.000000000,1749047951.000000000,0.052347574
1749047951.620740,0.008788924,-0.006878812,0.000000000,620708659.000000000,1749047951.000000000,0.050559178
1749047951.640888,0.006742422,-0.006687328,0.000000000,640805723.000000000,1749047951.000000000,0.052091457
1749047951.660677,0.010011301,-0.006494088,0.000000000,660637126.000000000,1749047951.000000000,0.049217645
1749047951.680747,0.011693711,-0.006301495,0.000000000,680716747.000000000,1749047951.000000000,0.047652058
1749047951.700835,0.010491685,-0.006147724,0.000000000,700769347.000000000,1749047951.000000000,0.048539355
1749047951.720759,0.008263804,-0.005875009,0.000000000,720717259.000000000,1749047951.000000000,0.050050259
1749047951.740858,0.009297152,-0.005806085,0.000000000,740805587.000000000,1749047951.000000000,0.049233634
1749047951.760756,0.013808865,-0.005579503,0.000000000,760711370.000000000,1749047951.000000000,0.045244828
1749047951.780779,0.017588738,-0.005149735,0.000000000,780712372.000000000,1749047951.000000000,0.041477986
1749047951.800740,0.012305345,-0.005003354,0.000000000,800713405.000000000,1749047951.000000000,0.045722943
1749047951.820735,0.010797097,-0.004725064,0.000000000,820696874.000000000,1749047951.000000000,0.046595782
1749047951.840929,0.014835704,-0.004238976,0.000000000,840814688.000000000,1749047951.000000000,0.042486217
1749047951.860753,0.021577388,-0.004108784,0.000000000,860708398.000000000,1749047951.000000000,0.036787111
1749047951.880776,0.014639193,-0.003724417,0.000000000,880716003.000000000,1749047951.000000000,0.041929990
1749047951.900748,0.018422112,-0.003268636,0.000000000,900708239.000000000,1749047951.000000000,0.038059887
1749047951.920760,0.019997085,-0.003095889,0.000000000,920711215.000000000,1749047951.000000000,0.036528781
1749047951.940780,0.019279998,-0.002485347,0.000000000,940744609.000000000,1749047951.000000000,0.036076557
1749047951.960726,0.024095114,-0.002065127,0.000000000,960696158.000000000,1749047951.000000000,0.031383470
1749047951.980787,0.017284291,-0.001725621,0.000000000,980707901.000000000,1749047951.000000000,0.036446419
1749047952.000754,0.022249890,-0.001293584,0.000000000,699255.000000000,1749047952.000000000,0.031585418
1749047952.020823,0.023024034,-0.000820527,0.000000000,20747507.000000000,1749047952.000000000,0.030103669
1749047952.040823,0.026852520,-0.000406673,0.000000000,40735555.000000000,1749047952.000000000,0.026191544
1749047952.060771,0.024503158,-0.000129969,0.000000000,60722461.000000000,1749047952.000000000,0.027633172
1749047952.080781,0.028468655,0.000350906,0.000000000,80737460.000000000,1749047952.000000000,0.023463791
1749047952.100770,0.020710280,0.001133697,0.000000000,100713455.000000000,1749047952.000000000,0.028419681
1749047952.120793,0.026399411,0.001602233,0.000000000,120737532.000000000,1749047952.000000000,0.022811497
1749047952.140857,0.030482089,0.002138771,0.000000000,140780664.000000000,1749047952.000000000,0.018392881
1749047952.160768,0.026544351,0.002413603,0.000000000,160704210.000000000,1749047952.000000000,0.021080051
1749047952.180743,0.022630792,0.002929775,0.000000000,180704000.000000000,1749047952.000000000,0.023291569
1749047952.200717,0.021981200,0.003654597,0.000000000,200660809.000000000,1749047952.000000000,0.022400998
1749047952.220816,0.020510809,0.003832826,0.000000000,220765518.000000000,1749047952.000000000,0.023183335
1749047952.240872,0.019031955,0.004442566,0.000000000,240785216.000000000,1749047952.000000000,0.023166835
1749047952.260879,0.013988335,0.004645817,0.000000000,260802469.000000000,1749047952.000000000,0.026836582
1749047952.280780,0.015533397,0.005122516,0.000000000,280713542.000000000,1749047952.000000000,0.024542298
1749047952.301363,0.012679241,0.005252740,0.000000000,300766312.000000000,1749047952.000000000,0.026516993
1749047952.320746,0.015871231,0.005666095,0.000000000,320697873.000000000,1749047952.000000000,0.022960592
1749047952.340816,0.011215045,0.005786834,0.000000000,340754010.000000000,1749047952.000000000,0.026428327
1749047952.360747,0.004837658,0.006010052,0.000000000,360701982.000000000,1749047952.000000000,0.031126423
1749047952.380732,0.007701657,0.006243305,0.000000000,380705540.000000000,1749047952.000000000,0.028154183
1749047952.400815,0.004535169,0.006357344,0.000000000,400742360.000000000,1749047952.000000000,0.030385599
1749047952.420825,0.006761376,0.006445488,0.000000000,420780523.000000000,1749047952.000000000,0.028200470
1749047952.440797,-0.002103579,0.006528880,0.000000000,440759213.000000000,1749047952.000000000,0.035197381
1749047952.460751,0.002590576,0.006516360,0.000000000,460712165.000000000,1749047952.000000000,0.031152483
1749047952.480769,-0.001079134,0.006593162,0.000000000,480703048.000000000,1749047952.000000000,0.033861596
1749047952.500802,-0.000544016,0.006498321,0.000000000,500745710.000000000,1749047952.000000000,0.033408415
1749047952.520819,-0.003379951,0.006445542,0.000000000,520769876.000000000,1749047952.000000000,0.035668731
1749047952.540761,-0.003741890,0.006395028,0.000000000,540726264.000000000,1749047952.000000000,0.035879601
1749047952.560757,-0.004632105,0.006335570,0.000000000,560720584.000000000,1749047952.000000000,0.036545537
1749047952.580766,-0.003520099,0.006241263,0.000000000,580721136.000000000,1749047952.000000000,0.035621397
1749047952.600720,-0.004079287,0.006153805,0.000000000,600667255.000000000,1749047952.000000000,0.036069788
1749047952.620926,-0.007375760,0.006052362,0.000000000,620845211.000000000,1749047952.000000000,0.038811162
1749047952.640919,-0.010214543,0.005953501,0.000000000,640861232.000000000,1749047952.000000000,0.041171964
1749047952.660803,-0.004037811,0.005814867,0.000000000,660727180.000000000,1749047952.000000000,0.036150843
1749047952.680763,-0.004540773,0.005707092,0.000000000,680708195.000000000,1749047952.000000000,0.036602482
1749047952.700832,-0.007109053,0.005620212,0.000000000,700766505.000000000,1749047952.000000000,0.038727030
1749047952.720762,-0.000533854,0.005546153,0.000000000,720707204.000000000,1749047952.000000000,0.033265848
1749047952.740864,0.001321618,0.005546072,0.000000000,740810921.000000000,1749047952.000000000,0.031574097
1749047952.760793,-0.001238945,0.005522997,0.000000000,760733866.000000000,1749047952.000000000,0.033578407
1749047952.780752,0.005316206,0.005543401,0.000000000,780698289.000000000,1749047952.000000000,0.027961252
1749047952.800811,0.001129047,0.005640807,0.000000000,800769154.000000000,1749047952.000000000,0.031087734
1749047952.820905,0.003722101,0.005670193,0.000000000,820788551.000000000,1749047952.000000000,0.028728424
1749047952.840960,0.002350764,0.005755667,0.000000000,840902286.000000000,1749047952.000000000,0.029543931
1749047952.860785,0.004982483,0.005754891,0.000000000,860742676.000000000,1749047952.000000000,0.027205357
1749047952.880759,0.006330081,0.005876642,0.000000000,880715425.000000000,1749047952.000000000,0.025701772
1749047952.900757,0.004979232,0.006021171,0.000000000,900710296.000000000,1749047952.000000000,0.026384901
1749047952.921076,0.003027479,0.006096411,0.000000000,920949548.000000000,1749047952.000000000,0.027689653
1749047952.940950,0.002221297,0.006124288,0.000000000,940914212.000000000,1749047952.000000000,0.028132446
1749047952.960783,0.003220787,0.006151877,0.000000000,960737269.000000000,1749047952.000000000,0.027081151
1749047952.980775,-0.001829969,0.006167147,0.000000000,980720908.000000000,1749047952.000000000,0.031057302
1749047953.000831,-0.002660930,0.006139260,0.000000000,772797.000000000,1749047953.000000000,0.031622078
1749047953.020758,-0.003969495,0.006089919,0.000000000,20708586.000000000,1749047953.000000000,0.032622576
1749047953.040941,-0.001684027,0.006031250,0.000000000,40859672.000000000,1749047953.000000000,0.030668437
1749047953.060861,-0.003549302,0.005985938,0.000000000,60806793.000000000,1749047953.000000000,0.032125078
1749047953.080800,-0.002836261,0.005922446,0.000000000,80730930.000000000,1749047953.000000000,0.031483702
1749047953.100785,-0.008452060,0.005834524,0.000000000,100733336.000000000,1749047953.000000000,0.036125306
1749047953.120797,-0.006824424,0.005696993,0.000000000,120742584.000000000,1749047953.000000000,0.034868967
1749047953.140853,-0.006706114,0.005630978,0.000000000,140818928.000000000,1749047953.000000000,0.034732465
1749047953.160820,-0.005299864,0.005520864,0.000000000,160769115.000000000,1749047953.000000000,0.033614155
1749047953.180777,-0.005875561,0.005360582,0.000000000,180721796.000000000,1749047953.000000000,0.034231726
1749047953.200759,0.000525125,0.005295395,0.000000000,200719011.000000000,1749047953.000000000,0.028905790
1749047953.221005,-0.003444549,0.005290973,0.000000000,220892479.000000000,1749047953.000000000,0.032048337
1749047953.240925,0.002487954,0.005205757,0.000000000,240883774.000000000,1749047953.000000000,0.027148871
1749047953.260755,-0.004776368,0.005225842,0.000000000,260704927.000000000,1749047953.000000000,0.032974131
1749047953.280797,-0.002415605,0.005213874,0.000000000,280756204.000000000,1749047953.000000000,0.030895472
1749047953.300802,0.001974224,0.005244528,0.000000000,300759641.000000000,1749047953.000000000,0.027059410
1749047953.320769,0.001692500,0.005273668,0.000000000,320714997.000000000,1749047953.000000000,0.027090065
1749047953.340971,0.005761828,0.005336947,0.000000000,340916969.000000000,1749047953.000000000,0.023456916
1749047953.360771,0.002954025,0.005442441,0.000000000,360725719.000000000,1749047953.000000000,0.025433090
1749047953.380804,-0.005080761,0.005458069,0.000000000,380731340.000000000,1749047953.000000000,0.031897329
1749047953.400799,0.003873184,0.005449411,0.000000000,400731851.000000000,1749047953.000000000,0.024351420
1749047953.420767,0.004491933,0.005497982,0.000000000,420731181.000000000,1749047953.000000000,0.023595262
1749047953.440915,0.000121776,0.005565675,0.000000000,440784111.000000000,1749047953.000000000,0.026929565
1749047953.460771,0.002515800,0.005578464,0.000000000,460734218.000000000,1749047953.000000000,0.024767835
1749047953.480767,-0.002850347,0.005578658,0.000000000,480706616.000000000,1749047953.000000000,0.029049110
1749047953.500806,-0.002762658,0.005551064,0.000000000,500737695.000000000,1749047953.000000000,0.028869987
1749047953.520789,-0.001389513,0.005484662,0.000000000,520734149.000000000,1749047953.000000000,0.027700204
1749047953.540935,-0.003230593,0.005460923,0.000000000,540839489.000000000,1749047953.000000000,0.029112259
1749047953.560771,-0.004506577,0.005387503,0.000000000,560715886.000000000,1749047953.000000000,0.030149672
1749047953.580786,-0.004634084,0.005356741,0.000000000,580740433.000000000,1749047953.000000000,0.030159865
1749047953.600864,-0.006021208,0.005285590,0.000000000,600788063.000000000,1749047953.000000000,0.031287961
1749047953.620795,-0.005162723,0.005171404,0.000000000,620753589.000000000,1749047953.000000000,0.030640146
1749047953.640941,-0.006045035,0.005068379,0.000000000,640882914.000000000,1749047953.000000000,0.031415008
1749047953.660768,-0.005816927,0.004980931,0.000000000,660734724.000000000,1749047953.000000000,0.031245222
1749047953.680788,-0.000139770,0.004883836,0.000000000,680729956.000000000,1749047953.000000000,0.026587816
1749047953.700809,-0.005727712,0.004835302,0.000000000,700763079.000000000,1749047953.000000000,0.031162655
1749047953.720743,-0.001340809,0.004806263,0.000000000,720708507.000000000,1749047953.000000000,0.027450498
1749047953.740894,-0.005915983,0.004771651,0.000000000,740828364.000000000,1749047953.000000000,0.031163834
1749047953.760760,-0.000860229,0.004724346,0.000000000,760725470.000000000,1749047953.000000000,0.026934035
1749047953.780796,0.002153620,0.004757813,0.000000000,780704471.000000000,1749047953.000000000,0.024244945
1749047953.800829,-0.000718085,0.004777718,0.000000000,800767831.000000000,1749047953.000000000,0.026449200
1749047953.820934,0.002488158,0.004804895,0.000000000,820848183.000000000,1749047953.000000000,0.023611106
1749047953.841028,-0.003567661,0.004824986,0.000000000,840944345.000000000,1749047953.000000000,0.028447900
1749047953.860744,0.005749170,0.004831222,0.000000000,860707399.000000000,1749047953.000000000,0.020592043
1749047953.880775,0.006446304,0.004899871,0.000000000,880733779.000000000,1749047953.000000000,0.019751260
1749047953.900787,0.005617217,0.004999491,0.000000000,900735743.000000000,1749047953.000000000,0.020113699
1749047953.920819,0.007080489,0.005089799,0.000000000,920747005.000000000,1749047953.000000000,0.018594140
1749047953.940811,-0.002382905,0.005174018,0.000000000,940746876.000000000,1749047953.000000000,0.026122950
1749047953.960752,0.006214187,0.005187103,0.000000000,960725496.000000000,1749047953.000000000,0.018839952
1749047953.980812,-0.000075474,0.005280443,0.000000000,980748640.000000000,1749047953.000000000,0.023723457
1749047954.000805,0.000230908,0.005241033,0.000000000,743511.000000000,1749047954.000000000,0.023393773
1749047954.020763,-0.001360462,0.005198805,0.000000000,20723043.000000000,1749047954.000000000,0.024640441
1749047954.040904,-0.004844671,0.005146316,0.000000000,40818914.000000000,1749047954.000000000,0.027473291
1749047954.060916,-0.000519512,0.005100015,0.000000000,60842399.000000000,1749047954.000000000,0.023835458
1749047954.080789,-0.003818120,0.005112081,0.000000000,80743703.000000000,1749047954.000000000,0.026397750
1749047954.100780,-0.002580133,0.005000537,0.000000000,100737482.000000000,1749047954.000000000,0.025435977
1749047954.120787,-0.006524330,0.004929243,0.000000000,120720751.000000000,1749047954.000000000,0.028689880
1749047954.140830,-0.005871217,0.004860205,0.000000000,140773201.000000000,1749047954.000000000,0.028138265
1749047954.160812,-0.001062131,0.004789598,0.000000000,160759175.000000000,1749047954.000000000,0.024153272
1749047954.180793,-0.001049075,0.004730684,0.000000000,180717797.000000000,1749047954.000000000,0.024116335
1749047954.200801,-0.001731284,0.004684974,0.000000000,200756020.000000000,1749047954.000000000,0.024631748
1749047954.220860,-0.000093570,0.004674980,0.000000000,220782490.000000000,1749047954.000000000,0.023162905
1749047954.240856,-0.001116521,0.004666404,0.000000000,240750190.000000000,1749047954.000000000,0.023892885
1749047954.260765,0.002875236,0.004638326,0.000000000,260719202.000000000,1749047954.000000000,0.020510621
1749047954.280792,0.004061671,0.004692098,0.000000000,280746714.000000000,1749047954.000000000,0.019298106
1749047954.300763,-0.000028441,0.004703842,0.000000000,300712931.000000000,1749047954.000000000,0.022527352
1749047954.320763,0.001047113,0.004704821,0.000000000,320723361.000000000,1749047954.000000000,0.021502681
1749047954.340943,-0.000047284,0.004747892,0.000000000,340847145.000000000,1749047954.000000000,0.022195077
1749047954.360781,0.001785463,0.004789141,0.000000000,360729414.000000000,1749047954.000000000,0.020468008
1749047954.380759,0.001538282,0.004854720,0.000000000,380720557.000000000,1749047954.000000000,0.020415343
1749047954.400767,-0.000889128,0.004938877,0.000000000,400724616.000000000,1749047954.000000000,0.022130050
1749047954.420787,0.006515390,0.004945172,0.000000000,420754012.000000000,1749047954.000000000,0.015852919
1749047954.440813,0.003219887,0.005071984,0.000000000,440737250.000000000,1749047954.000000000,0.018204086
1749047954.460763,0.000196675,0.005124500,0.000000000,460728284.000000000,1749047954.000000000,0.020464275
1749047954.480801,-0.003351641,0.005164032,0.000000000,480744786.000000000,1749047954.000000000,0.023181491
1749047954.500783,-0.002632764,0.005123890,0.000000000,500742602.000000000,1749047954.000000000,0.022515200
1749047954.520853,-0.000191687,0.005182188,0.000000000,520813717.000000000,1749047954.000000000,0.020242587
1749047954.540876,0.002606439,0.005141921,0.000000000,540818025.000000000,1749047954.000000000,0.017855851
1749047954.560815,-0.006226955,0.005168763,0.000000000,560756229.000000000,1749047954.000000000,0.024968471
1749047954.580765,-0.004706069,0.005078387,0.000000000,580718408.000000000,1749047954.000000000,0.023731766
1749047954.600802,-0.004283871,0.005012312,0.000000000,600746021.000000000,1749047954.000000000,0.023361467
1749047954.620934,-0.002715222,0.004987284,0.000000000,620901034.000000000,1749047954.000000000,0.021968402
1749047954.640910,0.000234160,0.004937215,0.000000000,640848325.000000000,1749047954.000000000,0.019480232
1749047954.660781,-0.006011087,0.004924670,0.000000000,660739310.000000000,1749047954.000000000,0.024530564
1749047954.680786,-0.003163386,0.004875164,0.000000000,680736175.000000000,1749047954.000000000,0.022127243
