__time,/fmu/out/sensor_accel/clip_counter[0],/fmu/out/sensor_accel/clip_counter[1],/fmu/out/sensor_accel/clip_counter[2],/fmu/out/sensor_accel/device_id,/fmu/out/sensor_accel/error_count,/fmu/out/sensor_accel/samples,/fmu/out/sensor_accel/temperature,/fmu/out/sensor_accel/timestamp,/fmu/out/sensor_accel/timestamp_sample,/fmu/out/sensor_accel/x,/fmu/out/sensor_accel/y,/fmu/out/sensor_accel/z
1749047931.250214,0.000000000,0.000000000,0.000000000,4259850.000000000,0.000000000,5.000000000,28.500000000,1749047931220311.000000000,1749047931220242.000000000,-9.921571732,0.475009620,-2.022621632
1749047931.260103,0.000000000,0.000000000,0.000000000,4259850.000000000,0.000000000,5.000000000,28.500000000,1749047931230113.000000000,1749047931229996.000000000,-9.936894417,0.444363832,-1.968991518
1749047931.270108,0.000000000,0.000000000,0.000000000,4259850.000000000,0.000000000,5.000000000,28.500000000,1749047931239818.000000000,1749047931239750.000000000,-9.990525246,0.482671082,-1.999637246
1749047931.279188,0.000000000,0.000000000,0.000000000,4259850.000000000,0.000000000,5.000000000,28.500000000,1749047931249574.000000000,1749047931249505.000000000,-9.975201607,0.497993946,-1.999637246
1749047931.292196,0.000000000,0.000000000,0.000000000,4259850.000000000,0.000000000,5.000000000,28.500000000,1749047931259329.000000000,1749047931259259.000000000,-9.975201607,0.475009620,-1.991975784
1749047931.302163,0.000000000,0.000000000,0.000000000,4259850.000000000,0.000000000,5.000000000,28.500000000,1749047931269081.000000000,1749047931269013.000000000,-9.929233551,0.528639734,-1.968991518
1749047931.313136,0.000000000,0.000000000,0.000000000,4259850.000000000,0.000000000,5.000000000,28.500000000,1749047931278836.000000000,1749047931278768.000000000,-9.929233551,0.482671082,-2.014960289
1749047931.322178,0.000000000,0.000000000,0.000000000,4259850.000000000,0.000000000,5.000000000,28.500000000,1749047931288593.000000000,1749047931288523.000000000,-9.952218056,0.505655408,-1.968991518
1749047931.332222,0.000000000,0.000000000,0.000000000,4259850.000000000,0.000000000,5.000000000,28.500000000,1749047931298352.000000000,1749047931298277.000000000,-9.967540741,0.490332514,-2.014960289
1749047931.343193,0.000000000,0.000000000,0.000000000,4259850.000000000,0.000000000,5.000000000,28.500000000,1749047931310540.000000000,1749047931310471.000000000,-9.982863426,0.490332514,-1.999637246
1749047931.350208,0.000000000,0.000000000,0.000000000,4259850.000000000,0.000000000,5.000000000,28.500000000,1749047931320293.000000000,1749047931320226.000000000,-9.959878922,0.429040939,-2.007298708
1749047931.360139,0.000000000,0.000000000,0.000000000,4259850.000000000,0.000000000,5.000000000,28.500000000,1749047931330136.000000000,1749047931329982.000000000,-9.982863426,0.520978272,-1.953668594
1749047931.369180,0.000000000,0.000000000,0.000000000,4259850.000000000,0.000000000,5.000000000,28.500000000,1749047931339875.000000000,1749047931339738.000000000,-9.990525246,0.421379507,-2.045605898
1749047931.378111,0.000000000,0.000000000,0.000000000,4259850.000000000,0.000000000,5.000000000,28.500000000,1749047931349562.000000000,1749047931349493.000000000,-9.990525246,0.482671082,-2.007298708
1749047931.390190,0.000000000,0.000000000,0.000000000,4259850.000000000,0.000000000,5.000000000,28.500000000,1749047931359316.000000000,1749047931359248.000000000,-9.975201607,0.475009620,-1.984314442
1749047931.400148,0.000000000,0.000000000,0.000000000,4259850.000000000,0.000000000,5.000000000,28.500000000,1749047931369068.000000000,1749047931369002.000000000,-9.959878922,0.398395181,-1.953668594
1749047931.409178,0.000000000,0.000000000,0.000000000,4259850.000000000,0.000000000,5.000000000,28.500000000,1749047931378825.000000000,1749047931378756.000000000,-9.982863426,0.436702400,-1.946007133
1749047931.418270,0.000000000,0.000000000,0.000000000,4259850.000000000,0.000000000,5.000000000,28.500000000,1749047931388580.000000000,1749047931388511.000000000,-9.944556236,0.490332514,-1.976652980
1749047931.429163,0.000000000,0.000000000,0.000000000,4259850.000000000,0.000000000,5.000000000,28.500000000,1749047931400773.000000000,1749047931400704.000000000,-9.967540741,0.444363832,-1.991975784
1749047931.439081,0.000000000,0.000000000,0.000000000,4259850.000000000,0.000000000,5.000000000,28.500000000,1749047931410533.000000000,1749047931410459.000000000,-9.936894417,0.467348188,-1.984314442
1749047931.445173,0.000000000,0.000000000,0.000000000,4259850.000000000,0.000000000,5.000000000,28.500000000,1749047931420428.000000000,1749047931420214.000000000,-9.990525246,0.475009620,-2.030282974
1749047931.455186,0.000000000,0.000000000,0.000000000,4259850.000000000,0.000000000,5.000000000,28.500000000,1749047931430038.000000000,1749047931429968.000000000,-9.975201607,0.513316870,-2.030282974
1749047931.464120,0.000000000,0.000000000,0.000000000,4259850.000000000,0.000000000,5.000000000,28.500000000,1749047931439792.000000000,1749047931439723.000000000,-9.959878922,0.436702400,-2.014960289
1749047931.475087,0.000000000,0.000000000,0.000000000,4259850.000000000,0.000000000,5.000000000,28.500000000,1749047931449546.000000000,1749047931449477.000000000,-9.982863426,0.482671082,-1.953668594
1749047931.487154,0.000000000,0.000000000,0.000000000,4259850.000000000,0.000000000,5.000000000,28.500000000,1749047931459301.000000000,1749047931459231.000000000,-9.982863426,0.459686726,-1.961330056
1749047931.497122,0.000000000,0.000000000,0.000000000,4259850.000000000,0.000000000,5.000000000,28.500000000,1749047931469054.000000000,1749047931468985.000000000,-9.967540741,0.536301196,-1.976652980
1749047931.505171,0.000000000,0.000000000,0.000000000,4259850.000000000,0.000000000,5.000000000,28.500000000,1749047931478807.000000000,1749047931478739.000000000,-9.944556236,0.482671082,-1.976652980
1749047931.515183,0.000000000,0.000000000,0.000000000,4259850.000000000,0.000000000,5.000000000,28.500000000,1749047931488560.000000000,1749047931488493.000000000,-9.936894417,0.444363832,-1.961330056
1749047931.525090,0.000000000,0.000000000,0.000000000,4259850.000000000,0.000000000,5.000000000,28.500000000,1749047931500755.000000000,1749047931500687.000000000,-9.975201607,0.459686726,-2.022621632
1749047931.534140,0.000000000,0.000000000,0.000000000,4259850.000000000,0.000000000,5.000000000,28.500000000,1749047931508071.000000000,1749047931508003.000000000,-9.959878922,0.459686726,-1.968991518
1749047931.541114,0.000000000,0.000000000,0.000000000,4259850.000000000,0.000000000,5.000000000,28.500000000,1749047931520263.000000000,1749047931520196.000000000,-9.936894417,0.475009620,-2.014960289
1749047931.551115,0.000000000,0.000000000,0.000000000,4259850.000000000,0.000000000,5.000000000,28.500000000,1749047931530019.000000000,1749047931529950.000000000,-9.952218056,0.490332514,-1.976652980
1749047931.562096,0.000000000,0.000000000,0.000000000,4259850.000000000,0.000000000,5.000000000,28.500000000,1749047931539772.000000000,1749047931539705.000000000,-9.944556236,0.444363832,-1.976652980
1749047931.571090,0.000000000,0.000000000,0.000000000,4259850.000000000,0.000000000,5.000000000,28.500000000,1749047931549528.000000000,1749047931549459.000000000,-9.982863426,0.536301196,-1.976652980
1749047931.584106,0.000000000,0.000000000,0.000000000,4259850.000000000,0.000000000,5.000000000,28.500000000,1749047931559282.000000000,1749047931559214.000000000,-9.959878922,0.497993946,-2.030282974
1749047931.594094,0.000000000,0.000000000,0.000000000,4259850.000000000,0.000000000,5.000000000,28.500000000,1749047931569037.000000000,1749047931568970.000000000,-9.967540741,0.520978272,-1.999637246
1749047931.604132,0.000000000,0.000000000,0.000000000,4259850.000000000,0.000000000,5.000000000,28.500000000,1749047931578793.000000000,1749047931578726.000000000,-9.952218056,0.490332514,-1.984314442
1749047931.613196,0.000000000,0.000000000,0.000000000,4259850.000000000,0.000000000,5.000000000,28.500000000,1749047931588550.000000000,1749047931588481.000000000,-9.967540741,0.505655408,-1.999637246
1749047931.624157,0.000000000,0.000000000,0.000000000,4259850.000000000,0.000000000,5.000000000,28.500000000,1749047931600744.000000000,1749047931600675.000000000,-10.013509750,0.459686726,-2.007298708
1749047931.631155,0.000000000,0.000000000,0.000000000,4259850.000000000,0.000000000,5.000000000,28.500000000,1749047931610498.000000000,1749047931610430.000000000,-9.959878922,0.467348188,-2.007298708
1749047931.641103,0.000000000,0.000000000,0.000000000,4259850.000000000,0.000000000,5.000000000,28.500000000,1749047931620254.000000000,1749047931620187.000000000,-9.944556236,0.459686726,-1.930684328
1749047931.651103,0.000000000,0.000000000,0.000000000,4259850.000000000,0.000000000,5.000000000,28.500000000,1749047931630009.000000000,1749047931629941.000000000,-9.944556236,0.436702400,-1.953668594
1749047931.664152,0.000000000,0.000000000,0.000000000,4259850.000000000,0.000000000,5.000000000,28.500000000,1749047931637325.000000000,1749047931637257.000000000,-9.975201607,0.475009620,-2.030282974
1749047931.671111,0.000000000,0.000000000,0.000000000,4259850.000000000,0.000000000,5.000000000,28.500000000,1749047931649519.000000000,1749047931649451.000000000,-9.959878922,0.452025294,-1.999637246
1749047931.683189,0.000000000,0.000000000,0.000000000,4259850.000000000,0.000000000,5.000000000,28.500000000,1749047931659272.000000000,1749047931659205.000000000,-9.982863426,0.452025294,-1.999637246
1749047931.694167,0.000000000,0.000000000,0.000000000,4259850.000000000,0.000000000,5.000000000,28.500000000,1749047931669024.000000000,1749047931668958.000000000,-9.990525246,0.505655408,-2.037944555
1749047931.703187,0.000000000,0.000000000,0.000000000,4259850.000000000,0.000000000,5.000000000,28.500000000,1749047931678779.000000000,1749047931678710.000000000,-9.998186111,0.505655408,-1.984314442
1749047931.714105,0.000000000,0.000000000,0.000000000,4259850.000000000,0.000000000,5.000000000,28.500000000,1749047931688532.000000000,1749047931688464.000000000,-9.990525246,0.497993946,-2.045605898
1749047931.723170,0.000000000,0.000000000,0.000000000,4259850.000000000,0.000000000,5.000000000,28.500000000,1749047931700724.000000000,1749047931700657.000000000,-9.936894417,0.543962657,-2.060928822
1749047931.731103,0.000000000,0.000000000,0.000000000,4259850.000000000,0.000000000,5.000000000,28.500000000,1749047931710478.000000000,1749047931710411.000000000,-9.936894417,0.520978272,-1.984314442
1749047931.741106,0.000000000,0.000000000,0.000000000,4259850.000000000,0.000000000,5.000000000,28.500000000,1749047931720232.000000000,1749047931720165.000000000,-9.959878922,0.413718045,-2.030282974
1749047931.751132,0.000000000,0.000000000,0.000000000,4259850.000000000,0.000000000,5.000000000,28.500000000,1749047931730027.000000000,1749047931729918.000000000,-9.929233551,0.383072287,-2.007298708
1749047931.761242,0.000000000,0.000000000,0.000000000,4259850.000000000,0.000000000,5.000000000,28.500000000,1749047931739740.000000000,1749047931739671.000000000,-9.982863426,0.520978272,-2.007298708
1749047931.772150,0.000000000,0.000000000,0.000000000,4259850.000000000,0.000000000,5.000000000,28.500000000,1749047931749492.000000000,1749047931749425.000000000,-9.921571732,0.513316870,-1.968991518
1749047931.784107,0.000000000,0.000000000,0.000000000,4259850.000000000,0.000000000,5.000000000,28.500000000,1749047931759246.000000000,1749047931759179.000000000,-9.990525246,0.520978272,-1.953668594
1749047931.795162,0.000000000,0.000000000,0.000000000,4259850.000000000,0.000000000,5.000000000,28.500000000,1749047931769001.000000000,1749047931768932.000000000,-10.021170616,0.513316870,-1.976652980
1749047931.804123,0.000000000,0.000000000,0.000000000,4259850.000000000,0.000000000,5.000000000,28.500000000,1749047931778755.000000000,1749047931778686.000000000,-9.952218056,0.406056613,-1.991975784
1749047931.814113,0.000000000,0.000000000,0.000000000,4259850.000000000,0.000000000,5.000000000,28.500000000,1749047931788509.000000000,1749047931788440.000000000,-9.982863426,0.444363832,-2.037944555
1749047931.823185,0.000000000,0.000000000,0.000000000,4259850.000000000,0.000000000,5.000000000,28.500000000,1749047931798264.000000000,1749047931798195.000000000,-9.975201607,0.528639734,-1.961330056
1749047931.831141,0.000000000,0.000000000,0.000000000,4259850.000000000,0.000000000,5.000000000,28.500000000,1749047931810580.000000000,1749047931810387.000000000,-9.959878922,0.475009620,-1.991975784
1749047931.841098,0.000000000,0.000000000,0.000000000,4259850.000000000,0.000000000,5.000000000,28.500000000,1749047931820237.000000000,1749047931820140.000000000,-9.982863426,0.536301196,-2.030282974
1749047931.851115,0.000000000,0.000000000,0.000000000,4259850.000000000,0.000000000,5.000000000,28.500000000,1749047931829962.000000000,1749047931829893.000000000,-9.975201607,0.497993946,-1.961330056
1749047931.861083,0.000000000,0.000000000,0.000000000,4259850.000000000,0.000000000,5.000000000,28.500000000,1749047931839716.000000000,1749047931839647.000000000,-9.982863426,0.406056613,-2.007298708
1749047931.871099,0.000000000,0.000000000,0.000000000,4259850.000000000,0.000000000,5.000000000,28.500000000,1749047931849471.000000000,1749047931849400.000000000,-9.959878922,0.475009620,-1.999637246
1749047931.885100,0.000000000,0.000000000,0.000000000,4259850.000000000,0.000000000,5.000000000,28.500000000,1749047931859222.000000000,1749047931859153.000000000,-10.021170616,0.482671082,-2.022621632
1749047931.894106,0.000000000,0.000000000,0.000000000,4259850.000000000,0.000000000,5.000000000,28.500000000,1749047931868973.000000000,1749047931868905.000000000,-9.936894417,0.436702400,-1.999637246
1749047931.904166,0.000000000,0.000000000,0.000000000,4259850.000000000,0.000000000,5.000000000,28.500000000,1749047931878726.000000000,1749047931878658.000000000,-9.975201607,0.452025294,-1.938345671
1749047931.914097,0.000000000,0.000000000,0.000000000,4259850.000000000,0.000000000,5.000000000,28.500000000,1749047931888609.000000000,1749047931888412.000000000,-9.975201607,0.490332514,-1.938345671
1749047931.926178,0.000000000,0.000000000,0.000000000,4259850.000000000,0.000000000,5.000000000,28.500000000,1749047931898234.000000000,1749047931898166.000000000,-9.929233551,0.459686726,-2.007298708
1749047931.932196,0.000000000,0.000000000,0.000000000,4259850.000000000,0.000000000,5.000000000,28.500000000,1749047931910426.000000000,1749047931910358.000000000,-9.990525246,0.505655408,-2.060928822
1749047931.944190,0.000000000,0.000000000,0.000000000,4259850.000000000,0.000000000,5.000000000,28.500000000,1749047931920257.000000000,1749047931920112.000000000,-9.944556236,0.505655408,-2.007298708
1749047931.954109,0.000000000,0.000000000,0.000000000,4259850.000000000,0.000000000,5.000000000,28.500000000,1749047931929933.000000000,1749047931929865.000000000,-9.990525246,0.482671082,-1.976652980
1749047931.961092,0.000000000,0.000000000,0.000000000,4259850.000000000,0.000000000,5.000000000,28.500000000,1749047931939689.000000000,1749047931939619.000000000,-9.967540741,0.490332514,-2.014960289
1749047931.971142,0.000000000,0.000000000,0.000000000,4259850.000000000,0.000000000,5.000000000,28.500000000,1749047931949441.000000000,1749047931949372.000000000,-9.952218056,0.520978272,-2.007298708
1749047931.984113,0.000000000,0.000000000,0.000000000,4259850.000000000,0.000000000,5.000000000,28.500000000,1749047931959194.000000000,1749047931959126.000000000,-9.982863426,0.475009620,-1.991975784
1749047931.994097,0.000000000,0.000000000,0.000000000,4259850.000000000,0.000000000,5.000000000,28.500000000,1749047931968947.000000000,1749047931968880.000000000,-9.959878922,0.459686726,-2.037944555
1749047932.004298,0.000000000,0.000000000,0.000000000,4259850.000000000,0.000000000,5.000000000,28.500000000,1749047931978704.000000000,1749047931978634.000000000,-9.952218056,0.444363832,-1.984314442
1749047932.014117,0.000000000,0.000000000,0.000000000,4259850.000000000,0.000000000,5.000000000,28.500000000,1749047931990894.000000000,1749047931990825.000000000,-9.959878922,0.452025294,-2.037944555
1749047932.024096,0.000000000,0.000000000,0.000000000,4259850.000000000,0.000000000,5.000000000,28.500000000,1749047932000646.000000000,1749047932000578.000000000,-9.967540741,0.490332514,-2.045605898
1749047932.031152,0.000000000,0.000000000,0.000000000,4259850.000000000,0.000000000,5.000000000,28.500000000,1749047932010399.000000000,1749047932010332.000000000,-9.936894417,0.490332514,-1.991975784
1749047932.041106,0.000000000,0.000000000,0.000000000,4259850.000000000,0.000000000,5.000000000,28.500000000,1749047932020153.000000000,1749047932020085.000000000,-9.921571732,0.436702400,-1.953668594
1749047932.052101,0.000000000,0.000000000,0.000000000,4259850.000000000,0.000000000,5.000000000,28.500000000,1749047932029906.000000000,1749047932029838.000000000,-9.967540741,0.505655408,-1.999637246
1749047932.061102,0.000000000,0.000000000,0.000000000,4259850.000000000,0.000000000,5.000000000,28.500000000,1749047932039659.000000000,1749047932039590.000000000,-9.944556236,0.536301196,-1.999637246
1749047932.075249,0.000000000,0.000000000,0.000000000,4259850.000000000,0.000000000,5.000000000,28.500000000,1749047932049412.000000000,1749047932049344.000000000,-9.936894417,0.520978272,-2.068590403
1749047932.084156,0.000000000,0.000000000,0.000000000,4259850.000000000,0.000000000,5.000000000,28.500000000,1749047932059164.000000000,1749047932059097.000000000,-10.013509750,0.475009620,-1.946007133
1749047932.093207,0.000000000,0.000000000,0.000000000,4259850.000000000,0.000000000,5.000000000,28.500000000,1749047932068918.000000000,1749047932068850.000000000,-9.929233551,0.444363832,-1.923022866
1749047932.104145,0.000000000,0.000000000,0.000000000,4259850.000000000,0.000000000,5.000000000,28.500000000,1749047932078670.000000000,1749047932078603.000000000,-9.998186111,0.459686726,-2.014960289
1749047932.114110,0.000000000,0.000000000,0.000000000,4259850.000000000,0.000000000,5.000000000,28.500000000,1749047932090862.000000000,1749047932090795.000000000,-10.005847931,0.444363832,-1.961330056
1749047932.121315,0.000000000,0.000000000,0.000000000,4259850.000000000,0.000000000,5.000000000,28.500000000,1749047932100616.000000000,1749047932100548.000000000,-9.982863426,0.475009620,-1.930684328
1749047932.131113,0.000000000,0.000000000,0.000000000,4259850.000000000,0.000000000,5.000000000,28.500000000,1749047932110370.000000000,1749047932110302.000000000,-9.921571732,0.467348188,-1.991975784
1749047932.141090,0.000000000,0.000000000,0.000000000,4259850.000000000,0.000000000,5.000000000,28.500000000,1749047932120184.000000000,1749047932120055.000000000,-9.913910866,0.497993946,-1.984314442
1749047932.151101,0.000000000,0.000000000,0.000000000,4259850.000000000,0.000000000,5.000000000,28.500000000,1749047932129876.000000000,1749047932129808.000000000,-9.982863426,0.467348188,-2.014960289
1749047932.161105,0.000000000,0.000000000,0.000000000,4259850.000000000,0.000000000,5.000000000,28.500000000,1749047932139630.000000000,1749047932139562.000000000,-9.959878922,0.436702400,-2.030282974
1749047932.174135,0.000000000,0.000000000,0.000000000,4259850.000000000,0.000000000,5.000000000,28.500000000,1749047932149385.000000000,1749047932149316.000000000,-9.990525246,0.528639734,-1.984314442
1749047932.185147,0.000000000,0.000000000,0.000000000,4259850.000000000,0.000000000,5.000000000,28.500000000,1749047932159140.000000000,1749047932159070.000000000,-9.944556236,0.490332514,-2.022621632
1749047932.193195,0.000000000,0.000000000,0.000000000,4259850.000000000,0.000000000,5.000000000,28.500000000,1749047932168892.000000000,1749047932168824.000000000,-9.952218056,0.459686726,-2.030282974
1749047932.205151,0.000000000,0.000000000,0.000000000,4259850.000000000,0.000000000,5.000000000,28.500000000,1749047932178647.000000000,1749047932178578.000000000,-9.944556236,0.513316870,-2.014960289
1749047932.215106,0.000000000,0.000000000,0.000000000,4259850.000000000,0.000000000,5.000000000,28.500000000,1749047932190838.000000000,1749047932190770.000000000,-9.990525246,0.513316870,-2.007298708
1749047932.224165,0.000000000,0.000000000,0.000000000,4259850.000000000,0.000000000,5.000000000,28.500000000,1749047932198208.000000000,1749047932198086.000000000,-9.982863426,0.467348188,-1.961330056
1749047932.234184,0.000000000,0.000000000,0.000000000,4259850.000000000,0.000000000,5.000000000,28.500000000,1749047932210351.000000000,1749047932210278.000000000,-9.975201607,0.475009620,-1.930684328
1749047932.239193,0.000000000,0.000000000,0.000000000,4259850.000000000,0.000000000,5.000000000,28.500000000,1749047932220102.000000000,1749047932220033.000000000,-9.952218056,0.467348188,-1.953668594
1749047932.255233,0.000000000,0.000000000,0.000000000,4259850.000000000,0.000000000,5.000000000,28.500000000,1749047932230349.000000000,1749047932230278.000000000,-9.959878922,0.429040939,-1.961330056
1749047932.265100,0.000000000,0.000000000,0.000000000,4259850.000000000,0.000000000,5.000000000,28.500000000,1749047932240101.000000000,1749047932240032.000000000,-9.967540741,0.475009620,-1.999637246
1749047932.274276,0.000000000,0.000000000,0.000000000,4259850.000000000,0.000000000,5.000000000,28.500000000,1749047932249854.000000000,1749047932249785.000000000,-9.959878922,0.459686726,-1.976652980
1749047932.283132,0.000000000,0.000000000,0.000000000,4259850.000000000,0.000000000,5.000000000,28.500000000,1749047932259610.000000000,1749047932259540.000000000,-9.982863426,0.490332514,-1.984314442
1749047932.296170,0.000000000,0.000000000,0.000000000,4259850.000000000,0.000000000,5.000000000,28.500000000,1749047932269365.000000000,1749047932269295.000000000,-9.929233551,0.505655408,-2.007298708
1749047932.305276,0.000000000,0.000000000,0.000000000,4259850.000000000,0.000000000,5.000000000,28.500000000,1749047932279116.000000000,1749047932279049.000000000,-9.944556236,0.490332514,-2.014960289
1749047932.315152,0.000000000,0.000000000,0.000000000,4259850.000000000,0.000000000,5.000000000,28.500000000,1749047932288870.000000000,1749047932288803.000000000,-9.982863426,0.497993946,-2.030282974
1749047932.324119,0.000000000,0.000000000,0.000000000,4259850.000000000,0.000000000,5.000000000,28.500000000,1749047932298624.000000000,1749047932298556.000000000,-9.990525246,0.536301196,-1.999637246
1749047932.334234,0.000000000,0.000000000,0.000000000,4259850.000000000,0.000000000,5.000000000,28.500000000,1749047932310817.000000000,1749047932310750.000000000,-9.982863426,0.467348188,-2.022621632
1749047932.342145,0.000000000,0.000000000,0.000000000,4259850.000000000,0.000000000,5.000000000,28.500000000,1749047932320581.000000000,1749047932320512.000000000,-9.998186111,0.490332514,-1.984314442
1749047932.354250,0.000000000,0.000000000,0.000000000,4259850.000000000,0.000000000,5.000000000,28.500000000,1749047932327888.000000000,1749047932327820.000000000,-9.944556236,0.452025294,-1.968991518
1749047932.361225,0.000000000,0.000000000,0.000000000,4259850.000000000,0.000000000,5.000000000,28.500000000,1749047932340082.000000000,1749047932340014.000000000,-9.990525246,0.490332514,-1.976652980
1749047932.371310,0.000000000,0.000000000,0.000000000,4259850.000000000,0.000000000,5.000000000,28.500000000,1749047932349836.000000000,1749047932349770.000000000,-9.975201607,0.482671082,-1.946007133
1749047932.381221,0.000000000,0.000000000,0.000000000,4259850.000000000,0.000000000,5.000000000,28.500000000,1749047932359593.000000000,1749047932359524.000000000,-9.936894417,0.497993946,-1.976652980
1749047932.394127,0.000000000,0.000000000,0.000000000,4259850.000000000,0.000000000,5.000000000,28.500000000,1749047932369385.000000000,1749047932369277.000000000,-9.929233551,0.482671082,-1.999637246
1749047932.404138,0.000000000,0.000000000,0.000000000,4259850.000000000,0.000000000,5.000000000,28.500000000,1749047932379099.000000000,1749047932379032.000000000,-9.975201607,0.475009620,-1.976652980
1749047932.414111,0.000000000,0.000000000,0.000000000,4259850.000000000,0.000000000,5.000000000,28.500000000,1749047932388854.000000000,1749047932388786.000000000,-9.982863426,0.497993946,-2.007298708
1749047932.424160,0.000000000,0.000000000,0.000000000,4259850.000000000,0.000000000,5.000000000,28.500000000,1749047932398610.000000000,1749047932398540.000000000,-9.944556236,0.475009620,-2.053267479
1749047932.436106,0.000000000,0.000000000,0.000000000,4259850.000000000,0.000000000,5.000000000,28.500000000,1749047932410802.000000000,1749047932410734.000000000,-9.952218056,0.475009620,-1.991975784
1749047932.443147,0.000000000,0.000000000,0.000000000,4259850.000000000,0.000000000,5.000000000,28.500000000,1749047932420555.000000000,1749047932420488.000000000,-9.944556236,0.436702400,-2.045605898
1749047932.452114,0.000000000,0.000000000,0.000000000,4259850.000000000,0.000000000,5.000000000,28.500000000,1749047932430364.000000000,1749047932430240.000000000,-9.952218056,0.459686726,-2.022621632
1749047932.462138,0.000000000,0.000000000,0.000000000,4259850.000000000,0.000000000,5.000000000,28.500000000,1749047932440063.000000000,1749047932439996.000000000,-9.929233551,0.482671082,-2.045605898
1749047932.471110,0.000000000,0.000000000,0.000000000,4259850.000000000,0.000000000,5.000000000,28.500000000,1749047932449927.000000000,1749047932449746.000000000,-9.990525246,0.459686726,-2.030282974
1749047932.481238,0.000000000,0.000000000,0.000000000,4259850.000000000,0.000000000,5.000000000,28.500000000,1749047932459567.000000000,1749047932459498.000000000,-9.959878922,0.505655408,-1.968991518
1749047932.493197,0.000000000,0.000000000,0.000000000,4259850.000000000,0.000000000,5.000000000,28.500000000,1749047932469318.000000000,1749047932469251.000000000,-9.952218056,0.475009620,-2.030282974
1749047932.503258,0.000000000,0.000000000,0.000000000,4259850.000000000,0.000000000,5.000000000,28.500000000,1749047932479070.000000000,1749047932479003.000000000,-9.967540741,0.505655408,-1.968991518
1749047932.514214,0.000000000,0.000000000,0.000000000,4259850.000000000,0.000000000,5.000000000,28.500000000,1749047932488825.000000000,1749047932488756.000000000,-9.959878922,0.490332514,-1.968991518
1749047932.524192,0.000000000,0.000000000,0.000000000,4259850.000000000,0.000000000,5.000000000,28.500000000,1749047932501015.000000000,1749047932500946.000000000,-9.967540741,0.520978272,-1.976652980
1749047932.535095,0.000000000,0.000000000,0.000000000,4259850.000000000,0.000000000,5.000000000,28.500000000,1749047932510766.000000000,1749047932510698.000000000,-9.990525246,0.467348188,-1.946007133
1749047932.541122,0.000000000,0.000000000,0.000000000,4259850.000000000,0.000000000,5.000000000,28.500000000,1749047932520520.000000000,1749047932520451.000000000,-9.975201607,0.459686726,-1.976652980
1749047932.551172,0.000000000,0.000000000,0.000000000,4259850.000000000,0.000000000,5.000000000,28.500000000,1749047932530273.000000000,1749047932530205.000000000,-9.982863426,0.444363832,-1.953668594
1749047932.561280,0.000000000,0.000000000,0.000000000,4259850.000000000,0.000000000,5.000000000,28.500000000,1749047932540029.000000000,1749047932539959.000000000,-9.944556236,0.459686726,-1.938345671
1749047932.572121,0.000000000,0.000000000,0.000000000,4259850.000000000,0.000000000,5.000000000,28.500000000,1749047932549781.000000000,1749047932549712.000000000,-9.990525246,0.452025294,-2.037944555
1749047932.581169,0.000000000,0.000000000,0.000000000,4259850.000000000,0.000000000,5.000000000,28.500000000,1749047932559534.000000000,1749047932559466.000000000,-9.929233551,0.490332514,-2.014960289
1749047932.594098,0.000000000,0.000000000,0.000000000,4259850.000000000,0.000000000,5.000000000,28.500000000,1749047932569289.000000000,1749047932569220.000000000,-9.982863426,0.505655408,-1.991975784
1749047932.604114,0.000000000,0.000000000,0.000000000,4259850.000000000,0.000000000,5.000000000,28.500000000,1749047932579044.000000000,1749047932578974.000000000,-9.975201607,0.497993946,-2.022621632
1749047932.614200,0.000000000,0.000000000,0.000000000,4259850.000000000,0.000000000,5.000000000,28.500000000,1749047932588794.000000000,1749047932588726.000000000,-9.952218056,0.551624060,-2.007298708
1749047932.624129,0.000000000,0.000000000,0.000000000,4259850.000000000,0.000000000,5.000000000,28.500000000,1749047932600985.000000000,1749047932600918.000000000,-9.959878922,0.490332514,-2.045605898
1749047932.634113,0.000000000,0.000000000,0.000000000,4259850.000000000,0.000000000,5.000000000,28.500000000,1749047932608303.000000000,1749047932608233.000000000,-9.952218056,0.467348188,-2.022621632
1749047932.641232,0.000000000,0.000000000,0.000000000,4259850.000000000,0.000000000,5.000000000,28.500000000,1749047932620495.000000000,1749047932620427.000000000,-9.998186111,0.497993946,-1.999637246
1749047932.651110,0.000000000,0.000000000,0.000000000,4259850.000000000,0.000000000,5.000000000,28.500000000,1749047932630252.000000000,1749047932630181.000000000,-9.998186111,0.444363832,-2.007298708
1749047932.661191,0.000000000,0.000000000,0.000000000,4259850.000000000,0.000000000,5.000000000,28.500000000,1749047932640004.000000000,1749047932639935.000000000,-9.998186111,0.513316870,-1.991975784
1749047932.671178,0.000000000,0.000000000,0.000000000,4259850.000000000,0.000000000,5.000000000,28.500000000,1749047932649758.000000000,1749047932649690.000000000,-9.967540741,0.490332514,-2.037944555
1749047932.681207,0.000000000,0.000000000,0.000000000,4259850.000000000,0.000000000,5.000000000,28.500000000,1749047932659517.000000000,1749047932659444.000000000,-9.936894417,0.505655408,-1.999637246
1749047932.694107,0.000000000,0.000000000,0.000000000,4259850.000000000,0.000000000,5.000000000,28.500000000,1749047932669266.000000000,1749047932669198.000000000,-9.990525246,0.467348188,-1.953668594
1749047932.704120,0.000000000,0.000000000,0.000000000,4259850.000000000,0.000000000,5.000000000,28.500000000,1749047932679020.000000000,1749047932678952.000000000,-9.936894417,0.475009620,-2.007298708
1749047932.714098,0.000000000,0.000000000,0.000000000,4259850.000000000,0.000000000,5.000000000,28.500000000,1749047932688774.000000000,1749047932688706.000000000,-9.952218056,0.505655408,-1.961330056
1749047932.724162,0.000000000,0.000000000,0.000000000,4259850.000000000,0.000000000,5.000000000,28.500000000,1749047932700965.000000000,1749047932700898.000000000,-10.013509750,0.467348188,-1.976652980
1749047932.731165,0.000000000,0.000000000,0.000000000,4259850.000000000,0.000000000,5.000000000,28.500000000,1749047932710721.000000000,1749047932710652.000000000,-9.982863426,0.497993946,-2.053267479
1749047932.744131,0.000000000,0.000000000,0.000000000,4259850.000000000,0.000000000,5.000000000,28.500000000,1749047932718037.000000000,1749047932717968.000000000,-9.975201607,0.497993946,-2.068590403
1749047932.751124,0.000000000,0.000000000,0.000000000,4259850.000000000,0.000000000,5.000000000,28.500000000,1749047932730228.000000000,1749047932730160.000000000,-9.990525246,0.459686726,-2.007298708
1749047932.764113,0.000000000,0.000000000,0.000000000,4259850.000000000,0.000000000,5.000000000,28.500000000,1749047932739982.000000000,1749047932739914.000000000,-9.944556236,0.482671082,-2.022621632
1749047932.771113,0.000000000,0.000000000,0.000000000,4259850.000000000,0.000000000,5.000000000,28.500000000,1749047932749737.000000000,1749047932749668.000000000,-9.952218056,0.467348188,-2.037944555
1749047932.781098,0.000000000,0.000000000,0.000000000,4259850.000000000,0.000000000,5.000000000,28.500000000,1749047932759539.000000000,1749047932759422.000000000,-9.929233551,0.490332514,-2.053267479
1749047932.793192,0.000000000,0.000000000,0.000000000,4259850.000000000,0.000000000,5.000000000,28.500000000,1749047932769243.000000000,1749047932769176.000000000,-9.990525246,0.482671082,-2.030282974
1749047932.804112,0.000000000,0.000000000,0.000000000,4259850.000000000,0.000000000,5.000000000,28.500000000,1749047932778998.000000000,1749047932778930.000000000,-9.967540741,0.467348188,-2.037944555
1749047932.814208,0.000000000,0.000000000,0.000000000,4259850.000000000,0.000000000,5.000000000,28.500000000,1749047932788754.000000000,1749047932788684.000000000,-9.975201607,0.444363832,-1.961330056
1749047932.824146,0.000000000,0.000000000,0.000000000,4259850.000000000,0.000000000,5.000000000,28.500000000,1749047932800946.000000000,1749047932800876.000000000,-10.005847931,0.505655408,-1.976652980
1749047932.831225,0.000000000,0.000000000,0.000000000,4259850.000000000,0.000000000,5.000000000,28.500000000,1749047932810696.000000000,1749047932810629.000000000,-9.975201607,0.482671082,-1.961330056
1749047932.841129,0.000000000,0.000000000,0.000000000,4259850.000000000,0.000000000,5.000000000,28.500000000,1749047932820450.000000000,1749047932820383.000000000,-9.959878922,0.475009620,-2.007298708
1749047932.851169,0.000000000,0.000000000,0.000000000,4259850.000000000,0.000000000,5.000000000,28.500000000,1749047932830207.000000000,1749047932830137.000000000,-9.944556236,0.490332514,-1.999637246
1749047932.861121,0.000000000,0.000000000,0.000000000,4259850.000000000,0.000000000,5.000000000,28.500000000,1749047932840088.000000000,1749047932839889.000000000,-9.959878922,0.421379507,-1.961330056
1749047932.872141,0.000000000,0.000000000,0.000000000,4259850.000000000,0.000000000,5.000000000,28.500000000,1749047932849712.000000000,1749047932849643.000000000,-9.944556236,0.482671082,-1.968991518
1749047932.881165,0.000000000,0.000000000,0.000000000,4259850.000000000,0.000000000,5.000000000,28.500000000,1749047932859465.000000000,1749047932859398.000000000,-10.021170616,0.482671082,-1.999637246
1749047932.894120,0.000000000,0.000000000,0.000000000,4259850.000000000,0.000000000,5.000000000,28.500000000,1749047932869218.000000000,1749047932869152.000000000,-9.982863426,0.482671082,-2.014960289
1749047932.904138,0.000000000,0.000000000,0.000000000,4259850.000000000,0.000000000,5.000000000,28.500000000,1749047932878976.000000000,1749047932878907.000000000,-9.982863426,0.467348188,-2.014960289
1749047932.914208,0.000000000,0.000000000,0.000000000,4259850.000000000,0.000000000,5.000000000,28.500000000,1749047932891168.000000000,1749047932891099.000000000,-9.921571732,0.520978272,-2.007298708
1749047932.924219,0.000000000,0.000000000,0.000000000,4259850.000000000,0.000000000,5.000000000,28.500000000,1749047932900923.000000000,1749047932900855.000000000,-9.967540741,0.482671082,-2.007298708
1749047932.931165,0.000000000,0.000000000,0.000000000,4259850.000000000,0.000000000,5.000000000,28.500000000,1749047932910678.000000000,1749047932910610.000000000,-9.952218056,0.482671082,-2.030282974
1749047932.945114,0.000000000,0.000000000,0.000000000,4259850.000000000,0.000000000,5.000000000,28.500000000,1749047932918141.000000000,1749047932917926.000000000,-9.967540741,0.505655408,-1.968991518
1749047932.952113,0.000000000,0.000000000,0.000000000,4259850.000000000,0.000000000,5.000000000,28.500000000,1749047932930188.000000000,1749047932930119.000000000,-9.998186111,0.475009620,-1.984314442
1749047932.962152,0.000000000,0.000000000,0.000000000,4259850.000000000,0.000000000,5.000000000,28.500000000,1749047932939943.000000000,1749047932939873.000000000,-9.959878922,0.490332514,-1.999637246
1749047932.971161,0.000000000,0.000000000,0.000000000,4259850.000000000,0.000000000,5.000000000,28.500000000,1749047932949695.000000000,1749047932949627.000000000,-9.921571732,0.497993946,-1.961330056
1749047932.983105,0.000000000,0.000000000,0.000000000,4259850.000000000,0.000000000,5.000000000,28.500000000,1749047932959451.000000000,1749047932959381.000000000,-9.936894417,0.482671082,-1.999637246
1749047932.995193,0.000000000,0.000000000,0.000000000,4259850.000000000,0.000000000,5.000000000,28.500000000,1749047932969204.000000000,1749047932969135.000000000,-9.975201607,0.421379507,-2.045605898
1749047933.004154,0.000000000,0.000000000,0.000000000,4259850.000000000,0.000000000,5.000000000,28.500000000,1749047932978955.000000000,1749047932978888.000000000,-9.998186111,0.352426499,-1.976652980
1749047933.014184,0.000000000,0.000000000,0.000000000,4259850.000000000,0.000000000,5.000000000,28.500000000,1749047932988709.000000000,1749047932988642.000000000,-9.944556236,0.459686726,-2.014960289
1749047933.024148,0.000000000,0.000000000,0.000000000,4259850.000000000,0.000000000,5.000000000,28.500000000,1749047932998466.000000000,1749047932998396.000000000,-9.982863426,0.574608386,-2.007298708
1749047933.034115,0.000000000,0.000000000,0.000000000,4259850.000000000,0.000000000,5.000000000,28.500000000,1749047933008217.000000000,1749047933008149.000000000,-9.975201607,0.528639734,-2.014960289
1749047933.041168,0.000000000,0.000000000,0.000000000,4259850.000000000,0.000000000,5.000000000,28.500000000,1749047933020484.000000000,1749047933020340.000000000,-9.959878922,0.536301196,-1.976652980
1749047933.051116,0.000000000,0.000000000,0.000000000,4259850.000000000,0.000000000,5.000000000,28.500000000,1749047933030162.000000000,1749047933030094.000000000,-9.990525246,0.467348188,-1.976652980
1749047933.061142,0.000000000,0.000000000,0.000000000,4259850.000000000,0.000000000,5.000000000,28.500000000,1749047933039914.000000000,1749047933039847.000000000,-9.959878922,0.452025294,-1.961330056
1749047933.071151,0.000000000,0.000000000,0.000000000,4259850.000000000,0.000000000,5.000000000,28.500000000,1749047933049669.000000000,1749047933049599.000000000,-9.959878922,0.429040939,-2.007298708
1749047933.084126,0.000000000,0.000000000,0.000000000,4259850.000000000,0.000000000,5.000000000,28.500000000,1749047933059420.000000000,1749047933059352.000000000,-9.944556236,0.505655408,-1.968991518
1749047933.093204,0.000000000,0.000000000,0.000000000,4259850.000000000,0.000000000,5.000000000,28.500000000,1749047933069172.000000000,1749047933069105.000000000,-9.944556236,0.513316870,-1.961330056
1749047933.104119,0.000000000,0.000000000,0.000000000,4259850.000000000,0.000000000,5.000000000,28.500000000,1749047933078925.000000000,1749047933078857.000000000,-9.936894417,0.475009620,-1.976652980
1749047933.114183,0.000000000,0.000000000,0.000000000,4259850.000000000,0.000000000,5.000000000,28.500000000,1749047933091116.000000000,1749047933091048.000000000,-9.990525246,0.505655408,-1.976652980
1749047933.124130,0.000000000,0.000000000,0.000000000,4259850.000000000,0.000000000,5.000000000,28.500000000,1749047933100871.000000000,1749047933100802.000000000,-9.936894417,0.513316870,-1.991975784
1749047933.131239,0.000000000,0.000000000,0.000000000,4259850.000000000,0.000000000,5.000000000,28.500000000,1749047933110623.000000000,1749047933110555.000000000,-9.913910866,0.429040939,-2.037944555
1749047933.141155,0.000000000,0.000000000,0.000000000,4259850.000000000,0.000000000,5.000000000,28.500000000,1749047933120376.000000000,1749047933120308.000000000,-9.967540741,0.505655408,-2.007298708
1749047933.154228,0.000000000,0.000000000,0.000000000,4259850.000000000,0.000000000,5.000000000,28.500000000,1749047933127692.000000000,1749047933127623.000000000,-9.890926361,0.520978272,-1.991975784
1749047933.164117,0.000000000,0.000000000,0.000000000,4259850.000000000,0.000000000,5.000000000,28.500000000,1749047933137445.000000000,1749047933137377.000000000,-9.952218056,0.467348188,-1.976652980
1749047933.171162,0.000000000,0.000000000,0.000000000,4259850.000000000,0.000000000,5.000000000,28.500000000,1749047933149687.000000000,1749047933149569.000000000,-9.990525246,0.482671082,-1.999637246
1749047933.184125,0.000000000,0.000000000,0.000000000,4259850.000000000,0.000000000,5.000000000,28.500000000,1749047933159394.000000000,1749047933159323.000000000,-9.936894417,0.436702400,-1.976652980
1749047933.195177,0.000000000,0.000000000,0.000000000,4259850.000000000,0.000000000,5.000000000,28.500000000,1749047933169143.000000000,1749047933169076.000000000,-9.990525246,0.482671082,-1.976652980
1749047933.205124,0.000000000,0.000000000,0.000000000,4259850.000000000,0.000000000,5.000000000,28.500000000,1749047933178899.000000000,1749047933178829.000000000,-9.990525246,0.497993946,-1.946007133
1749047933.214160,0.000000000,0.000000000,0.000000000,4259850.000000000,0.000000000,5.000000000,28.500000000,1749047933191087.000000000,1749047933191020.000000000,-9.944556236,0.497993946,-2.014960289
1749047933.221204,0.000000000,0.000000000,0.000000000,4259850.000000000,0.000000000,5.000000000,28.500000000,1749047933200839.000000000,1749047933200771.000000000,-9.967540741,0.505655408,-2.007298708
1749047933.231103,0.000000000,0.000000000,0.000000000,4259850.000000000,0.000000000,5.000000000,28.500000000,1749047933210596.000000000,1749047933210526.000000000,-9.959878922,0.467348188,-2.053267479
1749047933.241216,0.000000000,0.000000000,0.000000000,4259850.000000000,0.000000000,5.000000000,28.500000000,1749047933220345.000000000,1749047933220277.000000000,-9.944556236,0.520978272,-1.984314442
1749047933.255152,0.000000000,0.000000000,0.000000000,4259850.000000000,0.000000000,5.000000000,28.500000000,1749047933230239.000000000,1749047933230034.000000000,-9.913910866,0.475009620,-1.968991518
1749047933.263172,0.000000000,0.000000000,0.000000000,4259850.000000000,0.000000000,5.000000000,28.500000000,1749047933239856.000000000,1749047933239787.000000000,-9.975201607,0.497993946,-1.991975784
1749047933.272121,0.000000000,0.000000000,0.000000000,4259850.000000000,0.000000000,5.000000000,28.500000000,1749047933249607.000000000,1749047933249540.000000000,-9.936894417,0.482671082,-1.999637246
1749047933.284211,0.000000000,0.000000000,0.000000000,4259850.000000000,0.000000000,5.000000000,28.500000000,1749047933259363.000000000,1749047933259292.000000000,-9.944556236,0.490332514,-2.022621632
1749047933.294186,0.000000000,0.000000000,0.000000000,4259850.000000000,0.000000000,5.000000000,28.500000000,1749047933269112.000000000,1749047933269044.000000000,-9.967540741,0.459686726,-1.961330056
1749047933.304123,0.000000000,0.000000000,0.000000000,4259850.000000000,0.000000000,5.000000000,28.500000000,1749047933278864.000000000,1749047933278797.000000000,-9.975201607,0.452025294,-1.953668594
1749047933.314089,0.000000000,0.000000000,0.000000000,4259850.000000000,0.000000000,5.000000000,28.500000000,1749047933291056.000000000,1749047933290989.000000000,-9.998186111,0.452025294,-2.007298708
1749047933.321165,0.000000000,0.000000000,0.000000000,4259850.000000000,0.000000000,5.000000000,28.500000000,1749047933300809.000000000,1749047933300741.000000000,-9.944556236,0.482671082,-1.976652980
1749047933.331198,0.000000000,0.000000000,0.000000000,4259850.000000000,0.000000000,5.000000000,28.500000000,1749047933310561.000000000,1749047933310493.000000000,-9.952218056,0.452025294,-2.014960289
1749047933.341235,0.000000000,0.000000000,0.000000000,4259850.000000000,0.000000000,5.000000000,28.500000000,1749047933320314.000000000,1749047933320245.000000000,-10.005847931,0.475009620,-1.961330056
1749047933.351120,0.000000000,0.000000000,0.000000000,4259850.000000000,0.000000000,5.000000000,28.500000000,1749047933330067.000000000,1749047933329998.000000000,-9.929233551,0.505655408,-1.961330056
1749047933.361213,0.000000000,0.000000000,0.000000000,4259850.000000000,0.000000000,5.000000000,28.500000000,1749047933339819.000000000,1749047933339750.000000000,-9.952218056,0.475009620,-1.976652980
1749047933.371162,0.000000000,0.000000000,0.000000000,4259850.000000000,0.000000000,5.000000000,28.500000000,1749047933349572.000000000,1749047933349503.000000000,-9.921571732,0.482671082,-1.999637246
1749047933.384120,0.000000000,0.000000000,0.000000000,4259850.000000000,0.000000000,5.000000000,28.500000000,1749047933359323.000000000,1749047933359255.000000000,-9.982863426,0.467348188,-2.014960289
1749047933.393204,0.000000000,0.000000000,0.000000000,4259850.000000000,0.000000000,5.000000000,28.500000000,1749047933369075.000000000,1749047933369007.000000000,-9.952218056,0.452025294,-2.014960289
1749047933.404101,0.000000000,0.000000000,0.000000000,4259850.000000000,0.000000000,5.000000000,28.500000000,1749047933379317.000000000,1749047933379248.000000000,-9.975201607,0.467348188,-1.999637246
1749047933.415171,0.000000000,0.000000000,0.000000000,4259850.000000000,0.000000000,5.000000000,28.500000000,1749047933389069.000000000,1749047933389002.000000000,-9.913910866,0.490332514,-1.968991518
1749047933.424225,0.000000000,0.000000000,0.000000000,4259850.000000000,0.000000000,5.000000000,28.500000000,1749047933398889.000000000,1749047933398754.000000000,-9.952218056,0.490332514,-1.961330056
1749047933.434117,0.000000000,0.000000000,0.000000000,4259850.000000000,0.000000000,5.000000000,28.500000000,1749047933408576.000000000,1749047933408508.000000000,-9.967540741,0.520978272,-1.999637246
1749047933.443150,0.000000000,0.000000000,0.000000000,4259850.000000000,0.000000000,5.000000000,28.500000000,1749047933420766.000000000,1749047933420699.000000000,-9.982863426,0.459686726,-2.014960289
1749047933.452172,0.000000000,0.000000000,0.000000000,4259850.000000000,0.000000000,5.000000000,28.500000000,1749047933430568.000000000,1749047933430451.000000000,-9.952218056,0.444363832,-2.037944555
1749047933.462099,0.000000000,0.000000000,0.000000000,4259850.000000000,0.000000000,5.000000000,28.500000000,1749047933440271.000000000,1749047933440203.000000000,-9.929233551,0.497993946,-1.968991518
1749047933.471180,0.000000000,0.000000000,0.000000000,4259850.000000000,0.000000000,5.000000000,28.500000000,1749047933450026.000000000,1749047933449957.000000000,-9.952218056,0.475009620,-1.953668594
1749047933.481148,0.000000000,0.000000000,0.000000000,4259850.000000000,0.000000000,5.000000000,28.500000000,1749047933459778.000000000,1749047933459710.000000000,-9.967540741,0.475009620,-2.045605898
1749047933.492139,0.000000000,0.000000000,0.000000000,4259850.000000000,0.000000000,5.000000000,28.500000000,1749047933469534.000000000,1749047933469464.000000000,-9.967540741,0.490332514,-1.984314442
1749047933.504162,0.000000000,0.000000000,0.000000000,4259850.000000000,0.000000000,5.000000000,28.500000000,1749047933479437.000000000,1749047933479218.000000000,-9.921571732,0.444363832,-2.014960289
1749047933.514111,0.000000000,0.000000000,0.000000000,4259850.000000000,0.000000000,5.000000000,28.500000000,1749047933489039.000000000,1749047933488971.000000000,-10.005847931,0.421379507,-1.984314442
1749047933.524165,0.000000000,0.000000000,0.000000000,4259850.000000000,0.000000000,5.000000000,28.500000000,1749047933498792.000000000,1749047933498725.000000000,-9.990525246,0.482671082,-2.007298708
1749047933.534199,0.000000000,0.000000000,0.000000000,4259850.000000000,0.000000000,5.000000000,28.500000000,1749047933510985.000000000,1749047933510917.000000000,-9.990525246,0.482671082,-1.991975784
1749047933.542104,0.000000000,0.000000000,0.000000000,4259850.000000000,0.000000000,5.000000000,28.500000000,1749047933520739.000000000,1749047933520671.000000000,-9.982863426,0.467348188,-2.022621632
1749047933.551172,0.000000000,0.000000000,0.000000000,4259850.000000000,0.000000000,5.000000000,28.500000000,1749047933530496.000000000,1749047933530425.000000000,-9.944556236,0.497993946,-1.946007133
1749047933.565152,0.000000000,0.000000000,0.000000000,4259850.000000000,0.000000000,5.000000000,28.500000000,1749047933537807.000000000,1749047933537740.000000000,-9.944556236,0.482671082,-1.991975784
1749047933.571203,0.000000000,0.000000000,0.000000000,4259850.000000000,0.000000000,5.000000000,28.500000000,1749047933549999.000000000,1749047933549931.000000000,-9.982863426,0.459686726,-2.045605898
1749047933.581173,0.000000000,0.000000000,0.000000000,4259850.000000000,0.000000000,5.000000000,28.500000000,1749047933559753.000000000,1749047933559684.000000000,-9.936894417,0.436702400,-2.045605898
1749047933.591200,0.000000000,0.000000000,0.000000000,4259850.000000000,0.000000000,5.000000000,28.500000000,1749047933569506.000000000,1749047933569437.000000000,-9.975201607,0.467348188,-1.953668594
1749047933.604120,0.000000000,0.000000000,0.000000000,4259850.000000000,0.000000000,5.000000000,28.500000000,1749047933579260.000000000,1749047933579190.000000000,-9.959878922,0.528639734,-1.961330056
1749047933.614124,0.000000000,0.000000000,0.000000000,4259850.000000000,0.000000000,5.000000000,28.500000000,1749047933589010.000000000,1749047933588942.000000000,-9.982863426,0.467348188,-1.999637246
1749047933.624247,0.000000000,0.000000000,0.000000000,4259850.000000000,0.000000000,5.000000000,28.500000000,1749047933601201.000000000,1749047933601133.000000000,-9.959878922,0.513316870,-1.961330056
1749047933.634128,0.000000000,0.000000000,0.000000000,4259850.000000000,0.000000000,5.000000000,28.500000000,1749047933610953.000000000,1749047933610886.000000000,-9.982863426,0.452025294,-1.991975784
1749047933.641207,0.000000000,0.000000000,0.000000000,4259850.000000000,0.000000000,5.000000000,28.500000000,1749047933620710.000000000,1749047933620638.000000000,-9.952218056,0.429040939,-2.022621632
1749047933.651189,0.000000000,0.000000000,0.000000000,4259850.000000000,0.000000000,5.000000000,28.500000000,1749047933630466.000000000,1749047933630391.000000000,-9.998186111,0.452025294,-2.007298708
1749047933.661162,0.000000000,0.000000000,0.000000000,4259850.000000000,0.000000000,5.000000000,28.500000000,1749047933640213.000000000,1749047933640145.000000000,-9.975201607,0.429040939,-1.976652980
1749047933.671153,0.000000000,0.000000000,0.000000000,4259850.000000000,0.000000000,5.000000000,28.500000000,1749047933649965.000000000,1749047933649898.000000000,-9.990525246,0.528639734,-1.961330056
1749047933.681163,0.000000000,0.000000000,0.000000000,4259850.000000000,0.000000000,5.000000000,28.500000000,1749047933659722.000000000,1749047933659652.000000000,-9.967540741,0.475009620,-1.976652980
1749047933.692111,0.000000000,0.000000000,0.000000000,4259850.000000000,0.000000000,5.000000000,28.500000000,1749047933669474.000000000,1749047933669405.000000000,-9.990525246,0.436702400,-2.014960289
1749047933.703221,0.000000000,0.000000000,0.000000000,4259850.000000000,0.000000000,5.000000000,28.500000000,1749047933679225.000000000,1749047933679158.000000000,-9.906249046,0.459686726,-2.068590403
1749047933.714193,0.000000000,0.000000000,0.000000000,4259850.000000000,0.000000000,5.000000000,28.500000000,1749047933688978.000000000,1749047933688910.000000000,-9.952218056,0.467348188,-2.068590403
1749047933.725222,0.000000000,0.000000000,0.000000000,4259850.000000000,0.000000000,5.000000000,28.500000000,1749047933701168.000000000,1749047933701101.000000000,-9.936894417,0.459686726,-2.053267479
1749047933.731180,0.000000000,0.000000000,0.000000000,4259850.000000000,0.000000000,5.000000000,28.500000000,1749047933711011.000000000,1749047933710854.000000000,-9.929233551,0.559285522,-2.053267479
1749047933.742130,0.000000000,0.000000000,0.000000000,4259850.000000000,0.000000000,5.000000000,28.500000000,1749047933720674.000000000,1749047933720606.000000000,-9.959878922,0.520978272,-1.999637246
1749047933.751263,0.000000000,0.000000000,0.000000000,4259850.000000000,0.000000000,5.000000000,28.500000000,1749047933730429.000000000,1749047933730360.000000000,-9.936894417,0.467348188,-2.014960289
1749047933.761174,0.000000000,0.000000000,0.000000000,4259850.000000000,0.000000000,5.000000000,28.500000000,1749047933740181.000000000,1749047933740113.000000000,-9.929233551,0.444363832,-1.938345671
1749047933.773214,0.000000000,0.000000000,0.000000000,4259850.000000000,0.000000000,5.000000000,28.500000000,1749047933747497.000000000,1749047933747428.000000000,-9.952218056,0.429040939,-1.930684328
1749047933.781173,0.000000000,0.000000000,0.000000000,4259850.000000000,0.000000000,5.000000000,28.500000000,1749047933759687.000000000,1749047933759619.000000000,-9.975201607,0.467348188,-1.953668594
1749047933.793213,0.000000000,0.000000000,0.000000000,4259850.000000000,0.000000000,5.000000000,28.500000000,1749047933769441.000000000,1749047933769373.000000000,-10.013509750,0.406056613,-1.999637246
1749047933.804103,0.000000000,0.000000000,0.000000000,4259850.000000000,0.000000000,5.000000000,28.500000000,1749047933779192.000000000,1749047933779126.000000000,-9.990525246,0.398395181,-2.014960289
1749047933.814126,0.000000000,0.000000000,0.000000000,4259850.000000000,0.000000000,5.000000000,28.500000000,1749047933789039.000000000,1749047933788878.000000000,-10.005847931,0.459686726,-1.991975784
1749047933.824123,0.000000000,0.000000000,0.000000000,4259850.000000000,0.000000000,5.000000000,28.500000000,1749047933798699.000000000,1749047933798631.000000000,-9.952218056,0.475009620,-1.968991518
1749047933.831326,0.000000000,0.000000000,0.000000000,4259850.000000000,0.000000000,5.000000000,28.500000000,1749047933810890.000000000,1749047933810823.000000000,-9.921571732,0.551624060,-2.022621632
1749047933.844112,0.000000000,0.000000000,0.000000000,4259850.000000000,0.000000000,5.000000000,28.500000000,1749047933818203.000000000,1749047933818137.000000000,-9.921571732,0.520978272,-1.946007133
1749047933.851200,0.000000000,0.000000000,0.000000000,4259850.000000000,0.000000000,5.000000000,28.500000000,1749047933830398.000000000,1749047933830329.000000000,-9.952218056,0.543962657,-1.999637246
1749047933.861180,0.000000000,0.000000000,0.000000000,4259850.000000000,0.000000000,5.000000000,28.500000000,1749047933840147.000000000,1749047933840079.000000000,-9.982863426,0.429040939,-1.991975784
1749047933.871230,0.000000000,0.000000000,0.000000000,4259850.000000000,0.000000000,5.000000000,28.500000000,1749047933849898.000000000,1749047933849831.000000000,-10.036493301,0.421379507,-2.007298708
1749047933.881160,0.000000000,0.000000000,0.000000000,4259850.000000000,0.000000000,5.000000000,28.500000000,1749047933859653.000000000,1749047933859583.000000000,-9.982863426,0.421379507,-2.053267479
1749047933.894205,0.000000000,0.000000000,0.000000000,4259850.000000000,0.000000000,5.000000000,28.500000000,1749047933869406.000000000,1749047933869336.000000000,-9.929233551,0.467348188,-1.999637246
1749047933.904118,0.000000000,0.000000000,0.000000000,4259850.000000000,0.000000000,5.000000000,28.500000000,1749047933879158.000000000,1749047933879089.000000000,-9.967540741,0.528639734,-2.022621632
1749047933.914169,0.000000000,0.000000000,0.000000000,4259850.000000000,0.000000000,5.000000000,28.500000000,1749047933888910.000000000,1749047933888842.000000000,-9.952218056,0.482671082,-2.060928822
1749047933.924199,0.000000000,0.000000000,0.000000000,4259850.000000000,0.000000000,5.000000000,28.500000000,1749047933898663.000000000,1749047933898595.000000000,-9.944556236,0.360087931,-1.991975784
1749047933.931178,0.000000000,0.000000000,0.000000000,4259850.000000000,0.000000000,5.000000000,28.500000000,1749047933910853.000000000,1749047933910786.000000000,-10.021170616,0.482671082,-1.984314442
1749047933.941171,0.000000000,0.000000000,0.000000000,4259850.000000000,0.000000000,5.000000000,28.500000000,1749047933920676.000000000,1749047933920539.000000000,-9.959878922,0.459686726,-1.968991518
1749047933.956188,0.000000000,0.000000000,0.000000000,4259850.000000000,0.000000000,5.000000000,28.500000000,1749047933930362.000000000,1749047933930292.000000000,-9.944556236,0.490332514,-2.045605898
1749047933.963220,0.000000000,0.000000000,0.000000000,4259850.000000000,0.000000000,5.000000000,28.500000000,1749047933940112.000000000,1749047933940044.000000000,-10.021170616,0.536301196,-2.037944555
1749047933.975134,0.000000000,0.000000000,0.000000000,4259850.000000000,0.000000000,5.000000000,28.500000000,1749047933947429.000000000,1749047933947359.000000000,-9.982863426,0.413718045,-2.060928822
1749047933.982280,0.000000000,0.000000000,0.000000000,4259850.000000000,0.000000000,5.000000000,28.500000000,1749047933959619.000000000,1749047933959550.000000000,-9.967540741,0.475009620,-1.984314442
1749047933.994206,0.000000000,0.000000000,0.000000000,4259850.000000000,0.000000000,5.000000000,28.500000000,1749047933969373.000000000,1749047933969304.000000000,-9.998186111,0.513316870,-2.022621632
1749047934.004100,0.000000000,0.000000000,0.000000000,4259850.000000000,0.000000000,5.000000000,28.500000000,1749047933979127.000000000,1749047933979059.000000000,-9.929233551,0.421379507,-1.961330056
1749047934.014126,0.000000000,0.000000000,0.000000000,4259850.000000000,0.000000000,5.000000000,28.500000000,1749047933991319.000000000,1749047933991251.000000000,-9.921571732,0.482671082,-2.007298708
1749047934.024223,0.000000000,0.000000000,0.000000000,4259850.000000000,0.000000000,5.000000000,28.500000000,1749047934001072.000000000,1749047934001004.000000000,-9.982863426,0.520978272,-1.991975784
1749047934.031179,0.000000000,0.000000000,0.000000000,4259850.000000000,0.000000000,5.000000000,28.500000000,1749047934010827.000000000,1749047934010759.000000000,-9.936894417,0.459686726,-2.007298708
1749047934.042141,0.000000000,0.000000000,0.000000000,4259850.000000000,0.000000000,5.000000000,28.500000000,1749047934020626.000000000,1749047934020513.000000000,-9.967540741,0.459686726,-2.022621632
1749047934.051356,0.000000000,0.000000000,0.000000000,4259850.000000000,0.000000000,5.000000000,28.500000000,1749047934030335.000000000,1749047934030266.000000000,-9.975201607,0.482671082,-2.045605898
1749047934.062146,0.000000000,0.000000000,0.000000000,4259850.000000000,0.000000000,5.000000000,28.500000000,1749047934040089.000000000,1749047934040021.000000000,-9.967540741,0.475009620,-2.014960289
1749047934.074168,0.000000000,0.000000000,0.000000000,4259850.000000000,0.000000000,5.000000000,28.500000000,1749047934047407.000000000,1749047934047337.000000000,-9.982863426,0.497993946,-2.022621632
1749047934.082228,0.000000000,0.000000000,0.000000000,4259850.000000000,0.000000000,5.000000000,28.500000000,1749047934059599.000000000,1749047934059529.000000000,-9.982863426,0.459686726,-2.014960289
1749047934.094169,0.000000000,0.000000000,0.000000000,4259850.000000000,0.000000000,5.000000000,28.500000000,1749047934069355.000000000,1749047934069282.000000000,-9.913910866,0.459686726,-1.999637246
1749047934.104187,0.000000000,0.000000000,0.000000000,4259850.000000000,0.000000000,5.000000000,28.500000000,1749047934079104.000000000,1749047934079036.000000000,-10.005847931,0.459686726,-2.007298708
1749047934.114134,0.000000000,0.000000000,0.000000000,4259850.000000000,0.000000000,5.000000000,28.500000000,1749047934088858.000000000,1749047934088790.000000000,-9.967540741,0.429040939,-1.976652980
1749047934.124151,0.000000000,0.000000000,0.000000000,4259850.000000000,0.000000000,5.000000000,28.500000000,1749047934098653.000000000,1749047934098544.000000000,-9.944556236,0.490332514,-2.014960289
1749047934.131187,0.000000000,0.000000000,0.000000000,4259850.000000000,0.000000000,5.000000000,28.500000000,1749047934110802.000000000,1749047934110735.000000000,-9.990525246,0.497993946,-1.991975784
1749047934.141206,0.000000000,0.000000000,0.000000000,4259850.000000000,0.000000000,5.000000000,28.500000000,1749047934120559.000000000,1749047934120488.000000000,-9.944556236,0.505655408,-2.014960289
1749047934.153226,0.000000000,0.000000000,0.000000000,4259850.000000000,0.000000000,5.000000000,28.500000000,1749047934127871.000000000,1749047934127803.000000000,-9.990525246,0.490332514,-2.076251745
1749047934.161186,0.000000000,0.000000000,0.000000000,4259850.000000000,0.000000000,5.000000000,28.500000000,1749047934140069.000000000,1749047934139999.000000000,-9.959878922,0.452025294,-1.968991518
1749047934.171206,0.000000000,0.000000000,0.000000000,4259850.000000000,0.000000000,5.000000000,28.500000000,1749047934149819.000000000,1749047934149750.000000000,-9.982863426,0.459686726,-2.014960289
1749047934.181166,0.000000000,0.000000000,0.000000000,4259850.000000000,0.000000000,5.000000000,28.500000000,1749047934159571.000000000,1749047934159503.000000000,-9.975201607,0.467348188,-1.991975784
1749047934.194204,0.000000000,0.000000000,0.000000000,4259850.000000000,0.000000000,5.000000000,28.500000000,1749047934169325.000000000,1749047934169257.000000000,-9.967540741,0.482671082,-1.984314442
