__time,/fmu/out/sensor_combined/accel_calibration_count,/fmu/out/sensor_combined/accelerometer_clipping,/fmu/out/sensor_combined/accelerometer_integral_dt,/fmu/out/sensor_combined/accelerometer_m_s2[0],/fmu/out/sensor_combined/accelerometer_m_s2[1],/fmu/out/sensor_combined/accelerometer_m_s2[2],/fmu/out/sensor_combined/accelerometer_timestamp_relative,/fmu/out/sensor_combined/gyro_calibration_count,/fmu/out/sensor_combined/gyro_clipping,/fmu/out/sensor_combined/gyro_integral_dt,/fmu/out/sensor_combined/gyro_rad[0],/fmu/out/sensor_combined/gyro_rad[1],/fmu/out/sensor_combined/gyro_rad[2],/fmu/out/sensor_combined/timestamp
1749047931.253164,5.000000000,0.000000000,4877.000000000,1.901251435,-0.143691555,-9.637766838,0.000000000,1.000000000,0.000000000,5001.000000000,0.001094122,-0.007388475,-0.001869085,1749047931239958.000000000
1749047931.260192,5.000000000,0.000000000,4877.000000000,1.932872415,-0.088654198,-9.628369331,0.000000000,1.000000000,0.000000000,5001.000000000,-0.000185437,-0.004725990,0.001004332,1749047931244959.000000000
1749047931.270180,5.000000000,0.000000000,4877.000000000,1.919849038,-0.096247129,-9.639647484,0.000000000,1.000000000,0.000000000,5001.000000000,0.000615101,-0.001955929,0.003880840,1749047931254961.000000000
1749047931.280152,5.000000000,0.000000000,4877.000000000,1.893810749,-0.126610518,-9.641526222,0.000000000,1.000000000,0.000000000,5001.000000000,-0.001675462,-0.000517966,0.002818390,1749047931264963.000000000
1749047931.291099,5.000000000,0.000000000,4877.000000000,1.875208378,-0.132302105,-9.630246162,0.000000000,1.000000000,0.000000000,5001.000000000,0.002690570,-0.004830933,-0.003522864,1749047931274965.000000000
1749047931.301153,5.000000000,0.000000000,4877.000000000,1.893811703,-0.111426078,-9.611445427,0.000000000,1.000000000,0.000000000,5001.000000000,-0.002368128,-0.002488309,0.007504829,1749047931284967.000000000
1749047931.311160,5.000000000,0.000000000,4877.000000000,1.893806934,-0.084857717,-9.639644623,0.000000000,1.000000000,0.000000000,5001.000000000,0.000720878,-0.003127347,-0.003041757,1749047931294969.000000000
1749047931.320195,5.000000000,0.000000000,4878.000000000,1.916129470,-0.109530576,-9.620848656,0.000000000,1.000000000,0.000000000,5001.000000000,-0.004393001,-0.006536474,-0.004907958,1749047931304971.000000000
1749047931.331173,5.000000000,0.000000000,4878.000000000,1.903109670,-0.113326319,-9.632126808,0.000000000,1.000000000,0.000000000,5001.000000000,0.002213230,-0.002647408,0.003828913,1749047931314973.000000000
1749047931.341169,5.000000000,0.000000000,4878.000000000,1.895669818,-0.134202644,-9.618968010,0.000000000,1.000000000,0.000000000,5001.000000000,-0.001837565,-0.004245608,-0.005759236,1749047931324975.000000000
1749047931.351226,5.000000000,0.000000000,7317.000000000,1.918609738,-0.094980389,-9.640274048,0.000000000,1.000000000,0.000000000,5001.000000000,0.000826960,-0.000518500,0.002497640,1749047931334977.000000000
1749047931.360240,5.000000000,0.000000000,4878.000000000,1.904969692,-0.149385497,-9.645285606,0.000000000,1.000000000,0.000000000,5001.000000000,0.001944876,0.001187350,0.002070666,1749047931344979.000000000
1749047931.371133,5.000000000,0.000000000,4880.000000000,1.931009531,-0.120920055,-9.620844841,0.000000000,1.000000000,0.000000000,5001.000000000,0.001732868,-0.003126617,0.004148152,1749047931354981.000000000
1749047931.379150,5.000000000,0.000000000,4878.000000000,1.865909696,-0.067777805,-9.628366470,0.000000000,1.000000000,0.000000000,5001.000000000,-0.002422131,-0.009091500,-0.000751825,1749047931364983.000000000
1749047931.389147,5.000000000,0.000000000,4877.000000000,1.865911365,-0.139891148,-9.618968964,0.000000000,1.000000000,0.000000000,5001.000000000,0.002531561,-0.003552871,0.001058222,1749047931374985.000000000
1749047931.398162,5.000000000,0.000000000,4878.000000000,1.895669580,-0.141794071,-9.626487732,0.000000000,1.000000000,0.000000000,5001.000000000,-0.005032286,-0.006377059,0.002229526,1749047931384987.000000000
1749047931.407141,5.000000000,0.000000000,4877.000000000,1.854750156,-0.153177261,-9.609568596,0.000000000,1.000000000,0.000000000,4999.000000000,0.000188436,-0.001209742,-0.003414205,1749047931394989.000000000
1749047931.417177,5.000000000,0.000000000,4877.000000000,1.891950130,-0.141799480,-9.632130623,0.000000000,1.000000000,0.000000000,4998.000000000,-0.001038927,-0.001636517,0.007235665,1749047931404991.000000000
1749047931.428102,5.000000000,0.000000000,4877.000000000,1.890090823,-0.119019866,-9.607691765,0.000000000,1.000000000,0.000000000,5001.000000000,0.007432285,-0.008933680,-0.000911890,1749047931414993.000000000
1749047931.438140,5.000000000,0.000000000,4878.000000000,1.910549402,-0.105734907,-9.615208626,0.000000000,1.000000000,0.000000000,5001.000000000,0.004289720,-0.000197796,0.003561905,1749047931424995.000000000
1749047931.446081,5.000000000,0.000000000,4878.000000000,1.960766554,-0.086754069,-9.611450195,0.000000000,1.000000000,0.000000000,5001.000000000,0.002425388,-0.000837207,-0.003627235,1749047931434997.000000000
1749047931.456192,5.000000000,0.000000000,4877.000000000,1.912408948,-0.111422949,-9.620848656,0.000000000,1.000000000,0.000000000,5001.000000000,0.001464854,-0.002648763,0.006597487,1749047931444999.000000000
1749047931.465157,5.000000000,0.000000000,4877.000000000,1.917994022,-0.120918140,-9.622724533,0.000000000,1.000000000,0.000000000,5001.000000000,-0.000397294,-0.006854878,0.005639197,1749047931455001.000000000
1749047931.475182,5.000000000,0.000000000,4877.000000000,1.919851542,-0.128507167,-9.617088318,0.000000000,1.000000000,0.000000000,5001.000000000,-0.002154632,-0.003500452,-0.002988615,1749047931465003.000000000
1749047931.485224,5.000000000,0.000000000,4877.000000000,1.891950130,-0.128504038,-9.628369331,0.000000000,1.000000000,0.000000000,5001.000000000,0.002052126,-0.003234255,0.007822875,1749047931475005.000000000
1749047931.495222,5.000000000,0.000000000,4878.000000000,1.901249886,-0.100041330,-9.620848656,0.000000000,1.000000000,0.000000000,5000.000000000,-0.000664204,-0.005737146,-0.007729426,1749047931485007.000000000
1749047931.504188,5.000000000,0.000000000,4878.000000000,1.867769718,-0.145589784,-9.602048874,0.000000000,1.000000000,0.000000000,5001.000000000,0.003704966,-0.004245891,0.003084198,1749047931495009.000000000
1749047931.514104,5.000000000,0.000000000,4878.000000000,1.914269567,-0.128509104,-9.615208626,0.000000000,1.000000000,0.000000000,5001.000000000,-0.004287774,-0.004992664,0.001272487,1749047931505011.000000000
1749047931.523140,5.000000000,0.000000000,4877.000000000,1.912412167,-0.156978428,-9.628367424,0.000000000,1.000000000,0.000000000,5001.000000000,-0.002474878,-0.002540617,0.000900703,1749047931515013.000000000
1749047931.532138,5.000000000,0.000000000,4877.000000000,1.919847608,-0.122813225,-9.611445427,0.000000000,1.000000000,0.000000000,5000.000000000,-0.001995784,0.002199067,0.002017742,1749047931525015.000000000
1749047931.542207,5.000000000,0.000000000,4877.000000000,1.903108716,-0.128505602,-9.626486778,0.000000000,1.000000000,0.000000000,5000.000000000,-0.001622948,-0.002594620,0.004254799,1749047931535017.000000000
1749047931.552179,5.000000000,0.000000000,4877.000000000,1.871490717,-0.107630394,-9.611449242,0.000000000,1.000000000,0.000000000,5001.000000000,-0.000557183,-0.006962147,-0.005651135,1749047931545019.000000000
1749047931.562238,5.000000000,0.000000000,4878.000000000,1.932869673,-0.096245557,-9.647166252,0.000000000,1.000000000,0.000000000,5000.000000000,0.002265267,-0.003819679,0.001964481,1749047931555021.000000000
1749047931.571213,5.000000000,0.000000000,4878.000000000,1.942169309,-0.111428432,-9.617088318,0.000000000,1.000000000,0.000000000,5001.000000000,-0.001462093,-0.003872451,0.001804461,1749047931565024.000000000
1749047931.582142,5.000000000,0.000000000,4878.000000000,1.917989850,-0.107632764,-9.609569550,0.000000000,1.000000000,0.000000000,5001.000000000,0.002425832,-0.005416740,0.009047842,1749047931575026.000000000
1749047931.592155,5.000000000,0.000000000,4877.000000000,1.931011558,-0.105735257,-9.603929520,0.000000000,1.000000000,0.000000000,5001.000000000,-0.000238748,-0.002807985,0.009209633,1749047931585028.000000000
1749047931.603138,5.000000000,0.000000000,4877.000000000,1.899390221,-0.101938777,-9.609567642,0.000000000,1.000000000,0.000000000,5002.000000000,0.003330542,0.001613169,-0.004267307,1749047931595030.000000000
1749047931.612143,5.000000000,0.000000000,4878.000000000,1.895669818,-0.122815572,-9.664085388,0.000000000,1.000000000,0.000000000,5000.000000000,-0.003646948,0.002252319,0.003828701,1749047931605031.000000000
1749047931.622183,5.000000000,0.000000000,4877.000000000,1.878928423,-0.124713048,-9.626485825,0.000000000,1.000000000,0.000000000,5001.000000000,-0.001676533,-0.001743249,0.000898895,1749047931615034.000000000
1749047931.631253,5.000000000,0.000000000,4878.000000000,1.847309828,-0.109530576,-9.603928566,0.000000000,1.000000000,0.000000000,5001.000000000,-0.001568472,0.001879700,-0.000966136,1749047931625036.000000000
1749047931.642093,5.000000000,0.000000000,4877.000000000,1.864050746,-0.128508732,-9.602048874,0.000000000,1.000000000,0.000000000,5001.000000000,-0.003593664,-0.000304672,0.003777453,1749047931635038.000000000
1749047931.651192,5.000000000,0.000000000,4878.000000000,1.884509802,-0.147487655,-9.618968010,0.000000000,1.000000000,0.000000000,5001.000000000,0.002745116,-0.005150879,-0.003788845,1749047931645040.000000000
1749047931.662150,5.000000000,0.000000000,4877.000000000,1.877071977,-0.101942740,-9.628367424,0.000000000,1.000000000,0.000000000,5001.000000000,0.001732725,-0.001583937,0.000419758,1749047931655042.000000000
1749047931.671179,5.000000000,0.000000000,4877.000000000,1.873348713,-0.132302910,-9.618968964,0.000000000,1.000000000,0.000000000,5001.000000000,0.003170926,0.000495380,0.001167007,1749047931665044.000000000
1749047931.681189,5.000000000,0.000000000,4876.000000000,1.912406564,-0.138004616,-9.622723579,0.000000000,1.000000000,0.000000000,5001.000000000,0.004821552,0.005715172,-0.004160441,1749047931675046.000000000
1749047931.692150,5.000000000,0.000000000,4877.000000000,1.916126966,-0.115220994,-9.658445358,0.000000000,1.000000000,0.000000000,5001.000000000,-0.001570320,-0.002062124,0.002071491,1749047931685048.000000000
1749047931.702191,5.000000000,0.000000000,4878.000000000,1.945889473,-0.113326319,-9.630248070,0.000000000,1.000000000,0.000000000,5001.000000000,-0.003327213,0.000707601,-0.001018989,1749047931695050.000000000
1749047931.712135,5.000000000,0.000000000,4877.000000000,1.957046747,-0.067772791,-9.617092133,0.000000000,1.000000000,0.000000000,5001.000000000,0.000346610,0.006193123,0.005959501,1749047931705052.000000000
1749047931.722216,5.000000000,0.000000000,4877.000000000,1.895672083,-0.094353646,-9.615208626,0.000000000,1.000000000,0.000000000,5001.000000000,0.005141371,0.003583856,-0.006342818,1749047931715054.000000000
1749047931.733102,5.000000000,0.000000000,7315.000000000,1.912412882,-0.117763102,-9.610197067,0.000000000,1.000000000,0.000000000,5001.000000000,-0.000504765,0.001292621,0.001433438,1749047931725056.000000000
1749047931.742170,5.000000000,0.000000000,4877.000000000,1.927290440,-0.166470438,-9.609567642,0.000000000,1.000000000,0.000000000,5001.000000000,0.000987551,0.003476511,-0.001764224,1749047931735058.000000000
1749047931.752223,5.000000000,0.000000000,4877.000000000,1.895669580,-0.147493497,-9.639646530,0.000000000,1.000000000,0.000000000,5001.000000000,0.003810264,0.001293402,-0.000113670,1749047931745060.000000000
1749047931.762129,5.000000000,0.000000000,4877.000000000,1.904970527,-0.124716923,-9.624610901,0.000000000,1.000000000,0.000000000,5001.000000000,0.000082060,0.000973524,-0.006504732,1749047931755062.000000000
1749047931.772239,5.000000000,0.000000000,4877.000000000,1.839870930,-0.120913438,-9.611450195,0.000000000,1.000000000,0.000000000,5001.000000000,0.000401544,-0.000252193,-0.006132557,1749047931765064.000000000
1749047931.782144,5.000000000,0.000000000,4877.000000000,1.884509563,-0.067778230,-9.643408775,0.000000000,1.000000000,0.000000000,5001.000000000,0.001891984,0.003689898,-0.002455493,1749047931775066.000000000
1749047931.793113,5.000000000,0.000000000,4877.000000000,1.912409902,-0.109537996,-9.624607086,0.000000000,1.000000000,0.000000000,5001.000000000,0.000293625,-0.001688864,0.000259752,1749047931785068.000000000
1749047931.802187,5.000000000,0.000000000,4878.000000000,1.906829596,-0.147487655,-9.626486778,0.000000000,1.000000000,0.000000000,5001.000000000,-0.003221427,-0.008454653,-0.000966244,1749047931795070.000000000
1749047931.811215,5.000000000,0.000000000,4876.000000000,1.895669818,-0.079164952,-9.650927544,0.000000000,1.000000000,0.000000000,5001.000000000,0.003703642,-0.000305599,-0.001710180,1749047931805072.000000000
1749047931.821182,5.000000000,0.000000000,4877.000000000,1.910552382,-0.107631966,-9.622727394,0.000000000,1.000000000,0.000000000,5001.000000000,0.003437684,-0.003392770,-0.003362877,1749047931815074.000000000
1749047931.832097,5.000000000,0.000000000,7316.000000000,1.928531647,-0.075994499,-9.618971825,0.000000000,1.000000000,0.000000000,5001.000000000,0.001359727,0.004223682,0.002922630,1749047931825076.000000000
1749047931.842098,5.000000000,0.000000000,4877.000000000,1.888230443,-0.079166897,-9.618968964,0.000000000,1.000000000,0.000000000,5001.000000000,0.000400858,-0.003553321,0.003456038,1749047931835078.000000000
1749047931.851222,5.000000000,0.000000000,4877.000000000,1.908690453,-0.141790986,-9.613327026,0.000000000,1.000000000,0.000000000,5000.000000000,-0.005085063,0.001080545,-0.005918461,1749047931845080.000000000
1749047931.861189,5.000000000,0.000000000,4877.000000000,1.895670176,-0.119020663,-9.607687950,0.000000000,1.000000000,0.000000000,5001.000000000,0.001785002,-0.004991676,-0.002880547,1749047931855082.000000000
1749047931.871172,5.000000000,0.000000000,4877.000000000,1.912409902,-0.107635096,-9.654685974,0.000000000,1.000000000,0.000000000,5001.000000000,0.001412280,-0.007174575,-0.006184150,1749047931865085.000000000
1749047931.883194,5.000000000,0.000000000,4876.000000000,1.914269567,-0.145589799,-9.596408844,0.000000000,1.000000000,0.000000000,5002.000000000,0.003064216,-0.002807693,-0.002669419,1749047931875087.000000000
1749047931.892145,5.000000000,0.000000000,4877.000000000,1.886366606,-0.103839353,-9.600170135,0.000000000,1.000000000,0.000000000,5002.000000000,0.003437072,-0.001955451,0.004787433,1749047931885089.000000000
1749047931.903158,5.000000000,0.000000000,4877.000000000,1.858473420,-0.103835486,-9.622729301,0.000000000,1.000000000,0.000000000,5001.000000000,0.004982005,0.000067948,0.002605008,1749047931895091.000000000
1749047931.912152,5.000000000,0.000000000,4877.000000000,1.910549283,-0.122816347,-9.628371239,0.000000000,1.000000000,0.000000000,5001.000000000,0.000934073,-0.003607420,0.005106587,1749047931905093.000000000
1749047931.924110,5.000000000,0.000000000,4877.000000000,1.936588168,-0.086755961,-9.647164345,0.000000000,1.000000000,0.000000000,5001.000000000,-0.000451589,-0.010370931,-0.003416046,1749047931915095.000000000
1749047931.934097,5.000000000,0.000000000,7316.000000000,1.888849854,-0.097511031,-9.636512756,0.000000000,1.000000000,0.000000000,5003.000000000,0.003115376,-0.000195449,-0.000164027,1749047931925099.000000000
1749047931.942240,5.000000000,0.000000000,4877.000000000,1.890088558,-0.098142326,-9.600172043,0.000000000,1.000000000,0.000000000,5001.000000000,-0.002262415,-0.000091035,0.002496659,1749047931935099.000000000
1749047931.952108,5.000000000,0.000000000,4877.000000000,1.893806934,-0.134205759,-9.626486778,0.000000000,1.000000000,0.000000000,5001.000000000,0.001840524,-0.004353351,-0.002830236,1749047931945101.000000000
1749047931.962175,5.000000000,0.000000000,4877.000000000,1.908690453,-0.120914236,-9.635887146,0.000000000,1.000000000,0.000000000,5001.000000000,0.002957133,-0.007174918,-0.008528347,1749047931955103.000000000
1749047931.972156,5.000000000,0.000000000,4877.000000000,1.912408352,-0.126611263,-9.626486778,0.000000000,1.000000000,0.000000000,5001.000000000,0.000879870,-0.007547566,0.001377884,1749047931965105.000000000
1749047931.982157,5.000000000,0.000000000,4877.000000000,1.895680070,-0.122822583,-9.607688904,0.000000000,1.000000000,0.000000000,5001.000000000,0.003010096,-0.005258279,-0.002773836,1749047931975107.000000000
1749047931.992294,5.000000000,0.000000000,4876.000000000,1.908689857,-0.137998372,-9.609568596,0.000000000,1.000000000,0.000000000,5001.000000000,0.002051154,-0.004619017,0.000951964,1749047931985109.000000000
1749047932.002151,5.000000000,0.000000000,4877.000000000,1.932873368,-0.128503248,-9.628367424,0.000000000,1.000000000,0.000000000,5001.000000000,-0.000611904,-0.000783426,0.001324935,1749047931995111.000000000
1749047932.012178,5.000000000,0.000000000,4878.000000000,1.936587334,-0.120920017,-9.603930473,0.000000000,1.000000000,0.000000000,5001.000000000,0.004024265,-0.001476035,-0.001070583,1749047932005113.000000000
1749047932.022150,5.000000000,0.000000000,4877.000000000,1.897526860,-0.113325924,-9.607690811,0.000000000,1.000000000,0.000000000,5001.000000000,-0.000132331,0.001719044,-0.005065887,1749047932015115.000000000
1749047932.032108,5.000000000,0.000000000,4876.000000000,1.890089750,-0.156976834,-9.609568596,0.000000000,1.000000000,0.000000000,5001.000000000,0.001147984,0.009016519,0.002229439,1749047932025117.000000000
1749047932.041221,5.000000000,0.000000000,4876.000000000,1.910549641,-0.124713399,-9.637766838,0.000000000,1.000000000,0.000000000,5001.000000000,-0.005937112,-0.004672416,-0.002989150,1749047932035119.000000000
1749047932.052192,5.000000000,0.000000000,4877.000000000,1.903110981,-0.081064314,-9.645290375,0.000000000,1.000000000,0.000000000,5001.000000000,-0.000822588,0.001878638,0.001111318,1749047932045121.000000000
1749047932.062092,5.000000000,0.000000000,4877.000000000,1.912406206,-0.094351284,-9.609571457,0.000000000,1.000000000,0.000000000,5001.000000000,-0.000610945,-0.004991569,0.001591281,1749047932055123.000000000
1749047932.073112,5.000000000,0.000000000,4876.000000000,1.886369824,-0.081062771,-9.622728348,0.000000000,1.000000000,0.000000000,5001.000000000,0.007856958,0.002146078,0.006172886,1749047932065125.000000000
1749047932.082160,5.000000000,0.000000000,4876.000000000,1.904969692,-0.069675758,-9.620848656,0.000000000,1.000000000,0.000000000,5001.000000000,-0.001516626,0.008537591,-0.000219849,1749047932075127.000000000
1749047932.091222,5.000000000,0.000000000,4876.000000000,1.919849634,-0.153181165,-9.641527176,0.000000000,1.000000000,0.000000000,5001.000000000,0.002104212,-0.002700900,-0.000751513,1749047932085129.000000000
1749047932.102154,5.000000000,0.000000000,4877.000000000,1.875208378,-0.132298186,-9.645284653,0.000000000,1.000000000,0.000000000,5001.000000000,0.002052727,0.000868450,0.003775914,1749047932095131.000000000
1749047932.112197,5.000000000,0.000000000,4876.000000000,1.862189770,-0.119019829,-9.632127762,0.000000000,1.000000000,0.000000000,5001.000000000,0.003116594,-0.000570906,0.001324268,1749047932105133.000000000
1749047932.123123,5.000000000,0.000000000,4877.000000000,1.908690453,-0.130408511,-9.602051735,0.000000000,1.000000000,0.000000000,5001.000000000,-0.002208825,-0.006535932,-0.002083892,1749047932115135.000000000
1749047932.133159,5.000000000,0.000000000,4876.000000000,1.914269567,-0.107632734,-9.571970940,0.000000000,1.000000000,0.000000000,5001.000000000,0.012279329,-0.000570653,-0.005438956,1749047932125137.000000000
1749047932.142134,5.000000000,0.000000000,4876.000000000,1.923569560,-0.105734870,-9.635888100,0.000000000,1.000000000,0.000000000,5001.000000000,0.003649742,-0.006748358,-0.002404006,1749047932135139.000000000
1749047932.152154,5.000000000,0.000000000,4877.000000000,1.927290559,-0.126616731,-9.626486778,0.000000000,1.000000000,0.000000000,5001.000000000,-0.003380526,-0.005577601,-0.004000287,1749047932145141.000000000
1749047932.162155,5.000000000,0.000000000,4877.000000000,1.901250601,-0.120913438,-9.622729301,0.000000000,1.000000000,0.000000000,5001.000000000,0.006259725,-0.007069894,-0.002509900,1749047932155143.000000000
1749047932.172179,5.000000000,0.000000000,4877.000000000,1.938449144,-0.119019069,-9.598287582,0.000000000,1.000000000,0.000000000,5001.000000000,0.001626380,0.000707925,-0.007303903,1749047932165145.000000000
1749047932.183205,5.000000000,0.000000000,4877.000000000,1.932869196,-0.113328271,-9.611447334,0.000000000,1.000000000,0.000000000,5000.000000000,-0.001569684,-0.005950207,-0.000858464,1749047932175147.000000000
1749047932.191251,5.000000000,0.000000000,4877.000000000,1.888234854,-0.065879218,-9.609568596,0.000000000,1.000000000,0.000000000,5000.000000000,-0.001942518,0.001772967,0.000632908,1749047932185149.000000000
1749047932.203193,5.000000000,0.000000000,4877.000000000,1.903110266,-0.105736062,-9.641530037,0.000000000,1.000000000,0.000000000,5001.000000000,-0.003167820,-0.003978700,0.001964788,1749047932195152.000000000
1749047932.214108,5.000000000,0.000000000,4877.000000000,1.903113127,-0.117119327,-9.632126808,0.000000000,1.000000000,0.000000000,5000.000000000,-0.000824003,-0.004884948,0.002230802,1749047932205153.000000000
1749047932.222140,5.000000000,0.000000000,7315.000000000,1.890089393,-0.120286964,-9.598916054,0.000000000,1.000000000,0.000000000,5004.000000000,-0.002635628,-0.008449394,-0.006661063,1749047932215159.000000000
1749047932.233087,5.000000000,0.000000000,4877.000000000,1.897530675,-0.122813985,-9.632127762,0.000000000,1.000000000,0.000000000,5001.000000000,-0.004711801,-0.004405855,0.006437899,1749047932225158.000000000
1749047932.243177,5.000000000,0.000000000,4875.000000000,1.867776871,-0.141787052,-9.635885239,0.000000000,1.000000000,0.000000000,5001.000000000,-0.000077536,0.001772408,-0.003415863,1749047932240164.000000000
1749047932.256191,5.000000000,0.000000000,4877.000000000,1.886369944,-0.136102468,-9.628370285,0.000000000,1.000000000,0.000000000,5001.000000000,0.002372240,0.004435845,0.002016654,1749047932245165.000000000
1749047932.265193,5.000000000,0.000000000,4878.000000000,1.904969931,-0.101939164,-9.626487732,0.000000000,1.000000000,0.000000000,5001.000000000,0.002530775,0.003904484,-0.001177312,1749047932255167.000000000
1749047932.275154,5.000000000,0.000000000,4877.000000000,1.923568368,-0.098143891,-9.613330841,0.000000000,1.000000000,0.000000000,5000.000000000,-0.003273167,-0.000889170,0.000422065,1749047932265169.000000000
1749047932.284156,5.000000000,0.000000000,4877.000000000,1.910550237,-0.088654198,-9.605811119,0.000000000,1.000000000,0.000000000,5001.000000000,-0.002529339,-0.003126771,-0.000645990,1749047932275171.000000000
1749047932.294214,5.000000000,0.000000000,4877.000000000,1.917990327,-0.096244060,-9.620848656,0.000000000,1.000000000,0.000000000,5001.000000000,0.000827728,0.000387942,0.002922426,1749047932285173.000000000
1749047932.304087,5.000000000,0.000000000,4877.000000000,1.944030404,-0.109531745,-9.611445427,0.000000000,1.000000000,0.000000000,5001.000000000,-0.000398366,0.003689687,-0.002883195,1749047932295175.000000000
1749047932.314100,5.000000000,0.000000000,4878.000000000,1.910549641,-0.088654250,-9.626487732,0.000000000,1.000000000,0.000000000,5001.000000000,0.000240418,-0.002966900,0.001272426,1749047932305177.000000000
1749047932.322270,5.000000000,0.000000000,4877.000000000,1.921708822,-0.122813225,-9.618968010,0.000000000,1.000000000,0.000000000,5001.000000000,-0.004392435,-0.002807895,-0.001390455,1749047932315179.000000000
1749047932.333094,5.000000000,0.000000000,4877.000000000,1.877144098,-0.120911874,-9.626463890,0.000000000,1.000000000,0.000000000,5001.000000000,0.000028160,0.003157993,0.000581482,1749047932325181.000000000
1749047932.343105,5.000000000,0.000000000,7317.000000000,1.866529703,-0.155711666,-9.601422310,0.000000000,1.000000000,0.000000000,5001.000000000,0.002957726,-0.001101851,0.000206740,1749047932335183.000000000
1749047932.351234,5.000000000,0.000000000,4878.000000000,1.884509802,-0.096245676,-9.649045944,0.000000000,1.000000000,0.000000000,5001.000000000,0.001785249,0.000068818,-0.004427473,1749047932345185.000000000
1749047932.362200,5.000000000,0.000000000,4877.000000000,1.862191081,-0.096247189,-9.626485825,0.000000000,1.000000000,0.000000000,5001.000000000,-0.000291360,-0.006110299,-0.003733488,1749047932355187.000000000
1749047932.372163,5.000000000,0.000000000,4876.000000000,1.882649899,-0.094347768,-9.620848656,0.000000000,1.000000000,0.000000000,5001.000000000,-0.006043688,-0.003393736,-0.001924112,1749047932365189.000000000
1749047932.383117,5.000000000,0.000000000,4877.000000000,1.880787253,-0.101938009,-9.613328934,0.000000000,1.000000000,0.000000000,5001.000000000,0.001679285,0.003743642,-0.002458426,1749047932375191.000000000
1749047932.392172,5.000000000,0.000000000,4877.000000000,1.873348713,-0.122815587,-9.617088318,0.000000000,1.000000000,0.000000000,5001.000000000,0.007112126,-0.001209830,-0.003308979,1749047932385193.000000000
1749047932.402193,5.000000000,0.000000000,4877.000000000,1.929151893,-0.079165302,-9.637766838,0.000000000,1.000000000,0.000000000,5001.000000000,0.000667190,0.003051634,-0.002828556,1749047932395195.000000000
1749047932.412297,5.000000000,0.000000000,4878.000000000,1.938449979,-0.130406991,-9.630249023,0.000000000,1.000000000,0.000000000,5001.000000000,0.002425066,-0.000037933,-0.006769825,1749047932405197.000000000
1749047932.423250,5.000000000,0.000000000,4877.000000000,1.899391055,-0.128508732,-9.605809212,0.000000000,1.000000000,0.000000000,5001.000000000,0.003116797,-0.001955119,-0.004907432,1749047932415199.000000000
1749047932.434304,5.000000000,0.000000000,4876.000000000,1.934729457,-0.139896229,-9.600168228,0.000000000,1.000000000,0.000000000,5001.000000000,0.002212317,-0.004352280,-0.000697880,1749047932425201.000000000
1749047932.444092,5.000000000,0.000000000,7315.000000000,1.917370319,-0.135467187,-9.612703323,0.000000000,1.000000000,0.000000000,5001.000000000,0.001519930,0.003743258,0.001271704,1749047932435203.000000000
1749047932.452191,5.000000000,0.000000000,4874.000000000,1.934717774,-0.126614362,-9.624619484,0.000000000,1.000000000,0.000000000,5001.000000000,-0.002529187,-0.001849414,-0.002243756,1749047932445205.000000000
1749047932.462239,5.000000000,0.000000000,4877.000000000,1.921706438,-0.132306784,-9.628367424,0.000000000,1.000000000,0.000000000,5001.000000000,0.005992504,-0.004990241,0.000793486,1749047932455207.000000000
1749047932.472155,5.000000000,0.000000000,4877.000000000,1.882650137,-0.096245624,-9.618968010,0.000000000,1.000000000,0.000000000,5001.000000000,-0.000771133,-0.002861590,0.005373106,1749047932465209.000000000
1749047932.482156,5.000000000,0.000000000,4876.000000000,1.910544515,-0.094345465,-9.630254745,0.000000000,1.000000000,0.000000000,5001.000000000,-0.005670385,-0.001689662,0.002337901,1749047932475211.000000000
1749047932.491241,5.000000000,0.000000000,4876.000000000,1.899389744,-0.081062771,-9.634007454,0.000000000,1.000000000,0.000000000,5001.000000000,0.003224280,0.000975277,-0.001389994,1749047932485213.000000000
1749047932.501202,5.000000000,0.000000000,4876.000000000,1.895669699,-0.120917685,-9.626487732,0.000000000,1.000000000,0.000000000,5001.000000000,0.003329019,0.000121650,-0.002457556,1749047932495215.000000000
1749047932.513097,5.000000000,0.000000000,4876.000000000,1.891949773,-0.081062831,-9.641528130,0.000000000,1.000000000,0.000000000,5001.000000000,0.000187669,0.000229202,-0.001604414,1749047932505217.000000000
1749047932.522197,5.000000000,0.000000000,4876.000000000,1.878928185,-0.117122799,-9.641532898,0.000000000,1.000000000,0.000000000,5002.000000000,-0.005031785,0.000867487,0.001165544,1749047932515220.000000000
1749047932.533201,5.000000000,0.000000000,4876.000000000,1.871492863,-0.132305622,-9.635888100,0.000000000,1.000000000,0.000000000,5000.000000000,0.008710122,0.002252323,-0.003787939,1749047932525221.000000000
1749047932.542144,5.000000000,0.000000000,4877.000000000,1.860329747,-0.130409300,-9.634009361,0.000000000,1.000000000,0.000000000,5000.000000000,0.004665158,-0.001209955,-0.004163390,1749047932535224.000000000
1749047932.552170,5.000000000,0.000000000,4876.000000000,1.843589902,-0.115224153,-9.632127762,0.000000000,1.000000000,0.000000000,5001.000000000,-0.000345319,-0.000304665,-0.004905258,1749047932545226.000000000
1749047932.562171,5.000000000,0.000000000,4877.000000000,1.932872653,-0.141794130,-9.624609947,0.000000000,1.000000000,0.000000000,5001.000000000,0.002371879,-0.008667421,-0.002349944,1749047932555228.000000000
1749047932.572279,5.000000000,0.000000000,4877.000000000,1.893805981,-0.143693879,-9.632128716,0.000000000,1.000000000,0.000000000,5001.000000000,0.000773728,-0.000784211,-0.001977411,1749047932565230.000000000
1749047932.582119,5.000000000,0.000000000,4877.000000000,1.927290440,-0.119021431,-9.626486778,0.000000000,1.000000000,0.000000000,5001.000000000,0.003490045,-0.004033865,-0.007463021,1749047932575232.000000000
1749047932.592187,5.000000000,0.000000000,4876.000000000,1.919849634,-0.117122002,-9.641527176,0.000000000,1.000000000,0.000000000,5001.000000000,-0.001729587,-0.002914147,-0.002883724,1749047932585234.000000000
1749047932.602209,5.000000000,0.000000000,4877.000000000,1.910548806,-0.081058934,-9.609567642,0.000000000,1.000000000,0.000000000,5001.000000000,0.007166061,-0.001209599,0.004468793,1749047932595236.000000000
1749047932.612217,5.000000000,0.000000000,4876.000000000,1.940309763,-0.096245624,-9.600168228,0.000000000,1.000000000,0.000000000,5001.000000000,-0.000504057,0.006406950,-0.001657607,1749047932605238.000000000
1749047932.622234,5.000000000,0.000000000,4878.000000000,1.917989850,-0.115224153,-9.626487732,0.000000000,1.000000000,0.000000000,5001.000000000,0.000720429,-0.000996479,0.007235860,1749047932615240.000000000
1749047932.632158,5.000000000,0.000000000,4876.000000000,1.899389744,-0.103837021,-9.650927544,0.000000000,1.000000000,0.000000000,5001.000000000,0.000561824,-0.000197812,0.000100555,1749047932625242.000000000
1749047932.642122,5.000000000,0.000000000,4877.000000000,1.931010604,-0.136104032,-9.620850563,0.000000000,1.000000000,0.000000000,4999.000000000,0.000991620,-0.001315237,-0.004375759,1749047932635244.000000000
1749047932.651218,5.000000000,0.000000000,4877.000000000,1.893808961,-0.113324299,-9.624609947,0.000000000,1.000000000,0.000000000,5001.000000000,0.001305513,-0.000357955,-0.003148534,1749047932645246.000000000
1749047932.662180,5.000000000,0.000000000,4877.000000000,1.886366129,-0.117123194,-9.620847702,0.000000000,1.000000000,0.000000000,5001.000000000,-0.004605100,-0.004405666,0.000207269,1749047932655248.000000000
1749047932.672114,5.000000000,0.000000000,4879.000000000,1.865906596,-0.120921187,-9.615215302,0.000000000,1.000000000,0.000000000,5001.000000000,0.001519924,-0.000890699,0.003562604,1749047932665250.000000000
1749047932.682155,5.000000000,0.000000000,4877.000000000,1.864049792,-0.101938874,-9.641529083,0.000000000,1.000000000,0.000000000,5001.000000000,0.000774709,-0.003074136,-0.001232767,1749047932675252.000000000
1749047932.692168,5.000000000,0.000000000,4877.000000000,1.875205517,-0.145590529,-9.634009361,0.000000000,1.000000000,0.000000000,5001.000000000,0.003489957,-0.007121723,-0.007517434,1749047932685254.000000000
1749047932.702204,5.000000000,0.000000000,4876.000000000,1.856609702,-0.143691942,-9.637767792,0.000000000,1.000000000,0.000000000,5001.000000000,0.003542562,0.000388394,0.000259610,1749047932695256.000000000
1749047932.713111,5.000000000,0.000000000,4877.000000000,1.886370659,-0.132305980,-9.649047852,0.000000000,1.000000000,0.000000000,5001.000000000,0.001999608,0.000121061,0.000578784,1749047932705258.000000000
1749047932.722209,5.000000000,0.000000000,4877.000000000,1.925428867,-0.111432321,-9.632126808,0.000000000,1.000000000,0.000000000,5001.000000000,0.001786417,-0.006270315,-0.002082425,1749047932715260.000000000
1749047932.733169,5.000000000,0.000000000,4878.000000000,1.891959667,-0.098142736,-9.613327980,0.000000000,1.000000000,0.000000000,5001.000000000,-0.000878063,-0.003979345,-0.001818011,1749047932725262.000000000
1749047932.741196,5.000000000,0.000000000,4877.000000000,1.912408948,-0.126612023,-9.617092133,0.000000000,1.000000000,0.000000000,5001.000000000,-0.003806946,-0.001316619,-0.005705348,1749047932735264.000000000
1749047932.752143,5.000000000,0.000000000,4877.000000000,1.916128159,-0.111428440,-9.626489639,0.000000000,1.000000000,0.000000000,5001.000000000,-0.002954296,-0.000411913,0.002657178,1749047932745266.000000000
1749047932.761308,5.000000000,0.000000000,4877.000000000,1.923568368,-0.134202629,-9.617090225,0.000000000,1.000000000,0.000000000,5001.000000000,0.000507458,-0.004564881,-0.003256556,1749047932755268.000000000
1749047932.772215,5.000000000,0.000000000,4878.000000000,1.945889592,-0.130406991,-9.585128784,0.000000000,1.000000000,0.000000000,5001.000000000,0.002370865,0.002998159,0.007345194,1749047932765270.000000000
1749047932.782117,5.000000000,0.000000000,4877.000000000,1.906828046,-0.117123194,-9.634007454,0.000000000,1.000000000,0.000000000,5001.000000000,-0.003007161,-0.008187935,0.006224294,1749047932775272.000000000
1749047932.791208,5.000000000,0.000000000,4877.000000000,1.916126013,-0.088655032,-9.626486778,0.000000000,1.000000000,0.000000000,5000.000000000,-0.001356630,-0.002541350,-0.002882470,1749047932785274.000000000
1749047932.802187,5.000000000,0.000000000,4876.000000000,1.890089750,-0.128509119,-9.622728348,0.000000000,1.000000000,0.000000000,5001.000000000,0.000612948,-0.006961905,0.002870476,1749047932795276.000000000
1749047932.813103,5.000000000,0.000000000,4877.000000000,1.875211596,-0.096244857,-9.641526222,0.000000000,1.000000000,0.000000000,5000.000000000,-0.000397892,0.000228324,0.005000487,1749047932805278.000000000
1749047932.822225,5.000000000,0.000000000,4877.000000000,1.877069473,-0.119020663,-9.630249023,0.000000000,1.000000000,0.000000000,5002.000000000,-0.005404638,-0.002701156,0.007823436,1749047932815281.000000000
1749047932.832171,5.000000000,0.000000000,7315.000000000,1.903730512,-0.120285429,-9.612700462,0.000000000,1.000000000,0.000000000,5000.000000000,0.008124227,0.000547888,-0.001870470,1749047932825282.000000000
1749047932.842211,5.000000000,0.000000000,4878.000000000,1.893806815,-0.101941518,-9.613327026,0.000000000,1.000000000,0.000000000,5003.000000000,-0.002739862,0.004596374,0.000472521,1749047932835286.000000000
1749047932.852110,5.000000000,0.000000000,4877.000000000,1.888226628,-0.126614392,-9.622726440,0.000000000,1.000000000,0.000000000,5000.000000000,0.001093479,-0.006216525,-0.000911729,1749047932845286.000000000
1749047932.861206,5.000000000,0.000000000,4878.000000000,1.873349786,-0.101939164,-9.600169182,0.000000000,1.000000000,0.000000000,5002.000000000,0.000560847,-0.001369559,-0.003681417,1749047932855289.000000000
1749047932.872240,5.000000000,0.000000000,4877.000000000,1.923569918,-0.124712259,-9.639650345,0.000000000,1.000000000,0.000000000,5001.000000000,0.006845819,-0.005950116,-0.002616765,1749047932865291.000000000
1749047932.882114,5.000000000,0.000000000,4877.000000000,1.912413836,-0.119019069,-9.624606133,0.000000000,1.000000000,0.000000000,5001.000000000,0.000828384,0.002784899,-0.003096194,1749047932875293.000000000
1749047932.891192,5.000000000,0.000000000,4876.000000000,1.917989850,-0.113326296,-9.641527176,0.000000000,1.000000000,0.000000000,5001.000000000,-0.001196547,-0.005150671,-0.003840310,1749047932885295.000000000
1749047932.901292,5.000000000,0.000000000,4877.000000000,1.914267182,-0.092449144,-9.583250999,0.000000000,1.000000000,0.000000000,5001.000000000,-0.004285644,0.002838606,-0.005652652,1749047932895297.000000000
1749047932.913215,5.000000000,0.000000000,4878.000000000,1.916129708,-0.111428410,-9.637766838,0.000000000,1.000000000,0.000000000,5000.000000000,-0.002900520,-0.001581667,0.003455190,1749047932905299.000000000
1749047932.922221,5.000000000,0.000000000,4878.000000000,1.938449383,-0.098143451,-9.615208626,0.000000000,1.000000000,0.000000000,5001.000000000,0.002904121,0.001879080,-0.000538445,1749047932915301.000000000
1749047932.932169,5.000000000,0.000000000,7316.000000000,1.927301645,-0.103829235,-9.607686996,0.000000000,1.000000000,0.000000000,5004.000000000,0.000663291,-0.005631118,0.012294095,1749047932925306.000000000
1749047932.942209,5.000000000,0.000000000,4877.000000000,1.891950965,-0.124710694,-9.630250931,0.000000000,1.000000000,0.000000000,5001.000000000,0.000933038,0.003370129,0.006757353,1749047932935305.000000000
1749047932.953172,5.000000000,0.000000000,4877.000000000,1.914269447,-0.120918877,-9.624609947,0.000000000,1.000000000,0.000000000,5001.000000000,0.002424558,-0.009305800,-0.007302528,1749047932945307.000000000
1749047932.963189,5.000000000,0.000000000,4877.000000000,1.878929853,-0.096244000,-9.615206718,0.000000000,1.000000000,0.000000000,5001.000000000,-0.003380239,-0.000730866,-0.000700074,1749047932955309.000000000
1749047932.972215,5.000000000,0.000000000,4877.000000000,1.888231039,-0.122816347,-9.596408844,0.000000000,1.000000000,0.000000000,5001.000000000,0.000399919,-0.000038484,0.000738703,1749047932965311.000000000
1749047932.983200,5.000000000,0.000000000,4877.000000000,1.947752595,-0.138000667,-9.630248070,0.000000000,1.000000000,0.000000000,5001.000000000,-0.001089753,0.000068296,-0.002561247,1749047932975313.000000000
1749047932.993200,5.000000000,0.000000000,4877.000000000,1.916127563,-0.141802609,-9.650927544,0.000000000,1.000000000,0.000000000,5001.000000000,0.003809077,-0.004831097,-0.000699923,1749047932985315.000000000
1749047933.002178,5.000000000,0.000000000,4876.000000000,1.934729457,-0.137998372,-9.658446312,0.000000000,1.000000000,0.000000000,5001.000000000,0.002584636,0.004275848,-0.001763208,1749047932995317.000000000
1749047933.012195,5.000000000,0.000000000,4876.000000000,1.912409782,-0.092449911,-9.643406868,0.000000000,1.000000000,0.000000000,5001.000000000,0.000774327,-0.002701072,0.001909858,1749047933005319.000000000
1749047933.022146,5.000000000,0.000000000,4876.000000000,1.888229728,-0.039310060,-9.615207672,0.000000000,1.000000000,0.000000000,5001.000000000,-0.004871934,0.003476982,-0.003735296,1749047933015321.000000000
1749047933.032117,5.000000000,0.000000000,7315.000000000,1.916130781,-0.081062302,-9.600167274,0.000000000,1.000000000,0.000000000,5001.000000000,-0.001624148,-0.001688991,0.000900362,1749047933025323.000000000
1749047933.042163,5.000000000,0.000000000,4876.000000000,1.888229966,-0.086756431,-9.618968010,0.000000000,1.000000000,0.000000000,5001.000000000,-0.005510463,-0.007440672,0.000099679,1749047933035325.000000000
1749047933.052127,5.000000000,0.000000000,4876.000000000,1.890089750,-0.100041278,-9.609568596,0.000000000,1.000000000,0.000000000,5000.000000000,-0.002368635,0.002891480,0.001325327,1749047933045327.000000000
1749047933.062172,5.000000000,0.000000000,4877.000000000,1.901249290,-0.143689960,-9.613327980,0.000000000,1.000000000,0.000000000,5001.000000000,0.000827312,0.003796217,-0.003841693,1749047933055329.000000000
1749047933.072155,5.000000000,0.000000000,4876.000000000,1.886369824,-0.156976894,-9.649046898,0.000000000,1.000000000,0.000000000,5001.000000000,0.000667181,0.001826165,-0.003787380,1749047933065332.000000000
1749047933.082165,5.000000000,0.000000000,4876.000000000,1.884509802,-0.105734870,-9.618968010,0.000000000,1.000000000,0.000000000,5002.000000000,-0.001250098,-0.001529367,-0.006131524,1749047933075334.000000000
1749047933.091245,5.000000000,0.000000000,4877.000000000,1.919850707,-0.119019069,-9.592647552,0.000000000,1.000000000,0.000000000,5001.000000000,0.002744920,-0.002382283,0.006490923,1749047933085335.000000000
1749047933.102169,5.000000000,0.000000000,4877.000000000,1.914275050,-0.111426078,-9.660327911,0.000000000,1.000000000,0.000000000,5001.000000000,0.005460083,-0.003925974,-0.006184320,1749047933095338.000000000
1749047933.113086,5.000000000,0.000000000,4876.000000000,1.901249766,-0.088654198,-9.603928566,0.000000000,1.000000000,0.000000000,5000.000000000,0.001306537,0.003637169,-0.002190045,1749047933105339.000000000
1749047933.122219,5.000000000,0.000000000,4877.000000000,1.927289844,-0.139894277,-9.588891029,0.000000000,1.000000000,0.000000000,5002.000000000,0.003543583,-0.004725160,0.004361332,1749047933115342.000000000
1749047933.133110,5.000000000,0.000000000,4876.000000000,1.906829834,-0.105734870,-9.624608040,0.000000000,1.000000000,0.000000000,5001.000000000,-0.001144099,-0.008027419,0.003401416,1749047933125344.000000000
1749047933.142164,5.000000000,0.000000000,4877.000000000,1.925430775,-0.096244857,-9.626486778,0.000000000,1.000000000,0.000000000,5001.000000000,0.001359708,-0.000464910,0.006279338,1749047933135346.000000000
1749047933.152160,5.000000000,0.000000000,4877.000000000,1.919849753,-0.073473714,-9.613325119,0.000000000,1.000000000,0.000000000,5001.000000000,-0.007588855,0.001186200,-0.010444764,1749047933145348.000000000
1749047933.161199,5.000000000,0.000000000,4876.000000000,1.871489882,-0.103837021,-9.650927544,0.000000000,1.000000000,0.000000000,5002.000000000,-0.005511176,-0.002594644,0.004201526,1749047933155350.000000000
1749047933.172266,5.000000000,0.000000000,4876.000000000,1.906830072,-0.143691942,-9.622727394,0.000000000,1.000000000,0.000000000,5001.000000000,0.000667825,0.001985818,-0.000804939,1749047933165352.000000000
1749047933.182220,5.000000000,0.000000000,4876.000000000,1.877069950,-0.139896169,-9.635888100,0.000000000,1.000000000,0.000000000,5001.000000000,0.000081949,0.004490202,0.003189127,1749047933175354.000000000
1749047933.193208,5.000000000,0.000000000,4877.000000000,1.884511828,-0.115226485,-9.617087364,0.000000000,1.000000000,0.000000000,5001.000000000,-0.004872663,0.002092657,0.001218093,1749047933185356.000000000
1749047933.203210,5.000000000,0.000000000,4876.000000000,1.912409782,-0.103837021,-9.587010384,0.000000000,1.000000000,0.000000000,5001.000000000,0.009189982,-0.003233378,-0.005544771,1749047933195358.000000000
1749047933.213114,5.000000000,0.000000000,4876.000000000,1.923569798,-0.107632734,-9.632127762,0.000000000,1.000000000,0.000000000,5001.000000000,0.002957841,-0.008295279,-0.001976626,1749047933205360.000000000
1749047933.222101,5.000000000,0.000000000,4876.000000000,1.940314174,-0.109525889,-9.620854378,0.000000000,1.000000000,0.000000000,5001.000000000,-0.001782610,-0.008826904,0.000952977,1749047933215362.000000000
1749047933.232143,5.000000000,0.000000000,4876.000000000,1.908689618,-0.103837021,-9.588889122,0.000000000,1.000000000,0.000000000,5001.000000000,-0.000505100,0.003051191,-0.002669199,1749047933225364.000000000
1749047933.242116,5.000000000,0.000000000,4877.000000000,1.904971361,-0.111428440,-9.588891029,0.000000000,1.000000000,0.000000000,5001.000000000,0.000401041,-0.002380257,0.000207632,1749047933235366.000000000
1749047933.248190,5.000000000,0.000000000,4877.000000000,1.880790114,-0.107631966,-9.639647484,0.000000000,1.000000000,0.000000000,5001.000000000,0.004821098,-0.003820267,-0.001656674,1749047933245372.000000000
1749047933.264104,5.000000000,0.000000000,4876.000000000,1.908689857,-0.077267066,-9.611448288,0.000000000,1.000000000,0.000000000,5001.000000000,-0.003008914,0.000494973,0.000740040,1749047933255374.000000000
1749047933.272218,5.000000000,0.000000000,4876.000000000,1.916130066,-0.113326296,-9.632127762,0.000000000,1.000000000,0.000000000,5001.000000000,0.003702502,0.004116595,0.002551685,1749047933265376.000000000
1749047933.283328,5.000000000,0.000000000,4876.000000000,1.891949773,-0.126611263,-9.643405914,0.000000000,1.000000000,0.000000000,5001.000000000,-0.001515110,-0.002967448,-0.003148899,1749047933275378.000000000
1749047933.292210,5.000000000,0.000000000,4876.000000000,1.884509802,-0.122815549,-9.615207672,0.000000000,1.000000000,0.000000000,5001.000000000,-0.004020468,-0.008293711,0.003936022,1749047933285380.000000000
1749047933.302138,5.000000000,0.000000000,4877.000000000,1.886366129,-0.132305980,-9.641529083,0.000000000,1.000000000,0.000000000,5001.000000000,0.005034798,-0.004405346,0.001004644,1749047933295382.000000000
1749047933.312268,5.000000000,0.000000000,4876.000000000,1.873345971,-0.113331735,-9.628370285,0.000000000,1.000000000,0.000000000,5001.000000000,-0.001622896,-0.005684001,-0.002030061,1749047933305384.000000000
1749047933.323204,5.000000000,0.000000000,7314.000000000,1.904972911,-0.140529364,-9.606433868,0.000000000,1.000000000,0.000000000,5000.000000000,0.001519591,-0.001049992,-0.001923730,1749047933315386.000000000
1749047933.332166,5.000000000,0.000000000,4877.000000000,1.875209928,-0.086757556,-9.635887146,0.000000000,1.000000000,0.000000000,5001.000000000,0.000826338,-0.000995940,-0.011351203,1749047933325388.000000000
1749047933.342163,5.000000000,0.000000000,4876.000000000,1.925429583,-0.098143473,-9.617089272,0.000000000,1.000000000,0.000000000,5001.000000000,-0.000131885,-0.000783528,-0.004586635,1749047933335390.000000000
1749047933.352224,5.000000000,0.000000000,4877.000000000,1.912407637,-0.103837050,-9.611449242,0.000000000,1.000000000,0.000000000,5000.000000000,-0.003753485,-0.004725152,-0.005492363,1749047933345392.000000000
1749047933.362198,5.000000000,0.000000000,4876.000000000,1.884509802,-0.113326296,-9.607688904,0.000000000,1.000000000,0.000000000,5001.000000000,0.002318965,-0.001954530,-0.001178088,1749047933355394.000000000
1749047933.372179,5.000000000,0.000000000,4876.000000000,1.906829834,-0.105734870,-9.626488686,0.000000000,1.000000000,0.000000000,5000.000000000,-0.001037050,-0.003979476,-0.002669408,1749047933365396.000000000
1749047933.382190,5.000000000,0.000000000,4877.000000000,1.932867289,-0.101943500,-9.618968010,0.000000000,1.000000000,0.000000000,5000.000000000,-0.004926086,-0.000467154,-0.003794660,1749047933375398.000000000
1749047933.391251,5.000000000,0.000000000,4877.000000000,1.901248574,-0.119020663,-9.605810165,0.000000000,1.000000000,0.000000000,5001.000000000,0.006580025,-0.002329189,-0.001658796,1749047933385401.000000000
1749047933.402281,5.000000000,0.000000000,4876.000000000,1.903109908,-0.120917685,-9.598289490,0.000000000,1.000000000,0.000000000,5001.000000000,-0.005139225,-0.002807445,0.005906995,1749047933395403.000000000
1749047933.413215,5.000000000,0.000000000,4877.000000000,1.873348713,-0.149383932,-9.635883331,0.000000000,1.000000000,0.000000000,5003.000000000,-0.003754316,0.000708605,0.000526014,1749047933405406.000000000
1749047933.423207,5.000000000,0.000000000,4876.000000000,1.903109908,-0.107632734,-9.615207672,0.000000000,1.000000000,0.000000000,5001.000000000,-0.003752959,0.008430880,0.008302847,1749047933415407.000000000
1749047933.432127,5.000000000,0.000000000,4877.000000000,1.914267182,-0.130404636,-9.635885239,0.000000000,1.000000000,0.000000000,5001.000000000,0.004342463,-0.001262931,-0.001017391,1749047933425409.000000000
1749047933.444126,5.000000000,0.000000000,7314.000000000,1.921089768,-0.124080807,-9.622728348,0.000000000,1.000000000,0.000000000,5003.000000000,0.004769122,-0.001049672,0.009685734,1749047933435412.000000000
1749047933.453107,5.000000000,0.000000000,4877.000000000,1.880788088,-0.094347417,-9.602048874,0.000000000,1.000000000,0.000000000,5001.000000000,0.002106999,-0.002275417,0.000846896,1749047933445413.000000000
1749047933.462212,5.000000000,0.000000000,4877.000000000,1.888231039,-0.111428440,-9.607688904,0.000000000,1.000000000,0.000000000,5001.000000000,-0.000344724,0.001134203,0.001431970,1749047933455415.000000000
1749047933.472130,5.000000000,0.000000000,4877.000000000,1.929150939,-0.107633531,-9.609569550,0.000000000,1.000000000,0.000000000,5001.000000000,0.002372022,-0.000782763,0.007344710,1749047933465417.000000000
1749047933.482118,5.000000000,0.000000000,4877.000000000,1.901252151,-0.107631966,-9.598289490,0.000000000,1.000000000,0.000000000,5001.000000000,-0.006575271,0.002625411,0.001006261,1749047933475419.000000000
1749047933.492216,5.000000000,0.000000000,4876.000000000,1.906829834,-0.136100486,-9.609568596,0.000000000,1.000000000,0.000000000,5001.000000000,0.002691655,-0.001956089,0.001006500,1749047933485421.000000000
1749047933.503181,5.000000000,0.000000000,4877.000000000,1.899390221,-0.120913379,-9.650925636,0.000000000,1.000000000,0.000000000,5001.000000000,-0.004232673,-0.001741601,-0.000165313,1749047933495423.000000000
1749047933.512169,5.000000000,0.000000000,4877.000000000,1.904969811,-0.120919645,-9.647168159,0.000000000,1.000000000,0.000000000,5001.000000000,0.002584391,0.003530298,-0.007782385,1749047933505425.000000000
1749047933.522201,5.000000000,0.000000000,4876.000000000,1.884509802,-0.101939186,-9.634007454,0.000000000,1.000000000,0.000000000,5001.000000000,-0.002741619,-0.000997639,-0.001924142,1749047933515427.000000000
1749047933.533149,5.000000000,0.000000000,4877.000000000,1.910547256,-0.126612023,-9.628365517,0.000000000,1.000000000,0.000000000,5001.000000000,0.001998756,0.003531461,0.002391371,1749047933525429.000000000
1749047933.543118,5.000000000,0.000000000,4879.000000000,1.865913749,-0.124721564,-9.615208626,0.000000000,1.000000000,0.000000000,5001.000000000,0.003117435,0.004222683,0.002497123,1749047933535431.000000000
1749047933.552217,5.000000000,0.000000000,4876.000000000,1.901250005,-0.130406916,-9.613327980,0.000000000,1.000000000,0.000000000,5001.000000000,-0.004552236,-0.005843370,-0.002296729,1749047933545433.000000000
1749047933.563157,5.000000000,0.000000000,4876.000000000,1.917989850,-0.096245624,-9.649046898,0.000000000,1.000000000,0.000000000,5001.000000000,0.005302519,-0.002168844,-0.003364106,1749047933555435.000000000
1749047933.573293,5.000000000,0.000000000,4877.000000000,1.938448906,-0.120914213,-9.602048874,0.000000000,1.000000000,0.000000000,5001.000000000,0.006900801,-0.004459247,-0.005064673,1749047933565437.000000000
1749047933.582171,5.000000000,0.000000000,4877.000000000,1.891946316,-0.109530970,-9.618968964,0.000000000,1.000000000,0.000000000,5001.000000000,0.002745312,-0.001050383,-0.001499136,1749047933575439.000000000
1749047933.592176,5.000000000,0.000000000,4876.000000000,1.903112173,-0.073462076,-9.611442566,0.000000000,1.000000000,0.000000000,5001.000000000,-0.000291323,0.001453057,0.004095045,1749047933585441.000000000
1749047933.602218,5.000000000,0.000000000,4876.000000000,1.912409782,-0.117122002,-9.643405914,0.000000000,1.000000000,0.000000000,5001.000000000,0.002956640,-0.002221569,0.005481124,1749047933595443.000000000
1749047933.612219,5.000000000,0.000000000,4876.000000000,1.871489882,-0.096245624,-9.615207672,0.000000000,1.000000000,0.000000000,5001.000000000,-0.004180538,0.000388142,-0.005759956,1749047933605445.000000000
1749047933.622273,5.000000000,0.000000000,4876.000000000,1.901249766,-0.132304803,-9.622727394,0.000000000,1.000000000,0.000000000,5001.000000000,0.000987656,-0.002913745,-0.007197735,1749047933615447.000000000
1749047933.632228,5.000000000,0.000000000,4876.000000000,1.906836748,-0.155089170,-9.626489639,0.000000000,1.000000000,0.000000000,5001.000000000,-0.000452272,-0.001157194,0.003082887,1749047933625450.000000000
1749047933.642136,5.000000000,0.000000000,4877.000000000,1.873344898,-0.115220994,-9.615206718,0.000000000,1.000000000,0.000000000,5002.000000000,-0.002049049,-0.003180510,-0.004054264,1749047933635452.000000000
1749047933.652130,5.000000000,0.000000000,4876.000000000,1.884509802,-0.124713399,-9.590767860,0.000000000,1.000000000,0.000000000,5001.000000000,0.002265075,-0.005151411,0.000899232,1749047933645453.000000000
1749047933.662185,5.000000000,0.000000000,4877.000000000,1.834290743,-0.122811660,-9.605813026,0.000000000,1.000000000,0.000000000,5002.000000000,0.006579581,0.001240319,-0.005066278,1749047933655456.000000000
1749047933.672121,5.000000000,0.000000000,4877.000000000,1.871490121,-0.081058934,-9.628366470,0.000000000,1.000000000,0.000000000,5002.000000000,-0.003007800,0.005501385,-0.004853197,1749047933665458.000000000
1749047933.682138,5.000000000,0.000000000,4877.000000000,1.932868242,-0.128511071,-9.618968964,0.000000000,1.000000000,0.000000000,5001.000000000,0.003489882,-0.005736428,-0.003733784,1749047933675460.000000000
1749047933.692203,5.000000000,0.000000000,4876.000000000,1.960769773,-0.119019829,-9.590769768,0.000000000,1.000000000,0.000000000,5001.000000000,-0.000611268,-0.004725666,-0.009326327,1749047933685462.000000000
1749047933.702228,5.000000000,0.000000000,4876.000000000,1.970069885,-0.113326296,-9.590769768,0.000000000,1.000000000,0.000000000,5001.000000000,-0.000397509,0.001399821,0.000045831,1749047933695464.000000000
1749047933.712146,5.000000000,0.000000000,4876.000000000,1.960769773,-0.117122002,-9.602048874,0.000000000,1.000000000,0.000000000,5001.000000000,-0.001835406,0.000067090,0.008409524,1749047933705466.000000000
1749047933.723116,5.000000000,0.000000000,4877.000000000,1.953328490,-0.067778230,-9.600169182,0.000000000,1.000000000,0.000000000,5001.000000000,-0.001943706,0.000654502,0.003616837,1749047933715468.000000000
1749047933.733183,5.000000000,0.000000000,4877.000000000,1.917988658,-0.086754426,-9.628369331,0.000000000,1.000000000,0.000000000,5001.000000000,0.002796234,-0.003019919,0.002656606,1749047933725470.000000000
1749047933.743126,5.000000000,0.000000000,4876.000000000,1.886369824,-0.111428432,-9.609568596,0.000000000,1.000000000,0.000000000,5001.000000000,0.001306623,0.000441300,0.002925023,1749047933735472.000000000
1749047933.752172,5.000000000,0.000000000,4876.000000000,1.824990034,-0.134202659,-9.605809212,0.000000000,1.000000000,0.000000000,5001.000000000,-0.002954181,-0.004938642,-0.001871684,1749047933745474.000000000
1749047933.762191,5.000000000,0.000000000,4877.000000000,1.849167585,-0.130406946,-9.634007454,0.000000000,1.000000000,0.000000000,5001.000000000,-0.000344445,-0.003660358,0.005372894,1749047933755476.000000000
1749047933.771169,5.000000000,0.000000000,4877.000000000,1.839870930,-0.137997568,-9.620847702,0.000000000,1.000000000,0.000000000,5001.000000000,-0.001302486,-0.004831831,0.000260568,1749047933765478.000000000
1749047933.783174,5.000000000,0.000000000,4876.000000000,1.899389625,-0.086756311,-9.635888100,0.000000000,1.000000000,0.000000000,5001.000000000,0.002159524,-0.002382072,-0.006612174,1749047933775480.000000000
1749047933.791188,5.000000000,0.000000000,4876.000000000,1.871489882,-0.101939224,-9.611448288,0.000000000,1.000000000,0.000000000,5001.000000000,0.003277111,-0.001529000,-0.003095670,1749047933785482.000000000
1749047933.802217,5.000000000,0.000000000,4876.000000000,1.931009889,-0.115224153,-9.650927544,0.000000000,1.000000000,0.000000000,5001.000000000,0.000934341,0.001400711,-0.004906496,1749047933795484.000000000
1749047933.812211,5.000000000,0.000000000,4877.000000000,1.897531390,-0.124710694,-9.641530037,0.000000000,1.000000000,0.000000000,5001.000000000,0.004927769,0.004276650,0.002815905,1749047933805486.000000000
1749047933.822135,5.000000000,0.000000000,4876.000000000,1.942169905,-0.062084273,-9.570089340,0.000000000,1.000000000,0.000000000,5002.000000000,-0.002954522,0.002678437,-0.000858460,1749047933815489.000000000
1749047933.832127,5.000000000,0.000000000,7314.000000000,1.887609839,-0.054492906,-9.613954544,0.000000000,1.000000000,0.000000000,5001.000000000,0.001199646,-0.001103001,0.003135561,1749047933825490.000000000
1749047933.842126,5.000000000,0.000000000,4874.000000000,1.847306013,-0.027926054,-9.628369331,0.000000000,1.000000000,0.000000000,5001.000000000,0.002316800,-0.000517538,-0.004586289,1749047933835492.000000000
1749047933.852516,5.000000000,0.000000000,4876.000000000,1.923569798,-0.088654198,-9.581369400,0.000000000,1.000000000,0.000000000,5001.000000000,0.002637377,-0.004459065,-0.000804998,1749047933845494.000000000
1749047933.862125,5.000000000,0.000000000,4876.000000000,1.925429821,-0.160772562,-9.639647484,0.000000000,1.000000000,0.000000000,5001.000000000,-0.000290517,-0.002061757,-0.002082981,1749047933855496.000000000
1749047933.872198,5.000000000,0.000000000,4876.000000000,1.927289724,-0.151283324,-9.630247116,0.000000000,1.000000000,0.000000000,5001.000000000,-0.003061251,0.006459341,0.004413424,1749047933865498.000000000
1749047933.882128,5.000000000,0.000000000,4876.000000000,1.931009889,-0.181648910,-9.613328934,0.000000000,1.000000000,0.000000000,5001.000000000,-0.002315811,-0.000943687,-0.003681920,1749047933875500.000000000
1749047933.893136,5.000000000,0.000000000,4876.000000000,1.925429821,-0.115224153,-9.632127762,0.000000000,1.000000000,0.000000000,5001.000000000,0.006046159,-0.002061987,0.000314665,1749047933885502.000000000
1749047933.902232,5.000000000,0.000000000,4877.000000000,1.955187321,-0.086754426,-9.602048874,0.000000000,1.000000000,0.000000000,5001.000000000,-0.005085056,-0.001422514,0.000685372,1749047933895504.000000000
1749047933.912239,5.000000000,0.000000000,4877.000000000,1.904970527,-0.172153518,-9.571969032,0.000000000,1.000000000,0.000000000,5001.000000000,0.001413591,-0.001688932,0.002710224,1749047933905506.000000000
1749047933.921183,5.000000000,0.000000000,4876.000000000,1.888229728,-0.100041337,-9.654686928,0.000000000,1.000000000,0.000000000,5001.000000000,-0.001036334,-0.005365058,-0.000166701,1749047933915508.000000000
1749047933.932229,5.000000000,0.000000000,7315.000000000,1.888850570,-0.100042872,-9.613955498,0.000000000,1.000000000,0.000000000,5000.000000000,0.000826371,0.000387351,-0.006927105,1749047933925511.000000000
1749047933.942259,5.000000000,0.000000000,4876.000000000,1.890089750,-0.132304803,-9.609568596,0.000000000,1.000000000,0.000000000,5002.000000000,0.003490326,0.001240339,0.009740909,1749047933935513.000000000
1749047933.950192,5.000000000,0.000000000,4877.000000000,1.931009054,-0.082962550,-9.662205696,0.000000000,1.000000000,0.000000000,5001.000000000,-0.004230500,-0.000409182,0.001640595,1749047933945515.000000000
1749047933.964217,5.000000000,0.000000000,4876.000000000,1.916129708,-0.115224153,-9.622727394,0.000000000,1.000000000,0.000000000,5002.000000000,-0.001783419,0.001132858,-0.004849246,1749047933955517.000000000
1749047933.973101,5.000000000,0.000000000,4877.000000000,1.867769241,-0.109530240,-9.607690811,0.000000000,1.000000000,0.000000000,5002.000000000,0.005940430,-0.001103261,0.000206795,1749047933965519.000000000
1749047933.983189,5.000000000,0.000000000,4878.000000000,1.908689857,-0.105734907,-9.649045944,0.000000000,1.000000000,0.000000000,5001.000000000,0.005248442,-0.001421860,-0.004002104,1749047933975521.000000000
1749047933.992110,5.000000000,0.000000000,4876.000000000,1.901249766,-0.153181106,-9.607688904,0.000000000,1.000000000,0.000000000,5001.000000000,0.003921249,-0.002220850,-0.005223953,1749047933985523.000000000
1749047934.001236,5.000000000,0.000000000,4877.000000000,1.916130781,-0.124713048,-9.605807304,0.000000000,1.000000000,0.000000000,5002.000000000,0.001093472,0.001080533,0.000419847,1749047933995525.000000000
1749047934.012209,5.000000000,0.000000000,4877.000000000,1.884509325,-0.100040600,-9.639650345,0.000000000,1.000000000,0.000000000,5001.000000000,0.002638102,0.002359097,0.003615770,1749047934005527.000000000
1749047934.023106,5.000000000,0.000000000,4877.000000000,1.901247025,-0.117121607,-9.598289490,0.000000000,1.000000000,0.000000000,5001.000000000,-0.001355903,-0.002221857,0.002442919,1749047934015529.000000000
1749047934.032131,5.000000000,0.000000000,4877.000000000,1.927289844,-0.117123194,-9.643404961,0.000000000,1.000000000,0.000000000,5000.000000000,0.000028426,-0.005150665,0.001165025,1749047934025531.000000000
1749047934.042222,5.000000000,0.000000000,4877.000000000,1.910552382,-0.107632734,-9.603931427,0.000000000,1.000000000,0.000000000,5001.000000000,-0.002847941,0.005074593,0.003614854,1749047934035533.000000000
