__time,/offboard/controller_debug/angular_velocity,/offboard/controller_debug/pitch_angle,/offboard/controller_debug/pitch_angle_setpoint,/offboard/controller_debug/stamp/nanosec,/offboard/controller_debug/stamp/sec,/offboard/controller_debug/tilt_angle
1748428323.611546,0.053172782,0.071542352,0.000000000,611472862.000000000,1748428323.000000000,-0.170451000
1748428323.631501,0.003001805,0.072036318,0.000000000,631454481.000000000,1748428323.000000000,-0.140030444
1748428323.651495,-0.046581239,0.071477056,0.000000000,651447563.000000000,1748428323.000000000,-0.108112074
1748428323.671474,-0.067025207,0.070227928,0.000000000,671434703.000000000,1748428323.000000000,-0.094958745
1748428323.691562,-0.043242797,0.069117710,0.000000000,691518705.000000000,1748428323.000000000,-0.112435535
1748428323.711622,-0.024944372,0.068502299,0.000000000,711533798.000000000,1748428323.000000000,-0.126993269
1748428323.731499,-0.012846030,0.068138734,0.000000000,731453271.000000000,1748428323.000000000,-0.137717381
1748428323.751485,-0.002358177,0.068074584,0.000000000,751440972.000000000,1748428323.000000000,-0.147864163
1748428323.771477,0.000700584,0.068151452,0.000000000,771417502.000000000,1748428323.000000000,-0.153153792
1748428323.791549,-0.022573071,0.067853697,0.000000000,791488189.000000000,1748428323.000000000,-0.139642984
1748428323.811527,-0.021049559,0.067318484,0.000000000,811449200.000000000,1748428323.000000000,-0.142747909
1748428323.831608,-0.005621927,0.067140765,0.000000000,831490953.000000000,1748428323.000000000,-0.156049550
1748428323.851477,-0.001511584,0.067152388,0.000000000,851431646.000000000,1748428323.000000000,-0.161901787
1748428323.871470,0.011265274,0.067273252,0.000000000,871432662.000000000,1748428323.000000000,-0.173917577
1748428323.891608,0.025889179,0.067784816,0.000000000,891531291.000000000,1748428323.000000000,-0.187923610
1748428323.911550,0.021972446,0.068280526,0.000000000,911451716.000000000,1748428323.000000000,-0.189165771
1748428323.931489,0.011148196,0.068532787,0.000000000,931431923.000000000,1748428323.000000000,-0.185232192
1748428323.951576,0.016690399,0.068810403,0.000000000,951474858.000000000,1748428323.000000000,-0.192617953
1748428323.971528,0.030292692,0.069375210,0.000000000,971458993.000000000,1748428323.000000000,-0.206087053
1748428323.991521,0.032170214,0.069977611,0.000000000,991464457.000000000,1748428323.000000000,-0.211582303
1748428324.011505,0.028308112,0.070584245,0.000000000,11438122.000000000,1748428324.000000000,-0.213162780
1748428324.031544,0.031961612,0.071164496,0.000000000,31486117.000000000,1748428324.000000000,-0.219893664
1748428324.051472,0.037365895,0.071862765,0.000000000,51431599.000000000,1748428324.000000000,-0.228070855
1748428324.071489,0.039702863,0.072659895,0.000000000,71436803.000000000,1748428324.000000000,-0.234349310
1748428324.091554,0.035200354,0.073376663,0.000000000,91511738.000000000,1748428324.000000000,-0.235810325
1748428324.111590,0.031737763,0.074034736,0.000000000,111453753.000000000,1748428324.000000000,-0.237911716
1748428324.131568,0.032815285,0.074722178,0.000000000,131482101.000000000,1748428324.000000000,-0.243220255
1748428324.151548,0.034178331,0.075487606,0.000000000,151483558.000000000,1748428324.000000000,-0.248898506
1748428324.171523,0.036555901,0.076168142,0.000000000,171445260.000000000,1748428324.000000000,-0.255153954
1748428324.191674,0.030772736,0.076776944,0.000000000,191601277.000000000,1748428324.000000000,-0.255693376
1748428324.211508,0.026506949,0.077331074,0.000000000,211448865.000000000,1748428324.000000000,-0.257204205
1748428324.231613,0.023287533,0.077826954,0.000000000,231535422.000000000,1748428324.000000000,-0.259353429
1748428324.251488,0.014316499,0.078187332,0.000000000,251445598.000000000,1748428324.000000000,-0.257319510
1748428324.271492,0.008241469,0.078410722,0.000000000,271435293.000000000,1748428324.000000000,-0.257044137
1748428324.291510,0.004549366,0.078509890,0.000000000,291467728.000000000,1748428324.000000000,-0.258191526
1748428324.311496,-0.005545425,0.078449219,0.000000000,311446502.000000000,1748428324.000000000,-0.254645556
1748428324.331519,-0.019685734,0.078121610,0.000000000,331446998.000000000,1748428324.000000000,-0.247825384
1748428324.351525,-0.021951126,0.077715524,0.000000000,351466629.000000000,1748428324.000000000,-0.249018312
1748428324.371543,-0.028737897,0.077141404,0.000000000,371468707.000000000,1748428324.000000000,-0.246774882
1748428324.391652,-0.036157526,0.076471440,0.000000000,391595209.000000000,1748428324.000000000,-0.243895188
1748428324.411553,-0.042110488,0.075623676,0.000000000,411481880.000000000,1748428324.000000000,-0.241669863
1748428324.431578,-0.040739510,0.074767135,0.000000000,431515828.000000000,1748428324.000000000,-0.244430199
1748428324.451474,-0.041192431,0.073955432,0.000000000,451441263.000000000,1748428324.000000000,-0.245979115
1748428324.471464,-0.044509199,0.073075570,0.000000000,471402023.000000000,1748428324.000000000,-0.245396584
1748428324.491633,-0.043132935,0.072203659,0.000000000,491536290.000000000,1748428324.000000000,-0.248018488
1748428324.511507,-0.040971283,0.071392022,0.000000000,511455552.000000000,1748428324.000000000,-0.251251936
1748428324.531457,-0.038589671,0.070572875,0.000000000,531413728.000000000,1748428324.000000000,-0.254586786
1748428324.551514,-0.039107021,0.069766715,0.000000000,551471170.000000000,1748428324.000000000,-0.255913913
1748428324.571504,-0.042005289,0.068909489,0.000000000,571453682.000000000,1748428324.000000000,-0.255473405
1748428324.591563,-0.037627820,0.068130352,0.000000000,591505684.000000000,1748428324.000000000,-0.260143667
1748428324.611484,-0.041875590,0.067294948,0.000000000,611425928.000000000,1748428324.000000000,-0.258741230
1748428324.631623,-0.037450928,0.066531993,0.000000000,631519057.000000000,1748428324.000000000,-0.263401330
1748428324.651507,-0.038667995,0.065765582,0.000000000,651438200.000000000,1748428324.000000000,-0.264138877
1748428324.671544,-0.038721297,0.064993694,0.000000000,671444836.000000000,1748428324.000000000,-0.265632957
1748428324.691632,-0.034706183,0.064265735,0.000000000,691539899.000000000,1748428324.000000000,-0.269972265
1748428324.711512,-0.033714328,0.063562267,0.000000000,711446408.000000000,1748428324.000000000,-0.272243470
1748428324.731585,-0.042711668,0.062745824,0.000000000,731498049.000000000,1748428324.000000000,-0.267403215
1748428324.751521,-0.035983939,0.062000267,0.000000000,751471895.000000000,1748428324.000000000,-0.273476362
1748428324.771517,-0.036535453,0.061245553,0.000000000,771442434.000000000,1748428324.000000000,-0.274490625
1748428324.791583,-0.036496565,0.060501851,0.000000000,791523861.000000000,1748428324.000000000,-0.275897503
1748428324.811488,-0.038202181,0.059701119,0.000000000,811442863.000000000,1748428324.000000000,-0.275966525
1748428324.831548,-0.038260378,0.058955528,0.000000000,831501287.000000000,1748428324.000000000,-0.277234077
1748428324.851511,-0.035198286,0.058269151,0.000000000,851444434.000000000,1748428324.000000000,-0.280723542
1748428324.871479,-0.033349741,0.057612073,0.000000000,871439349.000000000,1748428324.000000000,-0.283400804
1748428324.891542,-0.041780345,0.056781922,0.000000000,891506299.000000000,1748428324.000000000,-0.278659374
1748428324.911546,-0.039470360,0.056029219,0.000000000,911471418.000000000,1748428324.000000000,-0.281412899
1748428324.931544,-0.038216915,0.055251591,0.000000000,931487963.000000000,1748428324.000000000,-0.283360243
1748428324.951566,-0.038563654,0.054510478,0.000000000,951476306.000000000,1748428324.000000000,-0.284238458
1748428324.971514,-0.042918906,0.053666260,0.000000000,971443699.000000000,1748428324.000000000,-0.282136828
1748428324.991549,-0.044278741,0.052838117,0.000000000,991486463.000000000,1748428324.000000000,-0.282087982
1748428325.011512,-0.041399658,0.052001599,0.000000000,11454317.000000000,1748428325.000000000,-0.284903586
1748428325.031504,-0.041253690,0.051187590,0.000000000,31445154.000000000,1748428325.000000000,-0.285842299
1748428325.051518,-0.041315798,0.050356708,0.000000000,51464585.000000000,1748428325.000000000,-0.286570549
1748428325.071495,-0.042437613,0.049486376,0.000000000,71447758.000000000,1748428325.000000000,-0.286460400
1748428325.091567,-0.043444674,0.048614394,0.000000000,91512193.000000000,1748428325.000000000,-0.286387265
1748428325.111494,-0.045614365,0.047735453,0.000000000,111445853.000000000,1748428325.000000000,-0.285462409
1748428325.131621,-0.046495039,0.046824887,0.000000000,131543080.000000000,1748428325.000000000,-0.285327435
1748428325.151562,-0.049387239,0.045894802,0.000000000,151491567.000000000,1748428325.000000000,-0.283731937
1748428325.171487,-0.043098010,0.044987433,0.000000000,171431840.000000000,1748428325.000000000,-0.288454115
1748428325.191554,-0.046453305,0.044028960,0.000000000,191502677.000000000,1748428325.000000000,-0.286405921
1748428325.211933,-0.049076714,0.043042488,0.000000000,211800230.000000000,1748428325.000000000,-0.284767300
1748428325.231511,-0.051351085,0.042071104,0.000000000,231458432.000000000,1748428325.000000000,-0.283352315
1748428325.251613,-0.050071038,0.041040659,0.000000000,251539238.000000000,1748428325.000000000,-0.284231782
1748428325.271547,-0.052028187,0.040005613,0.000000000,271450566.000000000,1748428325.000000000,-0.282829225
1748428325.291596,-0.055309307,0.038941734,0.000000000,291531603.000000000,1748428325.000000000,-0.280416667
1748428325.311533,-0.051318679,0.037909683,0.000000000,311457267.000000000,1748428325.000000000,-0.283018380
1748428325.331540,-0.053958435,0.036825370,0.000000000,331475907.000000000,1748428325.000000000,-0.280916065
1748428325.351480,-0.053504892,0.035738327,0.000000000,351434313.000000000,1748428325.000000000,-0.280888796
1748428325.371487,-0.057482358,0.034595128,0.000000000,371441841.000000000,1748428325.000000000,-0.277661324
1748428325.391562,-0.060251575,0.033492833,0.000000000,391505375.000000000,1748428325.000000000,-0.275288850
1748428325.411512,-0.057196788,0.032330461,0.000000000,411458501.000000000,1748428325.000000000,-0.276764810
1748428325.431508,-0.056695908,0.031196631,0.000000000,431460279.000000000,1748428325.000000000,-0.276483566
1748428325.451486,-0.061844081,0.029985009,0.000000000,451437791.000000000,1748428325.000000000,-0.272122383
1748428325.471517,-0.056347623,0.028815255,0.000000000,471455699.000000000,1748428325.000000000,-0.275108099
1748428325.491567,-0.059574932,0.027603103,0.000000000,491520775.000000000,1748428325.000000000,-0.271961182
1748428325.511498,-0.062754467,0.026362862,0.000000000,511463602.000000000,1748428325.000000000,-0.268741608
1748428325.531644,-0.063831210,0.025153210,0.000000000,531577350.000000000,1748428325.000000000,-0.266969413
1748428325.551486,-0.064918801,0.023852358,0.000000000,551439706.000000000,1748428325.000000000,-0.264968991
1748428325.571486,-0.063199013,0.022551654,0.000000000,571442505.000000000,1748428325.000000000,-0.264842421
1748428325.591572,-0.064956792,0.021292189,0.000000000,591494167.000000000,1748428325.000000000,-0.262340128
1748428325.611567,-0.068393357,0.019904695,0.000000000,611505262.000000000,1748428325.000000000,-0.258392364
1748428325.631475,-0.067926168,0.018558944,0.000000000,631420687.000000000,1748428325.000000000,-0.257145077
1748428325.651537,-0.068882473,0.017178455,0.000000000,651476406.000000000,1748428325.000000000,-0.254794568
1748428325.671476,-0.069754101,0.015808614,0.000000000,671421758.000000000,1748428325.000000000,-0.252460063
1748428325.691561,-0.071084015,0.014428289,0.000000000,691504698.000000000,1748428325.000000000,-0.249729753
1748428325.711599,-0.071353108,0.013003528,0.000000000,711504993.000000000,1748428325.000000000,-0.247586519
1748428325.731497,-0.071820192,0.011580398,0.000000000,731449042.000000000,1748428325.000000000,-0.245246261
1748428325.751465,-0.071079947,0.010165336,0.000000000,751434319.000000000,1748428325.000000000,-0.243687913
1748428325.771492,-0.074338943,0.008708036,0.000000000,771438791.000000000,1748428325.000000000,-0.239237189
1748428325.791643,-0.076085694,0.007206313,0.000000000,791593997.000000000,1748428325.000000000,-0.235680714
1748428325.811506,-0.076557003,0.005683450,0.000000000,811456383.000000000,1748428325.000000000,-0.232896060
1748428325.831536,-0.077660933,0.004153341,0.000000000,831476565.000000000,1748428325.000000000,-0.229594782
1748428325.851542,-0.078762345,0.002596262,0.000000000,851478463.000000000,1748428325.000000000,-0.226177484
1748428325.871501,-0.072942294,0.001071383,0.000000000,871431189.000000000,1748428325.000000000,-0.227512091
1748428325.891688,-0.072669268,-0.000333391,0.000000000,891585022.000000000,1748428325.000000000,-0.225181043
1748428325.911521,-0.079985917,-0.001916397,0.000000000,911446656.000000000,1748428325.000000000,-0.217239037
1748428325.931695,-0.079468660,-0.003516758,0.000000000,931614406.000000000,1748428325.000000000,-0.214585051
1748428325.951519,-0.073604934,-0.005004903,0.000000000,951470910.000000000,1748428325.000000000,-0.215743452
1748428325.971480,-0.068948656,-0.006415196,0.000000000,971437682.000000000,1748428325.000000000,-0.216146678
1748428325.991541,-0.075571738,-0.007917487,0.000000000,991488983.000000000,1748428325.000000000,-0.208557427
1748428326.011591,-0.072872311,-0.009357568,0.000000000,11526728.000000000,1748428326.000000000,-0.207429439
1748428326.031570,-0.070246339,-0.010771637,0.000000000,31511043.000000000,1748428326.000000000,-0.206234068
1748428326.051486,-0.069075502,-0.012172872,0.000000000,51445294.000000000,1748428326.000000000,-0.203997642
1748428326.071516,-0.070376724,-0.013585065,0.000000000,71437744.000000000,1748428326.000000000,-0.199977487
1748428326.091628,-0.067645408,-0.014955986,0.000000000,91573383.000000000,1748428326.000000000,-0.198744357
1748428326.111533,-0.064882167,-0.016238464,0.000000000,111438975.000000000,1748428326.000000000,-0.197633535
1748428326.131492,-0.060205057,-0.017489405,0.000000000,131456051.000000000,1748428326.000000000,-0.197839871
1748428326.151553,-0.060791880,-0.018697860,0.000000000,151487875.000000000,1748428326.000000000,-0.194445819
1748428326.171473,-0.062030029,-0.019922312,0.000000000,171415894.000000000,1748428326.000000000,-0.190520287
1748428326.191581,-0.059390627,-0.021129515,0.000000000,191476633.000000000,1748428326.000000000,-0.189239651
1748428326.211667,-0.054142777,-0.022214344,0.000000000,211568189.000000000,1748428326.000000000,-0.189923525
1748428326.231539,-0.052256953,-0.023286453,0.000000000,231471742.000000000,1748428326.000000000,-0.188268721
1748428326.251467,-0.048232555,-0.024268096,0.000000000,251411173.000000000,1748428326.000000000,-0.188202813
1748428326.271475,-0.049998607,-0.025285825,0.000000000,271423440.000000000,1748428326.000000000,-0.184042662
1748428326.291563,-0.045347080,-0.026237955,0.000000000,291487364.000000000,1748428326.000000000,-0.184372783
1748428326.311504,-0.045654245,-0.027155433,0.000000000,311452804.000000000,1748428326.000000000,-0.181311563
1748428326.331556,-0.041388784,-0.028040765,0.000000000,331497211.000000000,1748428326.000000000,-0.181414500
1748428326.351475,-0.040188354,-0.028874151,0.000000000,351436872.000000000,1748428326.000000000,-0.179463699
1748428326.371466,-0.041308317,-0.029698873,0.000000000,371427639.000000000,1748428326.000000000,-0.175894797
1748428326.391609,-0.035293601,-0.030429235,0.000000000,391534063.000000000,1748428326.000000000,-0.177370787
1748428326.411487,-0.028044922,-0.031042116,0.000000000,411430393.000000000,1748428326.000000000,-0.179877877
1748428326.431661,-0.029098190,-0.031640559,0.000000000,431585930.000000000,1748428326.000000000,-0.176671386
1748428326.451500,-0.027278209,-0.032219276,0.000000000,451452894.000000000,1748428326.000000000,-0.175451249
1748428326.471478,-0.025523419,-0.032728102,0.000000000,471425306.000000000,1748428326.000000000,-0.174288064
1748428326.491572,-0.019670529,-0.033147246,0.000000000,491529156.000000000,1748428326.000000000,-0.176085904
1748428326.511567,-0.013356732,-0.033448718,0.000000000,511491479.000000000,1748428326.000000000,-0.178397149
1748428326.531572,-0.013044169,-0.033745009,0.000000000,531475343.000000000,1748428326.000000000,-0.176574945
1748428326.551495,-0.009666596,-0.033942819,0.000000000,551445692.000000000,1748428326.000000000,-0.177028462
1748428326.571500,-0.006213748,-0.034084968,0.000000000,571459121.000000000,1748428326.000000000,-0.177626625
1748428326.591622,-0.000999935,-0.034139041,0.000000000,591585343.000000000,1748428326.000000000,-0.179591119
1748428326.611481,-0.000091030,-0.034133144,0.000000000,611444052.000000000,1748428326.000000000,-0.178700551
1748428326.631521,0.004689636,-0.034084581,0.000000000,631465907.000000000,1748428326.000000000,-0.180552363
1748428326.651586,0.007033045,-0.033957321,0.000000000,651511547.000000000,1748428326.000000000,-0.180873066
1748428326.671523,0.006990314,-0.033827852,0.000000000,671458061.000000000,1748428326.000000000,-0.179561600
1748428326.691643,0.011303854,-0.033623658,0.000000000,691572510.000000000,1748428326.000000000,-0.181390002
1748428326.711467,0.012223019,-0.033373754,0.000000000,711431059.000000000,1748428326.000000000,-0.180975378
1748428326.731798,0.011442580,-0.033100255,0.000000000,731692885.000000000,1748428326.000000000,-0.179445565
1748428326.751553,0.011375929,-0.032868776,0.000000000,751478326.000000000,1748428326.000000000,-0.178342357
1748428326.771537,0.011753376,-0.032633670,0.000000000,771459846.000000000,1748428326.000000000,-0.177561730
1748428326.791551,0.013517658,-0.032393083,0.000000000,791508682.000000000,1748428326.000000000,-0.177755892
1748428326.811669,0.009602779,-0.032160886,0.000000000,811598344.000000000,1748428326.000000000,-0.174037650
1748428326.831612,0.014756366,-0.031906586,0.000000000,831544467.000000000,1748428326.000000000,-0.176610202
1748428326.851576,0.009866121,-0.031725492,0.000000000,851480151.000000000,1748428326.000000000,-0.172149181
1748428326.871446,0.008190007,-0.031567793,0.000000000,871396308.000000000,1748428326.000000000,-0.169865191
1748428326.891553,0.004581417,-0.031421885,0.000000000,891513612.000000000,1748428326.000000000,-0.166236952
1748428326.911552,0.005609256,-0.031300921,0.000000000,911461859.000000000,1748428326.000000000,-0.165759981
1748428326.931559,0.007784177,-0.031134184,0.000000000,931487742.000000000,1748428326.000000000,-0.166161373
1748428326.951495,0.002655984,-0.031048365,0.000000000,951455346.000000000,1748428326.000000000,-0.161397099
1748428326.971475,0.006905575,-0.030908817,0.000000000,971441194.000000000,1748428326.000000000,-0.163187668
1748428326.991574,0.002231225,-0.030855685,0.000000000,991489498.000000000,1748428326.000000000,-0.158686042
1748428327.011492,0.001542433,-0.030830761,0.000000000,11428027.000000000,1748428327.000000000,-0.156877682
1748428327.031516,0.000970542,-0.030804576,0.000000000,31448721.000000000,1748428327.000000000,-0.155153200
1748428327.051495,0.000009679,-0.030819429,0.000000000,51449516.000000000,1748428327.000000000,-0.153087258
1748428327.071526,0.000436648,-0.030833365,0.000000000,71482563.000000000,1748428327.000000000,-0.151977271
1748428327.091586,0.000718620,-0.030824954,0.000000000,91524636.000000000,1748428327.000000000,-0.150807738
1748428327.111524,0.002889317,-0.030775568,0.000000000,111468795.000000000,1748428327.000000000,-0.151013076
1748428327.131724,-0.000742947,-0.030753411,0.000000000,131642065.000000000,1748428327.000000000,-0.147177860
1748428327.151531,-0.001449655,-0.030781433,0.000000000,151454627.000000000,1748428327.000000000,-0.145265028
1748428327.171518,0.000955849,-0.030792559,0.000000000,171451786.000000000,1748428327.000000000,-0.145523310
1748428327.191670,0.006384511,-0.030679373,0.000000000,191568881.000000000,1748428327.000000000,-0.148088485
1748428327.211522,0.002523492,-0.030635027,0.000000000,211473115.000000000,1748428327.000000000,-0.144140705
1748428327.231571,0.002148208,-0.030578138,0.000000000,231513445.000000000,1748428327.000000000,-0.142616361
1748428327.251556,0.006852221,-0.030485507,0.000000000,251508971.000000000,1748428327.000000000,-0.144654930
1748428327.271501,0.007629433,-0.030367745,0.000000000,271452659.000000000,1748428327.000000000,-0.144041538
1748428327.291614,0.007652359,-0.030212525,0.000000000,291529749.000000000,1748428327.000000000,-0.142982841
1748428327.311564,0.006267392,-0.030074839,0.000000000,311460573.000000000,1748428327.000000000,-0.140930235
1748428327.331607,0.010550984,-0.029871242,0.000000000,331539556.000000000,1748428327.000000000,-0.142904803
1748428327.351542,0.012226821,-0.029682884,0.000000000,351473536.000000000,1748428327.000000000,-0.143066198
1748428327.371414,0.011021440,-0.029501114,0.000000000,371391807.000000000,1748428327.000000000,-0.141241461
1748428327.391625,0.006288287,-0.029308602,0.000000000,391548235.000000000,1748428327.000000000,-0.137016982
1748428327.411497,0.007635680,-0.029101476,0.000000000,411454794.000000000,1748428327.000000000,-0.137011841
1748428327.431523,0.013102560,-0.028861333,0.000000000,431475046.000000000,1748428327.000000000,-0.139910936
1748428327.451566,0.008856975,-0.028657785,0.000000000,451470271.000000000,1748428327.000000000,-0.136070713
1748428327.471540,0.016337134,-0.028353916,0.000000000,471482208.000000000,1748428327.000000000,-0.140491411
1748428327.491626,0.020879256,-0.027999612,0.000000000,491580697.000000000,1748428327.000000000,-0.142996207
1748428327.511566,0.016920011,-0.027650746,0.000000000,511533523.000000000,1748428327.000000000,-0.139657110
1748428327.531843,0.013116631,-0.027381670,0.000000000,531767356.000000000,1748428327.000000000,-0.136295065
1748428327.551561,0.015424944,-0.027072594,0.000000000,551476655.000000000,1748428327.000000000,-0.137223616
1748428327.571501,0.021450372,-0.026709039,0.000000000,571455469.000000000,1748428327.000000000,-0.140823260
1748428327.591668,0.022153944,-0.026259229,0.000000000,591630623.000000000,1748428327.000000000,-0.140934795
1748428327.611536,0.018191746,-0.025868276,0.000000000,611454646.000000000,1748428327.000000000,-0.137748405
1748428327.631515,0.018914849,-0.025503600,0.000000000,631463958.000000000,1748428327.000000000,-0.137755424
1748428327.651544,0.021838814,-0.025068089,0.000000000,651477347.000000000,1748428327.000000000,-0.139422596
1748428327.671504,0.020798231,-0.024637869,0.000000000,671436024.000000000,1748428327.000000000,-0.138371587
1748428327.691522,0.022244433,-0.024194187,0.000000000,691485732.000000000,1748428327.000000000,-0.139075577
1748428327.711509,0.017568078,-0.023865879,0.000000000,711462532.000000000,1748428327.000000000,-0.135375649
1748428327.731612,0.019389806,-0.023573987,0.000000000,731547406.000000000,1748428327.000000000,-0.136095211
1748428327.751526,0.017680028,-0.023130491,0.000000000,751455398.000000000,1748428327.000000000,-0.134674802
1748428327.771517,0.015816845,-0.022795022,0.000000000,771467164.000000000,1748428327.000000000,-0.132971287
1748428327.791502,0.011772863,-0.022541892,0.000000000,791455446.000000000,1748428327.000000000,-0.129631728
1748428327.811544,0.013555524,-0.022243029,0.000000000,811484896.000000000,1748428327.000000000,-0.130396336
1748428327.831503,0.013203916,-0.022010898,0.000000000,831456547.000000000,1748428327.000000000,-0.129583806
1748428327.851489,0.007718518,-0.021866776,0.000000000,851447604.000000000,1748428327.000000000,-0.125088274
1748428327.871515,0.008117086,-0.021667812,0.000000000,871467777.000000000,1748428327.000000000,-0.124748163
1748428327.891587,0.006291095,-0.021568960,0.000000000,891527373.000000000,1748428327.000000000,-0.122703284
1748428327.911527,0.003511099,-0.021480773,0.000000000,911476712.000000000,1748428327.000000000,-0.119986907
1748428327.931460,0.005294080,-0.021349404,0.000000000,931425250.000000000,1748428327.000000000,-0.120493144
1748428327.951476,0.006264769,-0.021267749,0.000000000,951443378.000000000,1748428327.000000000,-0.120355502
1748428327.971503,0.006023524,-0.021170571,0.000000000,971438573.000000000,1748428327.000000000,-0.119415931
1748428327.991622,0.001581643,-0.021128144,0.000000000,991557331.000000000,1748428327.000000000,-0.115490213
1748428328.011619,0.001917112,-0.021134799,0.000000000,11515486.000000000,1748428328.000000000,-0.114764005
1748428328.031605,-0.000130519,-0.021163620,0.000000000,31534977.000000000,1748428328.000000000,-0.112357169
1748428328.051533,-0.000827044,-0.021172833,0.000000000,51454941.000000000,1748428328.000000000,-0.110914588
1748428328.071543,-0.002885095,-0.021225257,0.000000000,71483188.000000000,1748428328.000000000,-0.108455762
1748428328.091669,0.001428094,-0.021242473,0.000000000,91612886.000000000,1748428328.000000000,-0.110442974
1748428328.111514,-0.004728304,-0.021291068,0.000000000,111466536.000000000,1748428328.000000000,-0.105167955
1748428328.131563,-0.004308310,-0.021370521,0.000000000,131499692.000000000,1748428328.000000000,-0.104359597
1748428328.151558,0.000207386,-0.021366857,0.000000000,151502101.000000000,1748428328.000000000,-0.106517807
1748428328.171493,-0.000108018,-0.021432908,0.000000000,171455728.000000000,1748428328.000000000,-0.105224505
1748428328.191512,-0.000278698,-0.021451000,0.000000000,191463317.000000000,1748428328.000000000,-0.104115494
1748428328.211597,0.000642197,-0.021466214,0.000000000,211557047.000000000,1748428328.000000000,-0.103762038
1748428328.231605,0.002193579,-0.021462075,0.000000000,231539709.000000000,1748428328.000000000,-0.103877075
1748428328.251644,-0.004261151,-0.021494133,0.000000000,251546857.000000000,1748428328.000000000,-0.098417178
1748428328.271485,-0.001289763,-0.021512957,0.000000000,271446192.000000000,1748428328.000000000,-0.099466123
1748428328.291898,0.004568132,-0.021472672,0.000000000,291758313.000000000,1748428328.000000000,-0.102608457
1748428328.311584,0.005051001,-0.021389909,0.000000000,311512415.000000000,1748428328.000000000,-0.102131635
1748428328.331673,0.006261650,-0.021300696,0.000000000,331606135.000000000,1748428328.000000000,-0.102171108
1748428328.351572,0.005946528,-0.021202967,0.000000000,351496965.000000000,1748428328.000000000,-0.101180226
1748428328.371590,0.008697520,-0.021019924,0.000000000,371513159.000000000,1748428328.000000000,-0.102459401
1748428328.391700,0.013065212,-0.020790026,0.000000000,391585439.000000000,1748428328.000000000,-0.104944825
1748428328.411571,0.009418485,-0.020617235,0.000000000,411494423.000000000,1748428328.000000000,-0.101821475
1748428328.431562,0.010793467,-0.020412574,0.000000000,431523762.000000000,1748428328.000000000,-0.102219522
1748428328.451577,0.012870350,-0.020230899,0.000000000,451504851.000000000,1748428328.000000000,-0.103067689
1748428328.471627,0.015828576,-0.019950503,0.000000000,471545191.000000000,1748428328.000000000,-0.104710825
1748428328.491617,0.017471559,-0.019672770,0.000000000,491507975.000000000,1748428328.000000000,-0.105456613
1748428328.511588,0.019521218,-0.019308925,0.000000000,511518600.000000000,1748428328.000000000,-0.106652014
1748428328.531579,0.017041329,-0.019018963,0.000000000,531542038.000000000,1748428328.000000000,-0.104611889
1748428328.551547,0.018448872,-0.018658664,0.000000000,551508209.000000000,1748428328.000000000,-0.105388202
1748428328.571530,0.018486660,-0.018306853,0.000000000,571496341.000000000,1748428328.000000000,-0.105222590
1748428328.591588,0.019922396,-0.017904421,0.000000000,591545868.000000000,1748428328.000000000,-0.106127128
1748428328.611593,0.025996365,-0.017408814,0.000000000,611522929.000000000,1748428328.000000000,-0.110411488
1748428328.631558,0.023565492,-0.016974246,0.000000000,631520489.000000000,1748428328.000000000,-0.108754300
1748428328.651581,0.024481434,-0.016508708,0.000000000,651503181.000000000,1748428328.000000000,-0.109476082
1748428328.671552,0.026051724,-0.016055949,0.000000000,671501101.000000000,1748428328.000000000,-0.110645585
1748428328.691653,0.027932633,-0.015519725,0.000000000,691581326.000000000,1748428328.000000000,-0.112201579
1748428328.711545,0.029307177,-0.014972243,0.000000000,711510397.000000000,1748428328.000000000,-0.113453701
1748428328.731573,0.031340815,-0.014375951,0.000000000,731509089.000000000,1748428328.000000000,-0.115273014
1748428328.751579,0.033573236,-0.013738864,0.000000000,751510847.000000000,1748428328.000000000,-0.117330328
1748428328.771554,0.036231674,-0.013090690,0.000000000,771501333.000000000,1748428328.000000000,-0.119729526
1748428328.791625,0.038323343,-0.012392280,0.000000000,791571098.000000000,1748428328.000000000,-0.121859506
1748428328.811588,0.039279446,-0.011825237,0.000000000,811508786.000000000,1748428328.000000000,-0.122999310
1748428328.831563,0.039115682,-0.010897374,0.000000000,831513378.000000000,1748428328.000000000,-0.124053188
1748428328.851603,0.042165216,-0.010137876,0.000000000,851532078.000000000,1748428328.000000000,-0.127051994
1748428328.871544,0.044187538,-0.009311528,0.000000000,871495453.000000000,1748428328.000000000,-0.129500091
1748428328.891699,0.044183154,-0.008486031,0.000000000,891603671.000000000,1748428328.000000000,-0.130589008
1748428328.911561,0.046767786,-0.007597848,0.000000000,911504198.000000000,1748428328.000000000,-0.133610889
1748428328.931651,0.044739585,-0.006944202,0.000000000,931578793.000000000,1748428328.000000000,-0.133069843
1748428328.951561,0.047644448,-0.005844948,0.000000000,951501602.000000000,1748428328.000000000,-0.136766702
1748428328.971519,0.049093675,-0.004905401,0.000000000,971472031.000000000,1748428328.000000000,-0.139219284
1748428328.991589,0.050488789,-0.003927545,0.000000000,991561964.000000000,1748428328.000000000,-0.141746640
1748428329.011542,0.053062949,-0.002943264,0.000000000,11509540.000000000,1748428329.000000000,-0.145140767
1748428329.031568,0.053909294,-0.001941358,0.000000000,31518681.000000000,1748428329.000000000,-0.147422209
1748428329.051569,0.054919716,-0.000973651,0.000000000,51513015.000000000,1748428329.000000000,-0.149798870
1748428329.071541,0.057612225,0.000080180,0.000000000,71502369.000000000,1748428329.000000000,-0.153533623
1748428329.092734,0.053800642,0.001092530,0.000000000,91655361.000000000,1748428329.000000000,-0.152764246
1748428329.111595,0.054905519,0.002171884,0.000000000,111527475.000000000,1748428329.000000000,-0.155545592
1748428329.131655,0.056231238,0.003210142,0.000000000,131578305.000000000,1748428329.000000000,-0.158452079
1748428329.151591,0.049441412,0.004166503,0.000000000,151535048.000000000,1748428329.000000000,-0.155671045
1748428329.171596,0.051506944,0.005180832,0.000000000,171530614.000000000,1748428329.000000000,-0.159132063
1748428329.191572,0.055718448,0.006220771,0.000000000,191539174.000000000,1748428329.000000000,-0.164161906
1748428329.211583,0.056567065,0.007317761,0.000000000,211517528.000000000,1748428329.000000000,-0.167028487
1748428329.231528,0.048416458,0.008299268,0.000000000,231479471.000000000,1748428329.000000000,-0.163540751
1748428329.251590,0.048201412,0.009226331,0.000000000,251537324.000000000,1748428329.000000000,-0.165457875
1748428329.271540,0.051183198,0.010186643,0.000000000,271478317.000000000,1748428329.000000000,-0.169676989
1748428329.291588,0.048550189,0.011109913,0.000000000,291555657.000000000,1748428329.000000000,-0.170007795
1748428329.311577,0.047259048,0.012025113,0.000000000,311520886.000000000,1748428329.000000000,-0.171288490
1748428329.331613,0.043469675,0.012905307,0.000000000,331540657.000000000,1748428329.000000000,-0.170827121
1748428329.351596,0.042037781,0.013696849,0.000000000,351538117.000000000,1748428329.000000000,-0.171865299
1748428329.371592,0.043058489,0.014509724,0.000000000,371541327.000000000,1748428329.000000000,-0.174665496
1748428329.391627,0.043188993,0.015335157,0.000000000,391569674.000000000,1748428329.000000000,-0.176912457
1748428329.411530,0.039628323,0.016122309,0.000000000,411497754.000000000,1748428329.000000000,-0.176586479
1748428329.431574,0.034758236,0.016834700,0.000000000,431526983.000000000,1748428329.000000000,-0.175258085
1748428329.451978,0.034397308,0.017474707,0.000000000,451805360.000000000,1748428329.000000000,-0.176932052
1748428329.471569,0.035996318,0.018134927,0.000000000,471497616.000000000,1748428329.000000000,-0.180020213
1748428329.491734,0.032079898,0.018625082,0.000000000,491675174.000000000,1748428329.000000000,-0.179031968
1748428329.511581,0.031521648,0.019428566,0.000000000,511517422.000000000,1748428329.000000000,-0.180948928
1748428329.531569,0.032109458,0.020029796,0.000000000,531535500.000000000,1748428329.000000000,-0.183320865
1748428329.551541,0.026361639,0.020549433,0.000000000,551501160.000000000,1748428329.000000000,-0.181211054
1748428329.571512,0.025162341,0.021032933,0.000000000,571474053.000000000,1748428329.000000000,-0.182188302
1748428329.591704,0.026687870,0.021549877,0.000000000,591588553.000000000,1748428329.000000000,-0.185123220
1748428329.611547,0.026064137,0.022076087,0.000000000,611506633.000000000,1748428329.000000000,-0.186619282
1748428329.631771,0.021724727,0.022505241,0.000000000,631635720.000000000,1748428329.000000000,-0.185404778
1748428329.651575,0.016730711,0.022842171,0.000000000,651522752.000000000,1748428329.000000000,-0.183590516
1748428329.671605,0.019111440,0.023232363,0.000000000,671524840.000000000,1748428329.000000000,-0.186963215
1748428329.691603,0.019984756,0.023610985,0.000000000,691570320.000000000,1748428329.000000000,-0.189294979
1748428329.711569,0.013472669,0.023925470,0.000000000,711528696.000000000,1748428329.000000000,-0.186444581
1748428329.731693,0.013777975,0.024206325,0.000000000,731630642.000000000,1748428329.000000000,-0.188237831
1748428329.751567,0.012077928,0.024480026,0.000000000,751512925.000000000,1748428329.000000000,-0.188650697
1748428329.771610,0.012531949,0.024720954,0.000000000,771541593.000000000,1748428329.000000000,-0.190498143
1748428329.791601,0.005151298,0.024849294,0.000000000,791557297.000000000,1748428329.000000000,-0.186759606
1748428329.811557,0.009916661,0.025034832,0.000000000,811526744.000000000,1748428329.000000000,-0.191488966
1748428329.831578,0.008682357,0.025210140,0.000000000,831545584.000000000,1748428329.000000000,-0.192079574
1748428329.851585,0.005857883,0.025335684,0.000000000,851508869.000000000,1748428329.000000000,-0.191492900
1748428329.871618,0.004706623,0.025432480,0.000000000,871572743.000000000,1748428329.000000000,-0.192010641
1748428329.891734,0.002822503,0.025469661,0.000000000,891665402.000000000,1748428329.000000000,-0.191919520
1748428329.911631,0.002684403,0.025531344,0.000000000,911547625.000000000,1748428329.000000000,-0.193076253
1748428329.931621,0.000539060,0.025540834,0.000000000,931551186.000000000,1748428329.000000000,-0.192759216
1748428329.951523,-0.004357561,0.025464058,0.000000000,951493522.000000000,1748428329.000000000,-0.190391809
1748428329.971594,-0.007569343,0.025347905,0.000000000,971517371.000000000,1748428329.000000000,-0.189108342
1748428329.991612,-0.008195493,0.025243726,0.000000000,991578800.000000000,1748428329.000000000,-0.189620733
1748428330.011549,-0.007171908,0.025138780,0.000000000,11511138.000000000,1748428330.000000000,-0.191262245
1748428330.031611,-0.008716097,0.024979303,0.000000000,31548532.000000000,1748428330.000000000,-0.191032559
1748428330.051572,-0.009092756,0.024727378,0.000000000,51522778.000000000,1748428330.000000000,-0.191430151
1748428330.071562,-0.008432867,0.024532679,0.000000000,71508195.000000000,1748428330.000000000,-0.192634314
1748428330.091745,-0.012059366,0.024336489,0.000000000,91687386.000000000,1748428330.000000000,-0.190877602
1748428330.111580,-0.010384919,0.024118116,0.000000000,111520216.000000000,1748428330.000000000,-0.192719162
1748428330.131691,-0.009817716,0.023910368,0.000000000,131581415.000000000,1748428330.000000000,-0.193808466
1748428330.151577,-0.009641338,0.023743214,0.000000000,151530494.000000000,1748428330.000000000,-0.194693714
1748428330.171521,-0.008345690,0.023565115,0.000000000,171468902.000000000,1748428330.000000000,-0.196321666
1748428330.191679,-0.007551144,0.023401553,0.000000000,191599953.000000000,1748428330.000000000,-0.197623402
1748428330.211619,-0.003780266,0.023279032,0.000000000,211556626.000000000,1748428330.000000000,-0.201040834
1748428330.231598,-0.005229553,0.023170292,0.000000000,231517988.000000000,1748428330.000000000,-0.200885966
1748428330.251616,-0.003890309,0.023029273,0.000000000,251500078.000000000,1748428330.000000000,-0.202586055
1748428330.271505,-0.005183196,0.022942707,0.000000000,271468603.000000000,1748428330.000000000,-0.202568159
1748428330.291729,-0.006436932,0.022857288,0.000000000,291668203.000000000,1748428330.000000000,-0.202575415
1748428330.311545,-0.009897884,0.022683466,0.000000000,311497717.000000000,1748428330.000000000,-0.200898558
1748428330.331594,-0.004977473,0.022538723,0.000000000,331539780.000000000,1748428330.000000000,-0.205034256
1748428330.351609,-0.003390833,0.022463758,0.000000000,351563669.000000000,1748428330.000000000,-0.206997022
1748428330.371535,-0.004430044,0.022429500,0.000000000,371497830.000000000,1748428330.000000000,-0.207223982
1748428330.391640,-0.007338285,0.022306284,0.000000000,391600537.000000000,1748428330.000000000,-0.206000775
1748428330.411616,-0.008599702,0.022123531,0.000000000,411533205.000000000,1748428330.000000000,-0.205796421
1748428330.431780,-0.002289423,0.022046693,0.000000000,431686437.000000000,1748428330.000000000,-0.210987538
1748428330.451609,-0.003964795,0.021974102,0.000000000,451554043.000000000,1748428330.000000000,-0.210688055
1748428330.471556,-0.005371569,0.021837806,0.000000000,471515334.000000000,1748428330.000000000,-0.210453719
1748428330.491641,-0.003204360,0.021742316,0.000000000,491602302.000000000,1748428330.000000000,-0.212747127
1748428330.511610,-0.003912121,0.021661457,0.000000000,511534429.000000000,1748428330.000000000,-0.213084728
1748428330.531585,-0.005991257,0.021539150,0.000000000,531519375.000000000,1748428330.000000000,-0.212399334
1748428330.551553,-0.012457933,0.021361800,0.000000000,551513738.000000000,1748428330.000000000,-0.208588839
1748428330.571538,-0.011451704,0.021241335,0.000000000,571492733.000000000,1748428330.000000000,-0.210016444
1748428330.591631,-0.009494079,0.021019537,0.000000000,591549314.000000000,1748428330.000000000,-0.211908177
1748428330.611543,-0.006656767,0.020886168,0.000000000,611512579.000000000,1748428330.000000000,-0.214556858
1748428330.631612,-0.010582498,0.020692848,0.000000000,631557137.000000000,1748428330.000000000,-0.212436408
1748428330.651635,-0.014624500,0.020413944,0.000000000,651567791.000000000,1748428330.000000000,-0.210070908
1748428330.671556,-0.013403705,0.020123815,0.000000000,671502503.000000000,1748428330.000000000,-0.211293757
1748428330.691602,-0.015906116,0.019838545,0.000000000,691550357.000000000,1748428330.000000000,-0.209950566
1748428330.711610,-0.017199066,0.019510897,0.000000000,711534532.000000000,1748428330.000000000,-0.209349424
1748428330.731567,-0.017899355,0.019140285,0.000000000,731492597.000000000,1748428330.000000000,-0.209062919
1748428330.751606,-0.017508976,0.018737284,0.000000000,751549288.000000000,1748428330.000000000,-0.209451169
1748428330.771566,-0.019591562,0.018364247,0.000000000,771493438.000000000,1748428330.000000000,-0.208174482
1748428330.791635,-0.023149425,0.017946554,0.000000000,791588641.000000000,1748428330.000000000,-0.205784395
1748428330.811564,-0.019242628,0.017555689,0.000000000,811529524.000000000,1748428330.000000000,-0.208561078
1748428330.831607,-0.020479979,0.017301442,0.000000000,831564774.000000000,1748428330.000000000,-0.208030209
1748428330.851561,-0.015683560,0.016819030,0.000000000,851519884.000000000,1748428330.000000000,-0.211222902
1748428330.871634,-0.016866881,0.016457198,0.000000000,871551979.000000000,1748428330.000000000,-0.210499689
1748428330.891671,-0.015651483,0.016164314,0.000000000,891607988.000000000,1748428330.000000000,-0.211536840
1748428330.911577,-0.012138925,0.015880011,0.000000000,911535737.000000000,1748428330.000000000,-0.214157268
1748428330.931621,-0.013486001,0.015615754,0.000000000,931570617.000000000,1748428330.000000000,-0.213457674
1748428330.951617,-0.010133126,0.015417704,0.000000000,951564610.000000000,1748428330.000000000,-0.216101274
1748428330.971589,-0.010377671,0.015279338,0.000000000,971509881.000000000,1748428330.000000000,-0.216369689
1748428330.991743,-0.012186824,0.015021289,0.000000000,991668774.000000000,1748428330.000000000,-0.215336621
1748428331.011595,-0.006707089,0.014844380,0.000000000,11537362.000000000,1748428331.000000000,-0.219455749
1748428331.031768,-0.006031823,0.014712045,0.000000000,31677329.000000000,1748428331.000000000,-0.220342457
1748428331.051620,-0.003749093,0.014624962,0.000000000,51564100.000000000,1748428331.000000000,-0.222412050
1748428331.071568,-0.002510192,0.014581679,0.000000000,71499844.000000000,1748428331.000000000,-0.223839492
1748428331.091739,-0.005467847,0.014534039,0.000000000,91666782.000000000,1748428331.000000000,-0.222369418
1748428331.111589,0.000571323,0.014518395,0.000000000,111526553.000000000,1748428331.000000000,-0.227146372
1748428331.131852,-0.001553463,0.014493945,0.000000000,131734708.000000000,1748428331.000000000,-0.226288930
1748428331.151548,-0.003016649,0.014433895,0.000000000,151517374.000000000,1748428331.000000000,-0.225820586
1748428331.171553,0.002942047,0.014464045,0.000000000,171491710.000000000,1748428331.000000000,-0.230621383
1748428331.191764,0.008553910,0.014585746,0.000000000,191653328.000000000,1748428331.000000000,-0.235352129
1748428331.211565,0.002180462,0.014669481,0.000000000,211519872.000000000,1748428331.000000000,-0.231771857
1748428331.231627,-0.000481413,0.014667984,0.000000000,231571633.000000000,1748428331.000000000,-0.230593562
1748428331.251560,0.000404223,0.014680127,0.000000000,251512967.000000000,1748428331.000000000,-0.231881142
1748428331.271568,-0.000477597,0.014666053,0.000000000,271522219.000000000,1748428331.000000000,-0.231905162
1748428331.291645,-0.002118687,0.014653755,0.000000000,291592645.000000000,1748428331.000000000,-0.231409356
1748428331.311607,-0.000402320,0.014611113,0.000000000,311543848.000000000,1748428331.000000000,-0.233167812
1748428331.331629,-0.002170491,0.014620901,0.000000000,331566705.000000000,1748428331.000000000,-0.232622460
1748428331.351616,-0.003697461,0.014542555,0.000000000,351556410.000000000,1748428331.000000000,-0.232082456
1748428331.371593,-0.002827715,0.014499733,0.000000000,371513815.000000000,1748428331.000000000,-0.233253062
1748428331.391671,-0.006450126,0.014333170,0.000000000,391632011.000000000,1748428331.000000000,-0.231104583
1748428331.411612,-0.008127913,0.014186008,0.000000000,411538219.000000000,1748428331.000000000,-0.230322197
1748428331.431545,-0.010143857,0.013994901,0.000000000,431518196.000000000,1748428331.000000000,-0.229220256
1748428331.451585,-0.005662988,0.013829421,0.000000000,451535883.000000000,1748428331.000000000,-0.232627049
1748428331.483130,-0.004162977,0.013693968,0.000000000,482931246.000000000,1748428331.000000000,-0.234030172
1748428331.491568,-0.007978207,0.013507859,0.000000000,491537365.000000000,1748428331.000000000,-0.231677264
1748428331.511597,-0.010715012,0.013296193,0.000000000,511553309.000000000,1748428331.000000000,-0.230011433
1748428331.531628,-0.007640227,0.013150868,0.000000000,531563793.000000000,1748428331.000000000,-0.232456282
1748428331.551597,-0.006884856,0.012984766,0.000000000,551533530.000000000,1748428331.000000000,-0.233260691
1748428331.571576,-0.005098052,0.012843663,0.000000000,571538664.000000000,1748428331.000000000,-0.234813064
1748428331.591682,-0.007265799,0.012684302,0.000000000,591626013.000000000,1748428331.000000000,-0.233604640
1748428331.611636,-0.006005863,0.012495285,0.000000000,611595059.000000000,1748428331.000000000,-0.234693497
1748428331.631589,-0.008875287,0.012382928,0.000000000,631544007.000000000,1748428331.000000000,-0.233072564
1748428331.651629,-0.005660310,0.012239644,0.000000000,651566223.000000000,1748428331.000000000,-0.235576779
1748428331.671590,-0.006928601,0.012014948,0.000000000,671544817.000000000,1748428331.000000000,-0.234840870
1748428331.691592,-0.006384375,0.011809920,0.000000000,691550903.000000000,1748428331.000000000,-0.235378042
1748428331.711576,-0.007825304,0.011637956,0.000000000,711537001.000000000,1748428331.000000000,-0.234600484
1748428331.731638,-0.004401890,0.011454870,0.000000000,731574396.000000000,1748428331.000000000,-0.237142071
1748428331.751621,-0.009022844,0.011231014,0.000000000,751568349.000000000,1748428331.000000000,-0.234065637
1748428331.771600,-0.005342749,0.011071411,0.000000000,771518169.000000000,1748428331.000000000,-0.236808568
1748428331.791773,-0.006900218,0.010934954,0.000000000,791611258.000000000,1748428331.000000000,-0.235982671
1748428331.811707,-0.006098637,0.010706082,0.000000000,811549596.000000000,1748428331.000000000,-0.236605063
1748428331.831692,-0.008095850,0.010473863,0.000000000,831583514.000000000,1748428331.000000000,-0.235285282
1748428331.851607,-0.008513805,0.010255150,0.000000000,851557961.000000000,1748428331.000000000,-0.235066444
1748428331.871581,-0.007508840,0.010061277,0.000000000,871515395.000000000,1748428331.000000000,-0.235862345
1748428331.891658,-0.007346051,0.009883040,0.000000000,891559712.000000000,1748428331.000000000,-0.236098632
1748428331.911643,-0.009184773,0.009704114,0.000000000,911587188.000000000,1748428331.000000000,-0.234948456
1748428331.931591,-0.009402861,0.009392912,0.000000000,931550093.000000000,1748428331.000000000,-0.234663755
1748428331.951598,-0.009618887,0.009133738,0.000000000,951556409.000000000,1748428331.000000000,-0.234461606
1748428331.971615,-0.009426271,0.008913769,0.000000000,971528351.000000000,1748428331.000000000,-0.234600693
1748428331.991599,-0.008480486,0.008690033,0.000000000,991562920.000000000,1748428331.000000000,-0.235241324
1748428332.011600,-0.008869044,0.008525806,0.000000000,11544700.000000000,1748428332.000000000,-0.235062495
1748428332.031594,-0.007853262,0.008319238,0.000000000,31559432.000000000,1748428332.000000000,-0.235765308
1748428332.051662,-0.006126304,0.008182810,0.000000000,51609801.000000000,1748428332.000000000,-0.237076402
1748428332.071603,-0.007996508,0.007917996,0.000000000,71549081.000000000,1748428332.000000000,-0.235671595
1748428332.091656,-0.008230600,0.007692772,0.000000000,91617624.000000000,1748428332.000000000,-0.235453099
1748428332.111576,-0.006269882,0.007513605,0.000000000,111504215.000000000,1748428332.000000000,-0.236818925
1748428332.131582,-0.008657894,0.007319491,0.000000000,131521121.000000000,1748428332.000000000,-0.235157058
1748428332.151573,-0.009978411,0.007132606,0.000000000,151525795.000000000,1748428332.000000000,-0.234234259
1748428332.171575,-0.004880818,0.006951099,0.000000000,171538262.000000000,1748428332.000000000,-0.237729251
1748428332.191725,-0.005527414,0.006854591,0.000000000,191580265.000000000,1748428332.000000000,-0.237418845
1748428332.211615,-0.007099580,0.006641129,0.000000000,211543310.000000000,1748428332.000000000,-0.236253560
1748428332.231583,-0.002766397,0.006541187,0.000000000,231542173.000000000,1748428332.000000000,-0.239349589
1748428332.251643,-0.005664228,0.006398768,0.000000000,251568025.000000000,1748428332.000000000,-0.237387910
1748428332.271628,-0.005792976,0.006255797,0.000000000,271563341.000000000,1748428332.000000000,-0.237324253
1748428332.291610,-0.000366272,0.006165114,0.000000000,291562924.000000000,1748428332.000000000,-0.241172433
1748428332.311557,-0.004578219,0.006051016,0.000000000,311513446.000000000,1748428332.000000000,-0.238341436
1748428332.331603,-0.001963720,0.005959425,0.000000000,331555379.000000000,1748428332.000000000,-0.240243718
1748428332.351542,-0.001549516,0.005867220,0.000000000,351504968.000000000,1748428332.000000000,-0.240626767
1748428332.371607,-0.005199720,0.005743404,0.000000000,371548595.000000000,1748428332.000000000,-0.238151208
1748428332.391730,-0.002306536,0.005686818,0.000000000,391682210.000000000,1748428332.000000000,-0.240295470
1748428332.411617,-0.002513921,0.005603544,0.000000000,411546479.000000000,1748428332.000000000,-0.240254939
1748428332.431609,-0.001406141,0.005532065,0.000000000,431554919.000000000,1748428332.000000000,-0.241137192
1748428332.451581,-0.002513281,0.005472798,0.000000000,451526410.000000000,1748428332.000000000,-0.240514472
1748428332.471625,-0.001544811,0.005373677,0.000000000,471569876.000000000,1748428332.000000000,-0.241244525
1748428332.491677,-0.004030953,0.005292232,0.000000000,491639100.000000000,1748428332.000000000,-0.239625305
1748428332.511623,-0.003882667,0.005214042,0.000000000,511585444.000000000,1748428332.000000000,-0.239821166
1748428332.531586,-0.003425800,0.005077005,0.000000000,531542558.000000000,1748428332.000000000,-0.240118295
1748428332.551547,-0.003839446,0.004978177,0.000000000,551508097.000000000,1748428332.000000000,-0.239880145
1748428332.571586,-0.000737310,0.004920314,0.000000000,571517740.000000000,1748428332.000000000,-0.242131621
1748428332.591592,-0.002401083,0.004831553,0.000000000,591554222.000000000,1748428332.000000000,-0.241044655
1748428332.611622,-0.003021476,0.004713464,0.000000000,611540962.000000000,1748428332.000000000,-0.240618065
1748428332.631640,-0.003731654,0.004636128,0.000000000,631584979.000000000,1748428332.000000000,-0.240198880
1748428332.651562,-0.005636388,0.004526135,0.000000000,651530381.000000000,1748428332.000000000,-0.238894582
1748428332.671647,-0.005826531,0.004375421,0.000000000,671573897.000000000,1748428332.000000000,-0.238690779
1748428332.691614,-0.004084930,0.004263066,0.000000000,691562469.000000000,1748428332.000000000,-0.239879563
1748428332.711570,-0.007922655,0.004138265,0.000000000,711536144.000000000,1748428332.000000000,-0.237201437
1748428332.731595,-0.005769948,0.003965599,0.000000000,731555234.000000000,1748428332.000000000,-0.238552302
1748428332.751616,-0.005300390,0.003792528,0.000000000,751563935.000000000,1748428332.000000000,-0.238736510
1748428332.771612,-0.007063083,0.003631400,0.000000000,771541046.000000000,1748428332.000000000,-0.237398773
1748428332.791612,-0.005634939,0.003473355,0.000000000,791572690.000000000,1748428332.000000000,-0.238255113
1748428332.811648,-0.007470039,0.003335234,0.000000000,811566683.000000000,1748428332.000000000,-0.236895338
1748428332.831590,-0.008405484,0.003135053,0.000000000,831532904.000000000,1748428332.000000000,-0.236035049
1748428332.851616,-0.007247641,0.002999292,0.000000000,851567223.000000000,1748428332.000000000,-0.236723900
1748428332.871606,-0.006751104,0.002866770,0.000000000,871544064.000000000,1748428332.000000000,-0.236957550
1748428332.891584,-0.008654827,0.002635736,0.000000000,891539639.000000000,1748428332.000000000,-0.235353649
1748428332.911686,-0.007584445,0.002476832,0.000000000,911594487.000000000,1748428332.000000000,-0.235917702
1748428332.931625,-0.005039992,0.002348191,0.000000000,931555318.000000000,1748428332.000000000,-0.237544239
1748428332.951614,-0.006599724,0.002177968,0.000000000,951541025.000000000,1748428332.000000000,-0.236264974
1748428332.971625,-0.005623929,0.002002814,0.000000000,971547281.000000000,1748428332.000000000,-0.236713767
1748428332.991618,-0.006939949,0.001853773,0.000000000,991572793.000000000,1748428332.000000000,-0.235625461
1748428333.011640,-0.009329263,0.001717531,0.000000000,11599588.000000000,1748428333.000000000,-0.233815327
1748428333.031648,-0.007189850,0.001518563,0.000000000,31572331.000000000,1748428333.000000000,-0.235000700
1748428333.051607,-0.010366244,0.001342491,0.000000000,51547418.000000000,1748428333.000000000,-0.232561216
1748428333.071562,-0.009316975,0.001137404,0.000000000,71519380.000000000,1748428333.000000000,-0.232968509
1748428333.091676,-0.009348450,0.000945563,0.000000000,91599365.000000000,1748428333.000000000,-0.232647181
1748428333.111673,-0.007757944,0.000801734,0.000000000,111587396.000000000,1748428333.000000000,-0.233521074
1748428333.131616,-0.009286501,0.000668952,0.000000000,131561532.000000000,1748428333.000000000,-0.232262537
1748428333.151632,-0.007418745,0.000440275,0.000000000,151569030.000000000,1748428333.000000000,-0.233159795
1748428333.171588,-0.007452407,0.000265282,0.000000000,171530462.000000000,1748428333.000000000,-0.232836574
1748428333.191621,-0.009570351,0.000087829,0.000000000,191559000.000000000,1748428333.000000000,-0.231066838
1748428333.211643,-0.009755241,-0.000096178,0.000000000,211590924.000000000,1748428333.000000000,-0.230607331
1748428333.231618,-0.005904944,-0.000225241,0.000000000,231552507.000000000,1748428333.000000000,-0.233016580
1748428333.251608,-0.006548447,-0.000416501,0.000000000,251548013.000000000,1748428333.000000000,-0.232214242
1748428333.271592,-0.008340921,-0.000529126,0.000000000,271547316.000000000,1748428333.000000000,-0.230756417
1748428333.291676,-0.007925658,-0.000736708,0.000000000,291604156.000000000,1748428333.000000000,-0.230639204
1748428333.311622,-0.005490130,-0.000841550,0.000000000,311578533.000000000,1748428333.000000000,-0.232090563
1748428333.331613,-0.004389393,-0.000974065,0.000000000,331564390.000000000,1748428333.000000000,-0.232568219
1748428333.351619,-0.003100466,-0.001076039,0.000000000,351560257.000000000,1748428333.000000000,-0.233225241
1748428333.371568,-0.006809474,-0.001191793,0.000000000,371527009.000000000,1748428333.000000000,-0.230413452
1748428333.391729,-0.004570548,-0.001289734,0.000000000,391628323.000000000,1748428333.000000000,-0.231721789
1748428333.411617,-0.004612788,-0.001350384,0.000000000,411585026.000000000,1748428333.000000000,-0.231524214
1748428333.431608,-0.001972769,-0.001403979,0.000000000,431557339.000000000,1748428333.000000000,-0.233182490
1748428333.451556,-0.003425428,-0.001490790,0.000000000,451515043.000000000,1748428333.000000000,-0.231961504
1748428333.471600,-0.001078678,-0.001499471,0.000000000,471553019.000000000,1748428333.000000000,-0.233493775
1748428333.492048,-0.002131878,-0.001533285,0.000000000,491991888.000000000,1748428333.000000000,-0.232640222
1748428333.511641,0.000431996,-0.001577068,0.000000000,511559490.000000000,1748428333.000000000,-0.234255850
1748428333.531616,-0.000202232,-0.001574069,0.000000000,531562059.000000000,1748428333.000000000,-0.233754411
1748428333.551621,0.000605674,-0.001598519,0.000000000,551574076.000000000,1748428333.000000000,-0.234195247
1748428333.571647,-0.000589136,-0.001612385,0.000000000,571575533.000000000,1748428333.000000000,-0.233276278
1748428333.591665,0.001814011,-0.001575707,0.000000000,591629529.000000000,1748428333.000000000,-0.234924793
1748428333.611593,0.003558668,-0.001548366,0.000000000,611546878.000000000,1748428333.000000000,-0.236104786
1748428333.631618,-0.000247272,-0.001530345,0.000000000,631561099.000000000,1748428333.000000000,-0.233449593
1748428333.651648,0.001530044,-0.001527540,0.000000000,651574989.000000000,1748428333.000000000,-0.234609261
1748428333.671583,0.004524524,-0.001439452,0.000000000,671520701.000000000,1748428333.000000000,-0.236762404
1748428333.691679,0.000640652,-0.001410339,0.000000000,691618519.000000000,1748428333.000000000,-0.234078735
1748428333.711613,0.002732836,-0.001397914,0.000000000,711563270.000000000,1748428333.000000000,-0.235477999
1748428333.731612,0.000699643,-0.001391752,0.000000000,731571279.000000000,1748428333.000000000,-0.234027699
1748428333.751621,0.001510598,-0.001347932,0.000000000,751555634.000000000,1748428333.000000000,-0.234603554
1748428333.771603,0.000233047,-0.001367555,0.000000000,771544958.000000000,1748428333.000000000,-0.233628348
1748428333.791610,-0.002719402,-0.001375734,0.000000000,791576051.000000000,1748428333.000000000,-0.231520653
1748428333.811588,-0.002370148,-0.001364243,0.000000000,811553533.000000000,1748428333.000000000,-0.231720433
1748428333.831592,-0.001828818,-0.001406785,0.000000000,831537738.000000000,1748428333.000000000,-0.231954202
1748428333.851627,-0.001042037,-0.001428446,0.000000000,851571816.000000000,1748428333.000000000,-0.232393086
1748428333.871622,-0.000848027,-0.001458222,0.000000000,871547625.000000000,1748428333.000000000,-0.232408300
1748428333.891684,-0.001175981,-0.001487398,0.000000000,891643169.000000000,1748428333.000000000,-0.232064113
1748428333.911613,-0.001628517,-0.001507505,0.000000000,911577840.000000000,1748428333.000000000,-0.231649458
1748428333.931606,-0.001637250,-0.001540582,0.000000000,931561774.000000000,1748428333.000000000,-0.231515601
1748428333.951617,-0.000483411,-0.001587167,0.000000000,951574513.000000000,1748428333.000000000,-0.232155532
1748428333.971598,0.001118411,-0.001611969,0.000000000,971535995.000000000,1748428333.000000000,-0.233141437
1748428333.991608,0.000165332,-0.001610521,0.000000000,991573710.000000000,1748428333.000000000,-0.232416198
1748428334.011615,-0.000611100,-0.001607775,0.000000000,11568184.000000000,1748428334.000000000,-0.231814906
1748428334.031624,-0.001149702,-0.001634667,0.000000000,31574359.000000000,1748428334.000000000,-0.231323257
1748428334.051628,-0.001596571,-0.001634339,0.000000000,51576948.000000000,1748428334.000000000,-0.230943263
1748428334.071606,0.001529072,-0.001571607,0.000000000,71542568.000000000,1748428334.000000000,-0.233135551
1748428334.091618,0.000298119,-0.001544313,0.000000000,91580113.000000000,1748428334.000000000,-0.232268125
1748428334.111657,0.001774967,-0.001498167,0.000000000,111594184.000000000,1748428334.000000000,-0.233299598
1748428334.131648,0.002628740,-0.001453019,0.000000000,131600851.000000000,1748428334.000000000,-0.233902588
1748428334.151649,0.002630833,-0.001394958,0.000000000,151595335.000000000,1748428334.000000000,-0.233945116
1748428334.171620,0.002335141,-0.001385759,0.000000000,171569550.000000000,1748428334.000000000,-0.233696073
1748428334.191660,0.000448191,-0.001377907,0.000000000,191594211.000000000,1748428334.000000000,-0.232350037
1748428334.211567,0.002391637,-0.001352948,0.000000000,211525817.000000000,1748428334.000000000,-0.233671293
1748428334.231614,0.000199678,-0.001348279,0.000000000,231573952.000000000,1748428334.000000000,-0.232111037
1748428334.251610,-0.002267440,-0.001352708,0.000000000,251558617.000000000,1748428334.000000000,-0.230345026
1748428334.271646,-0.003662403,-0.001362906,0.000000000,271553432.000000000,1748428334.000000000,-0.229306012
1748428334.291702,0.001418982,-0.001360049,0.000000000,291619700.000000000,1748428334.000000000,-0.232746780
1748428334.311630,-0.002301079,-0.001400025,0.000000000,311562658.000000000,1748428334.000000000,-0.230053142
1748428334.331678,-0.003156437,-0.001448837,0.000000000,331581016.000000000,1748428334.000000000,-0.229312763
1748428334.351679,-0.004969281,-0.001472955,0.000000000,351587954.000000000,1748428334.000000000,-0.227956489
1748428334.371620,-0.001631793,-0.001577616,0.000000000,371546811.000000000,1748428334.000000000,-0.229995906
1748428334.391667,-0.005254085,-0.001651768,0.000000000,391573174.000000000,1748428334.000000000,-0.227297351
1748428334.411654,-0.002657073,-0.001704228,0.000000000,411604458.000000000,1748428334.000000000,-0.228914618
1748428334.431658,-0.001429735,-0.001754730,0.000000000,431615603.000000000,1748428334.000000000,-0.229590669
1748428334.451621,0.000146798,-0.001772286,0.000000000,451580180.000000000,1748428334.000000000,-0.230564937
1748428334.471603,-0.001545540,-0.001818642,0.000000000,471555939.000000000,1748428334.000000000,-0.229236469
1748428334.491733,0.000147074,-0.001809667,0.000000000,491678644.000000000,1748428334.000000000,-0.230336219
1748428334.511626,0.000163622,-0.001827176,0.000000000,511584652.000000000,1748428334.000000000,-0.230234683
1748428334.531653,-0.000332139,-0.001798014,0.000000000,531602590.000000000,1748428334.000000000,-0.229865104
1748428334.551638,-0.001278596,-0.001816964,0.000000000,551580653.000000000,1748428334.000000000,-0.229098812
