__time,/fmu/out/sensor_combined/accel_calibration_count,/fmu/out/sensor_combined/accelerometer_clipping,/fmu/out/sensor_combined/accelerometer_integral_dt,/fmu/out/sensor_combined/accelerometer_m_s2[0],/fmu/out/sensor_combined/accelerometer_m_s2[1],/fmu/out/sensor_combined/accelerometer_m_s2[2],/fmu/out/sensor_combined/accelerometer_timestamp_relative,/fmu/out/sensor_combined/gyro_calibration_count,/fmu/out/sensor_combined/gyro_clipping,/fmu/out/sensor_combined/gyro_integral_dt,/fmu/out/sensor_combined/gyro_rad[0],/fmu/out/sensor_combined/gyro_rad[1],/fmu/out/sensor_combined/gyro_rad[2],/fmu/out/sensor_combined/timestamp
1748428316.493758,5.000000000,0.000000000,4875.000000000,-0.122837819,-2.081072330,-9.578981400,0.000000000,1.000000000,0.000000000,5001.000000000,0.001040863,-0.002594969,-0.000752579,1748428316485169.000000000
1748428316.504750,5.000000000,0.000000000,4875.000000000,-0.145159304,-2.082970619,-9.618458748,0.000000000,1.000000000,0.000000000,5001.000000000,0.003756085,-0.003606857,0.002817281,1748428316495172.000000000
1748428316.513831,5.000000000,0.000000000,4875.000000000,-0.158178911,-2.092458725,-9.599662781,0.000000000,1.000000000,0.000000000,5001.000000000,0.007804663,0.000068686,-0.003041802,1748428316505174.000000000
1748428316.523799,5.000000000,0.000000000,4875.000000000,-0.145157799,-2.096252680,-9.573347092,0.000000000,1.000000000,0.000000000,5001.000000000,0.000241358,0.006513791,-0.000111896,1748428316515177.000000000
1748428316.533862,5.000000000,0.000000000,7313.000000000,-0.158800408,-2.046278715,-9.602169991,0.000000000,1.000000000,0.000000000,5001.000000000,0.008763937,-0.007494707,-0.002988494,1748428316525179.000000000
1748428316.542958,5.000000000,0.000000000,4876.000000000,-0.189800039,-2.007055521,-9.609063148,0.000000000,1.000000000,0.000000000,5001.000000000,0.004716315,0.002784419,0.008035876,1748428316535181.000000000
1748428316.552818,5.000000000,0.000000000,4876.000000000,-0.186080039,-2.008953810,-9.629739761,0.000000000,1.000000000,0.000000000,5001.000000000,-0.004872797,0.000068227,-0.002029523,1748428316545184.000000000
1748428316.562814,5.000000000,0.000000000,4876.000000000,-0.137720048,-1.989974856,-9.605302811,0.000000000,1.000000000,0.000000000,5001.000000000,-0.000185044,0.005660715,-0.000911936,1748428316555186.000000000
1748428316.572926,5.000000000,0.000000000,4874.000000000,-0.173060030,-2.005157948,-9.633500099,0.000000000,1.000000000,0.000000000,5002.000000000,-0.001409892,-0.002275046,0.000686166,1748428316565189.000000000
1748428316.582742,5.000000000,0.000000000,4875.000000000,-0.174917772,-2.029829979,-9.618462563,0.000000000,1.000000000,0.000000000,5001.000000000,-0.000612080,0.001134130,-0.002136508,1748428316575191.000000000
1748428316.592813,5.000000000,0.000000000,4875.000000000,-0.135857403,-2.005154133,-9.595904350,0.000000000,1.000000000,0.000000000,5002.000000000,0.001466320,-0.002488097,0.006971227,1748428316585194.000000000
1748428316.603807,5.000000000,0.000000000,4874.000000000,-0.120980091,-2.075378418,-9.594020844,0.000000000,1.000000000,0.000000000,5001.000000000,0.001147921,0.001133134,0.002657668,1748428316595196.000000000
1748428316.613807,5.000000000,0.000000000,4875.000000000,-0.137721613,-2.109536409,-9.552665710,0.000000000,1.000000000,0.000000000,5001.000000000,0.000881238,0.001133688,0.002550104,1748428316605198.000000000
1748428316.624748,5.000000000,0.000000000,4876.000000000,-0.124700077,-2.088663578,-9.592143059,0.000000000,1.000000000,0.000000000,5001.000000000,-0.000131909,-0.002434466,0.004520981,1748428316615201.000000000
1748428316.634838,5.000000000,0.000000000,4875.000000000,-0.148880079,-2.098152399,-9.578983307,0.000000000,1.000000000,0.000000000,5001.000000000,0.000560118,-0.002967128,-0.003680297,1748428316625203.000000000
1748428316.643815,5.000000000,0.000000000,4876.000000000,-0.143300056,-2.010851383,-9.650421143,0.000000000,1.000000000,0.000000000,5002.000000000,0.002425063,-0.003446832,-0.002456364,1748428316635206.000000000
1748428316.652812,5.000000000,0.000000000,4874.000000000,-0.160040066,-2.003259659,-9.601541519,0.000000000,1.000000000,0.000000000,5001.000000000,0.000241732,-0.000730621,-0.000379343,1748428316645208.000000000
1748428316.662899,5.000000000,0.000000000,4876.000000000,-0.182360023,-1.999464035,-9.605302811,0.000000000,1.000000000,0.000000000,5001.000000000,-0.004019056,-0.001583763,-0.005278693,1748428316655210.000000000
1748428316.673861,5.000000000,0.000000000,4876.000000000,-0.160040036,-1.988077044,-9.646660805,0.000000000,1.000000000,0.000000000,5001.000000000,-0.002954544,0.001506981,-0.002509315,1748428316665213.000000000
1748428316.684753,5.000000000,0.000000000,4872.000000000,-0.154459313,-2.018437624,-9.625984192,0.000000000,1.000000000,0.000000000,5001.000000000,0.000187819,0.004010757,-0.008049096,1748428316675215.000000000
1748428316.693834,5.000000000,0.000000000,4875.000000000,-0.156323850,-1.986178994,-9.610942841,0.000000000,1.000000000,0.000000000,5003.000000000,0.003277139,-0.005736804,0.003561580,1748428316685219.000000000
1748428316.705178,5.000000000,0.000000000,4875.000000000,-0.120979697,-2.033627748,-9.609063148,0.000000000,1.000000000,0.000000000,5001.000000000,0.004182166,-0.002860831,-0.002349816,1748428316695220.000000000
1748428316.714754,5.000000000,0.000000000,4874.000000000,-0.165620074,-2.071582794,-9.618462563,0.000000000,1.000000000,0.000000000,5001.000000000,0.001093267,-0.004299331,-0.005918801,1748428316705222.000000000
1748428316.724783,5.000000000,0.000000000,7313.000000000,-0.133998007,-2.075381041,-9.615954399,0.000000000,1.000000000,0.000000000,5001.000000000,0.001093410,0.000708502,0.003881738,1748428316715225.000000000
1748428316.732872,5.000000000,0.000000000,4875.000000000,-0.130280867,-2.058298111,-9.595905304,0.000000000,1.000000000,0.000000000,5001.000000000,-0.001251747,-0.003286509,-0.003628894,1748428316725227.000000000
1748428316.742830,5.000000000,0.000000000,4876.000000000,-0.152600080,-2.045012712,-9.625981331,0.000000000,1.000000000,0.000000000,5001.000000000,-0.001197935,-0.004299522,0.002976588,1748428316735230.000000000
1748428316.752863,5.000000000,0.000000000,4875.000000000,-0.130277023,-2.046910763,-9.601544380,0.000000000,1.000000000,0.000000000,5001.000000000,-0.000396613,0.003265863,-0.001444577,1748428316745232.000000000
1748428316.763827,5.000000000,0.000000000,4875.000000000,-0.186079279,-2.071581364,-9.603420258,0.000000000,1.000000000,0.000000000,5002.000000000,0.001253268,-0.005364315,-0.000166043,1748428316755235.000000000
1748428316.772811,5.000000000,0.000000000,4875.000000000,-0.173055068,-2.045015097,-9.601542473,0.000000000,1.000000000,0.000000000,5001.000000000,-0.003221275,-0.002700623,-0.005173758,1748428316765237.000000000
1748428316.784778,5.000000000,0.000000000,4876.000000000,-0.158180058,-2.037420988,-9.618461609,0.000000000,1.000000000,0.000000000,5001.000000000,0.006100093,-0.003713553,0.000046511,1748428316775239.000000000
1748428316.793858,5.000000000,0.000000000,4875.000000000,-0.148880839,-2.041213989,-9.614704132,0.000000000,1.000000000,0.000000000,5001.000000000,-0.001463579,-0.004245756,-0.001604855,1748428316785242.000000000
1748428316.803876,5.000000000,0.000000000,4875.000000000,-0.156321600,-2.039325237,-9.599664688,0.000000000,1.000000000,0.000000000,5001.000000000,-0.004445378,-0.008027339,0.006812563,1748428316795244.000000000
1748428316.814784,5.000000000,0.000000000,4875.000000000,-0.106102034,-2.014647961,-9.618461609,0.000000000,1.000000000,0.000000000,5001.000000000,0.000827414,0.008696981,0.001060155,1748428316805247.000000000
1748428316.823837,5.000000000,0.000000000,7312.000000000,-0.146407038,-2.036156178,-9.604685783,0.000000000,1.000000000,0.000000000,5001.000000000,-0.000824641,0.009869523,-0.000270534,1748428316815249.000000000
1748428316.833856,5.000000000,0.000000000,4875.000000000,-0.145162359,-2.041215658,-9.582744598,0.000000000,1.000000000,0.000000000,5001.000000000,0.005727145,-0.001903709,-0.003095917,1748428316825251.000000000
1748428316.843829,5.000000000,0.000000000,4875.000000000,-0.150741220,-2.073481560,-9.590266228,0.000000000,1.000000000,0.000000000,5001.000000000,-0.006309535,0.003956555,-0.000113517,1748428316835254.000000000
1748428316.853752,5.000000000,0.000000000,4875.000000000,-0.147025034,-2.045011044,-9.571461678,0.000000000,1.000000000,0.000000000,5001.000000000,-0.004924639,0.003743150,0.001378848,1748428316845256.000000000
1748428316.862826,5.000000000,0.000000000,4875.000000000,-0.189797759,-2.065891027,-9.590263367,0.000000000,1.000000000,0.000000000,5001.000000000,0.001626505,-0.006962982,-0.000484695,1748428316855259.000000000
1748428316.872931,5.000000000,0.000000000,4876.000000000,-0.122840129,-2.039318800,-9.605302811,0.000000000,1.000000000,0.000000000,5001.000000000,0.003010570,-0.000730568,-0.001925184,1748428316865261.000000000
1748428316.882852,5.000000000,0.000000000,4875.000000000,-0.178638488,-2.018442154,-9.627862930,0.000000000,1.000000000,0.000000000,5002.000000000,0.001253263,-0.005311044,-0.003521628,1748428316875264.000000000
1748428316.894791,5.000000000,0.000000000,4875.000000000,-0.167481601,-2.027933359,-9.612822533,0.000000000,1.000000000,0.000000000,5001.000000000,-0.000078162,-0.001210443,0.005427768,1748428316885266.000000000
1748428316.903777,5.000000000,0.000000000,4875.000000000,-0.135865793,-2.008955717,-9.577111244,0.000000000,1.000000000,0.000000000,5001.000000000,0.004022709,0.000867362,-0.004479708,1748428316895268.000000000
1748428316.914788,5.000000000,0.000000000,4875.000000000,-0.186081544,-2.012749672,-9.610941887,0.000000000,1.000000000,0.000000000,5001.000000000,-0.001944604,0.001720013,0.005692951,1748428316905271.000000000
1748428316.923846,5.000000000,0.000000000,4875.000000000,-0.161901981,-2.056397438,-9.622223854,0.000000000,1.000000000,0.000000000,5002.000000000,0.003330532,-0.005896951,0.003722170,1748428316915274.000000000
1748428316.932842,5.000000000,0.000000000,4875.000000000,-0.137720853,-2.048810720,-9.625981331,0.000000000,1.000000000,0.000000000,5001.000000000,0.001307216,0.006353414,0.008941959,1748428316925276.000000000
1748428316.942800,5.000000000,0.000000000,4875.000000000,-0.135862008,-2.092458725,-9.578984261,0.000000000,1.000000000,0.000000000,5001.000000000,-0.003967173,0.005021825,-0.004106307,1748428316935278.000000000
1748428316.953773,5.000000000,0.000000000,4876.000000000,-0.187940031,-2.052604198,-9.614700317,0.000000000,1.000000000,0.000000000,5002.000000000,-0.001356631,-0.008240524,0.000739441,1748428316945281.000000000
1748428316.964861,5.000000000,0.000000000,4875.000000000,-0.145158574,-2.086765528,-9.614704132,0.000000000,1.000000000,0.000000000,5001.000000000,-0.003753192,-0.002434051,-0.000004785,1748428316955283.000000000
1748428316.973813,5.000000000,0.000000000,4875.000000000,-0.176781937,-2.094352961,-9.620341301,0.000000000,1.000000000,0.000000000,5001.000000000,0.001572279,-0.002913121,0.001111774,1748428316965285.000000000
1748428316.983849,5.000000000,0.000000000,4875.000000000,-0.130279332,-2.063987255,-9.601542473,0.000000000,1.000000000,0.000000000,5002.000000000,-0.001409895,0.002305587,0.000366588,1748428316975288.000000000
1748428316.993878,5.000000000,0.000000000,4875.000000000,-0.141439319,-2.029829025,-9.594024658,0.000000000,1.000000000,0.000000000,5001.000000000,-0.000397204,-0.003978836,0.005852314,1748428316990291.000000000
1748428317.005795,5.000000000,0.000000000,4874.000000000,-0.160040066,-2.020340443,-9.622220993,0.000000000,1.000000000,0.000000000,5002.000000000,-0.002102314,-0.001689153,-0.000166045,1748428316995293.000000000
1748428317.014822,5.000000000,0.000000000,7313.000000000,-0.131519750,-2.037419796,-9.629739761,0.000000000,1.000000000,0.000000000,5002.000000000,0.000506710,-0.005684919,0.004202624,1748428317005296.000000000
1748428317.024837,5.000000000,0.000000000,4875.000000000,-0.158180445,-2.029830933,-9.595902443,0.000000000,1.000000000,0.000000000,5001.000000000,0.008018117,-0.002115181,-0.003148994,1748428317015297.000000000
1748428317.033829,5.000000000,0.000000000,4875.000000000,-0.109820493,-1.976687789,-9.624102592,0.000000000,1.000000000,0.000000000,5002.000000000,0.001147104,-0.004138853,-0.008578077,1748428317025300.000000000
1748428317.043872,5.000000000,0.000000000,4874.000000000,-0.171200007,-2.031727791,-9.631621361,0.000000000,1.000000000,0.000000000,5001.000000000,-0.001144089,-0.001263459,0.000580528,1748428317035302.000000000
1748428317.053755,5.000000000,0.000000000,4875.000000000,-0.163759321,-2.010852337,-9.610939980,0.000000000,1.000000000,0.000000000,5001.000000000,-0.000558099,-0.002752938,0.000420026,1748428317045304.000000000
1748428317.063793,5.000000000,0.000000000,4875.000000000,-0.150742739,-2.052600861,-9.610941887,0.000000000,1.000000000,0.000000000,5001.000000000,-0.002954534,0.005979785,0.005426819,1748428317055307.000000000
1748428317.072844,5.000000000,0.000000000,4875.000000000,-0.182363063,-2.065891027,-9.588381767,0.000000000,1.000000000,0.000000000,5002.000000000,0.000347796,0.001506654,-0.004533619,1748428317065310.000000000
1748428317.083792,5.000000000,0.000000000,4874.000000000,-0.156320065,-2.069684505,-9.616581917,0.000000000,1.000000000,0.000000000,5001.000000000,-0.001355530,0.005767408,0.004041020,1748428317075312.000000000
1748428317.094014,5.000000000,0.000000000,4874.000000000,-0.143300071,-2.065888882,-9.601541519,0.000000000,1.000000000,0.000000000,5001.000000000,0.001200974,0.000920574,-0.006238375,1748428317085314.000000000
1748428317.103766,5.000000000,0.000000000,4875.000000000,-0.137719318,-2.062092066,-9.562063217,0.000000000,1.000000000,0.000000000,5002.000000000,0.006632853,0.001187054,0.002816689,1748428317095317.000000000
1748428317.113856,5.000000000,0.000000000,7312.000000000,-0.147637710,-2.045011282,-9.574596405,0.000000000,1.000000000,0.000000000,5001.000000000,-0.004340135,-0.005204377,0.006173177,1748428317105319.000000000
1748428317.122876,5.000000000,0.000000000,4875.000000000,-0.107959367,-2.027933359,-9.565824509,0.000000000,1.000000000,0.000000000,5002.000000000,-0.002475170,-0.006269784,-0.001923735,1748428317115322.000000000
1748428317.133758,5.000000000,0.000000000,4873.000000000,-0.120980486,-2.020342112,-9.588383675,0.000000000,1.000000000,0.000000000,5001.000000000,0.001838285,-0.001157037,-0.000324876,1748428317125324.000000000
1748428317.142810,5.000000000,0.000000000,4875.000000000,-0.135858938,-2.014648676,-9.610941887,0.000000000,1.000000000,0.000000000,4999.000000000,0.004555568,-0.005683627,-0.001923153,1748428317135326.000000000
1748428317.153749,5.000000000,0.000000000,4875.000000000,-0.163758501,-2.037421227,-9.586503983,0.000000000,1.000000000,0.000000000,5002.000000000,-0.001356626,-0.001263044,0.000845959,1748428317145329.000000000
1748428317.162801,5.000000000,0.000000000,4875.000000000,-0.139582008,-2.024136782,-9.603424072,0.000000000,1.000000000,0.000000000,5001.000000000,0.005301412,-0.000358358,0.001805312,1748428317155331.000000000
1748428317.174793,5.000000000,0.000000000,4875.000000000,-0.139578164,-2.031728745,-9.580862045,0.000000000,1.000000000,0.000000000,5002.000000000,0.002531588,-0.002115258,-0.003148783,1748428317165334.000000000
1748428317.184897,5.000000000,0.000000000,4874.000000000,-0.161900073,-2.027931690,-9.588381767,0.000000000,1.000000000,0.000000000,5001.000000000,0.004449437,0.003850408,-0.004639450,1748428317175336.000000000
1748428317.193791,5.000000000,0.000000000,4874.000000000,-0.150740087,-2.037420988,-9.605302811,0.000000000,1.000000000,0.000000000,5002.000000000,-0.002049055,-0.002488101,0.000579636,1748428317185339.000000000
1748428317.203849,5.000000000,0.000000000,4873.000000000,-0.111693874,-2.035515070,-9.592155457,0.000000000,1.000000000,0.000000000,5001.000000000,0.005141670,0.003370528,-0.005918255,1748428317195341.000000000
1748428317.213856,5.000000000,0.000000000,4875.000000000,-0.171200052,-2.065891027,-9.584624290,0.000000000,1.000000000,0.000000000,5001.000000000,0.001573007,-0.005044224,0.000526461,1748428317205343.000000000
1748428317.225738,5.000000000,0.000000000,4875.000000000,-0.143301994,-2.052605152,-9.605303764,0.000000000,1.000000000,0.000000000,5001.000000000,0.005195262,0.003051323,-0.000698286,1748428317215345.000000000
1748428317.234807,5.000000000,0.000000000,4875.000000000,-0.139580473,-2.048808575,-9.605303764,0.000000000,1.000000000,0.000000000,5001.000000000,0.002264370,-0.006483101,-0.002242613,1748428317225348.000000000
1748428317.244749,5.000000000,0.000000000,4875.000000000,-0.163759321,-2.024136066,-9.614702225,0.000000000,1.000000000,0.000000000,5001.000000000,-0.002794557,-0.002967356,-0.003414266,1748428317235350.000000000
1748428317.252851,5.000000000,0.000000000,4876.000000000,-0.160040036,-2.026038885,-9.575240135,0.000000000,1.000000000,0.000000000,5001.000000000,0.000347672,0.005448339,0.005000386,1748428317245353.000000000
1748428317.263950,5.000000000,0.000000000,4875.000000000,-0.120981239,-2.029830933,-9.580862999,0.000000000,1.000000000,0.000000000,5001.000000000,-0.000771012,-0.002595210,-0.007196908,1748428317255355.000000000
1748428317.273770,5.000000000,0.000000000,4875.000000000,-0.145158574,-2.035523176,-9.603425026,0.000000000,1.000000000,0.000000000,5001.000000000,0.003489791,0.002093375,-0.002458250,1748428317265358.000000000
1748428317.283851,5.000000000,0.000000000,4878.000000000,-0.147017792,-2.045011044,-9.599667549,0.000000000,1.000000000,0.000000000,5001.000000000,0.006366758,0.003158019,-0.001497960,1748428317275360.000000000
1748428317.293771,5.000000000,0.000000000,4874.000000000,-0.173060030,-2.033625603,-9.578984261,0.000000000,1.000000000,0.000000000,5001.000000000,0.000507673,-0.006110681,-0.003520473,1748428317285362.000000000
1748428317.304799,5.000000000,0.000000000,7313.000000000,-0.146400228,-2.024768591,-9.600914955,0.000000000,1.000000000,0.000000000,5001.000000000,-0.000718085,-0.000890053,-0.003734937,1748428317295365.000000000
1748428317.313808,5.000000000,0.000000000,4875.000000000,-0.154460460,-2.050705910,-9.594025612,0.000000000,1.000000000,0.000000000,5001.000000000,0.002105336,0.003797767,0.001058831,1748428317305367.000000000
1748428317.323820,5.000000000,0.000000000,4875.000000000,-0.137720853,-2.050706625,-9.601541519,0.000000000,1.000000000,0.000000000,5001.000000000,-0.001409496,0.001027161,0.000684819,1748428317315370.000000000
1748428317.332808,5.000000000,0.000000000,4875.000000000,-0.156319305,-2.037422895,-9.603422165,0.000000000,1.000000000,0.000000000,5001.000000000,0.001252633,0.002305907,-0.000271905,1748428317325372.000000000
1748428317.342795,5.000000000,0.000000000,4875.000000000,-0.139582008,-2.037421942,-9.569583893,0.000000000,1.000000000,0.000000000,5002.000000000,0.000454313,0.004968749,-0.004107523,1748428317335375.000000000
1748428317.352855,5.000000000,0.000000000,4875.000000000,-0.111681625,-2.060196161,-9.592143059,0.000000000,1.000000000,0.000000000,5001.000000000,-0.005458676,-0.001741704,-0.000165356,1748428317345377.000000000
1748428317.362862,5.000000000,0.000000000,4875.000000000,-0.135860473,-2.056401491,-9.575222969,0.000000000,1.000000000,0.000000000,5001.000000000,0.005940443,-0.003180621,-0.002457278,1748428317355379.000000000
1748428317.373773,5.000000000,0.000000000,4875.000000000,-0.143301994,-2.045013428,-9.597782135,0.000000000,1.000000000,0.000000000,5001.000000000,0.001946287,-0.002168480,-0.002404111,1748428317365382.000000000
1748428317.383858,5.000000000,0.000000000,4874.000000000,-0.128420085,-2.046910286,-9.614702225,0.000000000,1.000000000,0.000000000,5001.000000000,0.004982489,0.001559707,-0.003521590,1748428317375384.000000000
1748428317.396813,5.000000000,0.000000000,4874.000000000,-0.178640053,-2.043114662,-9.603421211,0.000000000,1.000000000,0.000000000,5001.000000000,0.002105848,0.000228012,-0.001976580,1748428317385410.000000000
1748428317.404858,5.000000000,0.000000000,4874.000000000,-0.189800039,-2.041216850,-9.592142105,0.000000000,1.000000000,0.000000000,5001.000000000,-0.001783630,-0.001795903,-0.001603150,1748428317395412.000000000
1748428317.415818,5.000000000,0.000000000,4874.000000000,-0.174920052,-2.018442631,-9.599661827,0.000000000,1.000000000,0.000000000,5002.000000000,0.000507585,-0.001476098,0.001112273,1748428317405415.000000000
1748428317.424742,5.000000000,0.000000000,4875.000000000,-0.165622741,-2.031723499,-9.605303764,0.000000000,1.000000000,0.000000000,5001.000000000,0.004715721,-0.001103348,0.001912136,1748428317415417.000000000
1748428317.434807,5.000000000,0.000000000,4875.000000000,-0.158175111,-2.010846853,-9.607183456,0.000000000,1.000000000,0.000000000,5001.000000000,-0.006629716,-0.001528875,-0.000113562,1748428317425419.000000000
1748428317.443826,5.000000000,0.000000000,4874.000000000,-0.137720093,-2.054502010,-9.588381767,0.000000000,1.000000000,0.000000000,5002.000000000,-0.005244849,-0.012554842,-0.000592159,1748428317435422.000000000
1748428317.453867,5.000000000,0.000000000,4876.000000000,-0.130280092,-2.039318800,-9.610939980,0.000000000,1.000000000,0.000000000,5001.000000000,0.004662092,-0.003339219,0.000528307,1748428317445424.000000000
1748428317.462856,5.000000000,0.000000000,4874.000000000,-0.186080024,-2.054502010,-9.584622383,0.000000000,1.000000000,0.000000000,5002.000000000,0.000986942,-0.003819678,0.002284064,1748428317455427.000000000
1748428317.473872,5.000000000,0.000000000,4875.000000000,-0.098662019,-2.027932405,-9.601539612,0.000000000,1.000000000,0.000000000,5001.000000000,0.002158164,0.001719151,-0.001497583,1748428317465429.000000000
1748428317.483800,5.000000000,0.000000000,4875.000000000,-0.150739715,-2.058296680,-9.580863953,0.000000000,1.000000000,0.000000000,5002.000000000,-0.000504424,-0.002967482,0.004574382,1748428317475432.000000000
1748428317.493748,5.000000000,0.000000000,4875.000000000,-0.132145047,-2.031730652,-9.616580963,0.000000000,1.000000000,0.000000000,5001.000000000,-0.000185888,-0.005684241,-0.006289104,1748428317485434.000000000
1748428317.503786,5.000000000,0.000000000,4875.000000000,-0.124698207,-2.037422895,-9.605301857,0.000000000,1.000000000,0.000000000,5001.000000000,0.002903660,-0.001156980,-0.000804999,1748428317495436.000000000
1748428317.512845,5.000000000,0.000000000,4875.000000000,-0.193519264,-2.033623219,-9.646660805,0.000000000,1.000000000,0.000000000,5001.000000000,-0.006310873,-0.005736316,0.005213514,1748428317505439.000000000
1748428317.523015,5.000000000,0.000000000,5363.000000000,-0.125475958,-2.037052631,-9.594204903,0.000000000,1.000000000,0.000000000,5001.000000000,0.003809640,0.002733822,0.000469652,1748428317515441.000000000
1748428317.532883,5.000000000,0.000000000,4875.000000000,-0.160043880,-2.020344734,-9.639142036,0.000000000,1.000000000,0.000000000,5002.000000000,0.004395808,-0.002807678,0.001218789,1748428317525444.000000000
1748428317.542850,5.000000000,0.000000000,4875.000000000,-0.148875490,-2.020339966,-9.601541519,0.000000000,1.000000000,0.000000000,5001.000000000,0.003170689,-0.000784341,-0.001869585,1748428317535446.000000000
1748428317.552794,5.000000000,0.000000000,4874.000000000,-0.176780015,-2.010851383,-9.625981331,0.000000000,1.000000000,0.000000000,5001.000000000,-0.002261740,-0.001688589,-0.002722217,1748428317545448.000000000
1748428317.563869,5.000000000,0.000000000,4876.000000000,-0.132140100,-2.050705910,-9.590263367,0.000000000,1.000000000,0.000000000,5001.000000000,0.000987020,0.000335586,0.001060245,1748428317555451.000000000
1748428317.573781,5.000000000,0.000000000,4875.000000000,-0.148879305,-2.043115139,-9.599660873,0.000000000,1.000000000,0.000000000,5001.000000000,0.003703028,-0.000783745,-0.006877242,1748428317565453.000000000
1748428317.585803,5.000000000,0.000000000,4875.000000000,-0.137717053,-2.058296680,-9.584625244,0.000000000,1.000000000,0.000000000,5001.000000000,0.001146690,-0.003340268,-0.005813554,1748428317575456.000000000
1748428317.594745,5.000000000,0.000000000,4875.000000000,-0.150738925,-2.063989639,-9.571466446,0.000000000,1.000000000,0.000000000,5001.000000000,0.000720106,-0.002328493,-0.001176343,1748428317585458.000000000
1748428317.604813,5.000000000,0.000000000,4876.000000000,-0.134000093,-2.060195446,-9.603422165,0.000000000,1.000000000,0.000000000,5001.000000000,0.000826826,0.001401257,0.005797424,1748428317595460.000000000
1748428317.613863,5.000000000,0.000000000,7313.000000000,-0.150119215,-2.065258503,-9.593397141,0.000000000,1.000000000,0.000000000,5001.000000000,0.003650215,-0.003714262,-0.002935281,1748428317605463.000000000
1748428317.623770,5.000000000,0.000000000,4875.000000000,-0.152602375,-2.039318085,-9.605304718,0.000000000,1.000000000,0.000000000,5001.000000000,0.001360158,0.001826358,-0.000326788,1748428317615465.000000000
1748428317.632862,5.000000000,0.000000000,4875.000000000,-0.137721613,-2.045013428,-9.584624290,0.000000000,1.000000000,0.000000000,5001.000000000,0.003756468,0.003636839,0.002017721,1748428317625468.000000000
1748428317.642807,5.000000000,0.000000000,4875.000000000,-0.145158574,-2.041219234,-9.586503983,0.000000000,1.000000000,0.000000000,5001.000000000,0.001306530,0.003104270,-0.000006827,1748428317635470.000000000
1748428317.652811,5.000000000,0.000000000,4874.000000000,-0.148880079,-2.018442631,-9.629741669,0.000000000,1.000000000,0.000000000,5002.000000000,0.001572844,-0.002701157,0.003083012,1748428317645473.000000000
1748428317.662881,5.000000000,0.000000000,4875.000000000,-0.161901206,-2.016543627,-9.599664688,0.000000000,1.000000000,0.000000000,5001.000000000,-0.000343834,0.000015562,0.000364997,1748428317655475.000000000
1748428317.672801,5.000000000,0.000000000,4876.000000000,-0.143300056,-2.031727791,-9.627861023,0.000000000,1.000000000,0.000000000,5002.000000000,-0.003646943,0.002518644,0.000100269,1748428317665478.000000000
1748428317.682817,5.000000000,0.000000000,4875.000000000,-0.139578968,-2.045014381,-9.620343208,0.000000000,1.000000000,0.000000000,5002.000000000,-0.003167568,-0.008347055,-0.002988998,1748428317675480.000000000
1748428317.693760,5.000000000,0.000000000,4875.000000000,-0.158179700,-2.037421942,-9.605303764,0.000000000,1.000000000,0.000000000,5001.000000000,-0.002315664,-0.000677213,0.000153586,1748428317685482.000000000
1748428317.703765,5.000000000,0.000000000,4875.000000000,-0.191659629,-2.037423611,-9.597785950,0.000000000,1.000000000,0.000000000,5002.000000000,-0.001463160,0.000068542,-0.007409838,1748428317695485.000000000
1748428317.715801,5.000000000,0.000000000,4875.000000000,-0.154459715,-2.022237539,-9.612822533,0.000000000,1.000000000,0.000000000,5001.000000000,0.002957619,0.000442087,0.000420280,1748428317705487.000000000
1748428317.724858,5.000000000,0.000000000,4876.000000000,-0.145160064,-2.045012712,-9.625981331,0.000000000,1.000000000,0.000000000,5001.000000000,-0.000131652,-0.003979534,0.008195620,1748428317715489.000000000
1748428317.733922,5.000000000,0.000000000,4875.000000000,-0.143301994,-2.060199499,-9.605304718,0.000000000,1.000000000,0.000000000,5001.000000000,0.003383061,-0.004458551,-0.004054112,1748428317725492.000000000
1748428317.744864,5.000000000,0.000000000,4875.000000000,-0.152601555,-2.088663101,-9.618462563,0.000000000,1.000000000,0.000000000,5001.000000000,0.000081059,-0.001955813,-0.000909548,1748428317735494.000000000
1748428317.753795,5.000000000,0.000000000,4875.000000000,-0.156316996,-2.060194016,-9.612821579,0.000000000,1.000000000,0.000000000,5002.000000000,-0.001196856,-0.008027466,-0.000325844,1748428317745497.000000000
1748428317.763752,5.000000000,0.000000000,4874.000000000,-0.137720093,-2.041216850,-9.610941887,0.000000000,1.000000000,0.000000000,5001.000000000,0.002265488,-0.003659322,-0.004372984,1748428317755499.000000000
1748428317.773800,5.000000000,0.000000000,4875.000000000,-0.165622741,-2.052605152,-9.586506844,0.000000000,1.000000000,0.000000000,5001.000000000,0.002584168,0.000122770,0.001752503,1748428317765501.000000000
1748428317.783813,5.000000000,0.000000000,4875.000000000,-0.176784217,-2.037423611,-9.614700317,0.000000000,1.000000000,0.000000000,5001.000000000,-0.000077914,-0.002807581,-0.004532678,1748428317775504.000000000
1748428317.793810,5.000000000,0.000000000,4875.000000000,-0.143301234,-2.029830933,-9.610944748,0.000000000,1.000000000,0.000000000,5000.000000000,-0.007055816,0.010880949,0.002710170,1748428317785506.000000000
1748428317.803827,5.000000000,0.000000000,4875.000000000,-0.160042346,-2.035524607,-9.627861023,0.000000000,1.000000000,0.000000000,5001.000000000,0.000240989,0.007685035,-0.001338545,1748428317795509.000000000
1748428317.813958,5.000000000,0.000000000,4874.000000000,-0.124700107,-2.037421227,-9.575222969,0.000000000,1.000000000,0.000000000,5004.000000000,0.001306926,0.000496084,-0.006344174,1748428317805514.000000000
1748428317.823756,5.000000000,0.000000000,4874.000000000,-0.135860071,-2.046910286,-9.607181549,0.000000000,1.000000000,0.000000000,5002.000000000,0.001466316,-0.002594627,-0.005439103,1748428317815514.000000000
1748428317.833772,5.000000000,0.000000000,4875.000000000,-0.158185050,-2.048808575,-9.620339394,0.000000000,1.000000000,0.000000000,5001.000000000,0.002318156,0.001240757,-0.004747778,1748428317825516.000000000
1748428317.843856,5.000000000,0.000000000,4874.000000000,-0.165620074,-2.014647245,-9.586502075,0.000000000,1.000000000,0.000000000,5001.000000000,0.004075790,0.001027927,-0.000700055,1748428317835518.000000000
1748428317.852856,5.000000000,0.000000000,4874.000000000,-0.156320065,-2.077275991,-9.586502075,0.000000000,1.000000000,0.000000000,5001.000000000,0.003117356,0.006940157,-0.001817718,1748428317845521.000000000
1748428317.863784,5.000000000,0.000000000,4875.000000000,-0.145160824,-2.045015097,-9.595905304,0.000000000,1.000000000,0.000000000,5001.000000000,0.003064889,-0.002648127,-0.001709930,1748428317855523.000000000
1748428317.873791,5.000000000,0.000000000,4874.000000000,-0.143300071,-2.050705910,-9.622220993,0.000000000,1.000000000,0.000000000,5002.000000000,0.006313263,0.003477378,-0.003841218,1748428317865526.000000000
1748428317.883801,5.000000000,0.000000000,4875.000000000,-0.169338167,-2.060197830,-9.610941887,0.000000000,1.000000000,0.000000000,5001.000000000,-0.000290927,-0.000517357,-0.004853668,1748428317875528.000000000
1748428317.894767,5.000000000,0.000000000,4875.000000000,-0.098659009,-2.050709724,-9.620341301,0.000000000,1.000000000,0.000000000,5001.000000000,0.002850384,0.002199028,-0.004479234,1748428317885531.000000000
1748428317.903753,5.000000000,0.000000000,7312.000000000,-0.132760301,-2.037419319,-9.607184410,0.000000000,1.000000000,0.000000000,5001.000000000,0.007272169,-0.008347027,-0.004854278,1748428317895533.000000000
1748428317.913762,5.000000000,0.000000000,4875.000000000,-0.160042346,-2.031725883,-9.599664688,0.000000000,1.000000000,0.000000000,5002.000000000,-0.002155569,0.002305595,0.003775433,1748428317905536.000000000
1748428317.922857,5.000000000,0.000000000,4876.000000000,-0.169340044,-2.079174042,-9.631621361,0.000000000,1.000000000,0.000000000,5001.000000000,0.005407491,0.002199037,-0.000218842,1748428317915538.000000000
1748428317.932840,5.000000000,0.000000000,4875.000000000,-0.130280122,-2.035524130,-9.616581917,0.000000000,1.000000000,0.000000000,5001.000000000,0.002851440,0.001986389,0.004095300,1748428317925540.000000000
1748428317.942888,5.000000000,0.000000000,4876.000000000,-0.143300056,-2.071582556,-9.620342255,0.000000000,1.000000000,0.000000000,5002.000000000,-0.003167582,-0.002221778,0.000473118,1748428317935543.000000000
1748428317.952882,5.000000000,0.000000000,4875.000000000,-0.139578968,-2.043115854,-9.584622383,0.000000000,1.000000000,0.000000000,5001.000000000,0.005143645,0.002517733,-0.004693646,1748428317945545.000000000
1748428317.962859,5.000000000,0.000000000,4875.000000000,-0.160037026,-2.035522223,-9.599660873,0.000000000,1.000000000,0.000000000,5001.000000000,-0.001890146,-0.003127170,0.005320759,1748428317955547.000000000
1748428317.975795,5.000000000,0.000000000,4875.000000000,-0.124702014,-2.016546965,-9.597784042,0.000000000,1.000000000,0.000000000,5001.000000000,-0.002688775,-0.009145779,-0.000379179,1748428317965550.000000000
1748428317.984760,5.000000000,0.000000000,4875.000000000,-0.132137403,-2.054501772,-9.620343208,0.000000000,1.000000000,0.000000000,5001.000000000,0.002585270,0.004222431,-0.001655956,1748428317975552.000000000
1748428317.994817,5.000000000,0.000000000,7313.000000000,-0.146398723,-2.042486429,-9.584622383,0.000000000,1.000000000,0.000000000,5001.000000000,0.008496367,-0.000091572,-0.000431007,1748428317990556.000000000
1748428318.005800,5.000000000,0.000000000,4876.000000000,-0.120980076,-2.026033878,-9.618461609,0.000000000,1.000000000,0.000000000,5002.000000000,0.000667377,-0.003287057,0.000153535,1748428317995558.000000000
1748428318.014792,5.000000000,0.000000000,4876.000000000,-0.171200052,-2.043114901,-9.607182503,0.000000000,1.000000000,0.000000000,5001.000000000,0.001200165,-0.003180056,0.006067326,1748428318005559.000000000
1748428318.025002,5.000000000,0.000000000,4875.000000000,-0.141439319,-2.022237539,-9.607183456,0.000000000,1.000000000,0.000000000,5001.000000000,-0.000024306,-0.004352499,0.000365190,1748428318015562.000000000
1748428318.033816,5.000000000,0.000000000,4875.000000000,-0.178643093,-2.031728745,-9.609063148,0.000000000,1.000000000,0.000000000,5001.000000000,-0.001890372,-0.000730696,-0.005490850,1748428318025564.000000000
1748428318.044766,5.000000000,0.000000000,4875.000000000,-0.156319305,-2.024136066,-9.610942841,0.000000000,1.000000000,0.000000000,5001.000000000,0.000347623,0.002145382,-0.004214189,1748428318035567.000000000
1748428318.053837,5.000000000,0.000000000,4876.000000000,-0.189800039,-2.033625603,-9.610941887,0.000000000,1.000000000,0.000000000,5001.000000000,-0.002529444,0.003956625,-0.000912047,1748428318045569.000000000
1748428318.063746,5.000000000,0.000000000,4876.000000000,-0.148880109,-2.024136305,-9.590263367,0.000000000,1.000000000,0.000000000,5002.000000000,-0.000451153,0.001400113,0.001911223,1748428318055572.000000000
1748428318.072848,5.000000000,0.000000000,4875.000000000,-0.158179700,-2.046910763,-9.624103546,0.000000000,1.000000000,0.000000000,5001.000000000,-0.001677360,0.000866685,0.001219116,1748428318065574.000000000
1748428318.082850,5.000000000,0.000000000,4876.000000000,-0.130280122,-2.026034117,-9.588382721,0.000000000,1.000000000,0.000000000,5001.000000000,-0.002742272,0.001345847,0.001859579,1748428318075576.000000000
1748428318.092979,5.000000000,0.000000000,4875.000000000,-0.156320840,-2.033627748,-9.609062195,0.000000000,1.000000000,0.000000000,5001.000000000,0.001625510,0.005822345,-0.002934967,1748428318085579.000000000
1748428318.103814,5.000000000,0.000000000,4875.000000000,-0.141441613,-2.039318562,-9.584621429,0.000000000,1.000000000,0.000000000,5001.000000000,-0.002475661,-0.003818966,-0.005971603,1748428318095581.000000000
1748428318.112867,5.000000000,0.000000000,4875.000000000,-0.130279332,-2.043113708,-9.573345184,0.000000000,1.000000000,0.000000000,5001.000000000,0.006792371,0.003210620,-0.000164784,1748428318105584.000000000
1748428318.123852,5.000000000,0.000000000,4876.000000000,-0.148880109,-2.067786694,-9.601541519,0.000000000,1.000000000,0.000000000,5001.000000000,-0.007161172,-0.000623597,-0.002348570,1748428318115586.000000000
1748428318.133841,5.000000000,0.000000000,4875.000000000,-0.122840106,-2.039318562,-9.597781181,0.000000000,1.000000000,0.000000000,5001.000000000,-0.003860407,0.001721041,-0.004267714,1748428318125588.000000000
1748428318.142836,5.000000000,0.000000000,4874.000000000,-0.182360023,-2.060195446,-9.592142105,0.000000000,1.000000000,0.000000000,5001.000000000,0.001253980,-0.001528722,0.000100162,1748428318135591.000000000
1748428318.152874,5.000000000,0.000000000,4875.000000000,-0.161897421,-2.062096119,-9.631622314,0.000000000,1.000000000,0.000000000,5001.000000000,-0.002954632,-0.003126810,0.005372535,1748428318145593.000000000
1748428318.163766,5.000000000,0.000000000,4875.000000000,-0.158175111,-2.037421227,-9.605301857,0.000000000,1.000000000,0.000000000,5001.000000000,0.002852915,0.001988248,0.001064336,1748428318155596.000000000
1748428318.174796,5.000000000,0.000000000,4875.000000000,-0.158178911,-2.024136066,-9.618461609,0.000000000,1.000000000,0.000000000,5001.000000000,-0.000983646,0.001027701,0.005587544,1748428318165598.000000000
1748428318.183860,5.000000000,0.000000000,4875.000000000,-0.139579698,-2.022238493,-9.588380814,0.000000000,1.000000000,0.000000000,5002.000000000,0.000614087,-0.005204530,-0.004267319,1748428318175601.000000000
1748428318.194814,5.000000000,0.000000000,7312.000000000,-0.147636697,-2.022235632,-9.628485680,0.000000000,1.000000000,0.000000000,5002.000000000,0.003224731,-0.002753847,-0.003894404,1748428318185604.000000000
1748428318.203779,5.000000000,0.000000000,4875.000000000,-0.137717783,-2.024137259,-9.607183456,0.000000000,1.000000000,0.000000000,5001.000000000,-0.000077928,0.002891730,0.001590942,1748428318195605.000000000
1748428318.213756,5.000000000,0.000000000,4875.000000000,-0.113539718,-2.024136066,-9.607183456,0.000000000,1.000000000,0.000000000,5001.000000000,-0.000983222,0.005182460,0.001911696,1748428318205608.000000000
1748428318.223874,5.000000000,0.000000000,4874.000000000,-0.169340029,-2.063991070,-9.603421211,0.000000000,1.000000000,0.000000000,5001.000000000,-0.004765179,-0.004192843,-0.000698284,1748428318215610.000000000
1748428318.233858,5.000000000,0.000000000,4875.000000000,-0.111680120,-2.008951664,-9.603424072,0.000000000,1.000000000,0.000000000,5001.000000000,0.004287761,-0.000730918,0.004681116,1748428318225613.000000000
1748428318.243811,5.000000000,0.000000000,4875.000000000,-0.154458925,-2.035522223,-9.601544380,0.000000000,1.000000000,0.000000000,5001.000000000,-0.000665345,0.001293175,0.007185750,1748428318235615.000000000
1748428318.253856,5.000000000,0.000000000,4875.000000000,-0.173061937,-2.041215658,-9.588382721,0.000000000,1.000000000,0.000000000,5002.000000000,0.003863165,-0.002594629,0.004041751,1748428318245618.000000000
1748428318.263837,5.000000000,0.000000000,4875.000000000,-0.147018954,-2.016544580,-9.616580963,0.000000000,1.000000000,0.000000000,5001.000000000,0.004929839,0.003050354,0.002977473,1748428318255620.000000000
1748428318.273889,5.000000000,0.000000000,4875.000000000,-0.182359278,-2.029828310,-9.612821579,0.000000000,1.000000000,0.000000000,5001.000000000,-0.002739069,-0.001102553,-0.003467564,1748428318265622.000000000
1748428318.283808,5.000000000,0.000000000,4875.000000000,-0.126557797,-2.029832125,-9.590266228,0.000000000,1.000000000,0.000000000,5001.000000000,-0.000077448,0.004702594,0.001540151,1748428318275625.000000000
1748428318.292854,5.000000000,0.000000000,4874.000000000,-0.156320080,-2.043114662,-9.610941887,0.000000000,1.000000000,0.000000000,5002.000000000,0.001306534,-0.005470847,0.001538372,1748428318285628.000000000
1748428318.302938,5.000000000,0.000000000,4875.000000000,-0.139578164,-2.048806906,-9.605299950,0.000000000,1.000000000,0.000000000,5002.000000000,0.003437060,-0.000677152,0.000100271,1748428318295630.000000000
1748428318.312908,5.000000000,0.000000000,4875.000000000,-0.167480052,-2.077278852,-9.609064102,0.000000000,1.000000000,0.000000000,5001.000000000,0.005354026,0.002093247,-0.002829103,1748428318305632.000000000
1748428318.325775,5.000000000,0.000000000,4875.000000000,-0.124698207,-2.045013428,-9.584624290,0.000000000,1.000000000,0.000000000,5001.000000000,0.003543031,-0.004778438,-0.006131127,1748428318315634.000000000
1748428318.333753,5.000000000,0.000000000,4874.000000000,-0.152600035,-2.041216850,-9.592142105,0.000000000,1.000000000,0.000000000,5001.000000000,-0.002847879,-0.002700255,0.003457017,1748428318325637.000000000
1748428318.343816,5.000000000,0.000000000,4875.000000000,-0.134001628,-2.016545296,-9.599662781,0.000000000,1.000000000,0.000000000,5001.000000000,-0.002794256,-0.006696669,-0.001763983,1748428318335639.000000000
1748428318.352871,5.000000000,0.000000000,4875.000000000,-0.141439319,-2.027930975,-9.603422165,0.000000000,1.000000000,0.000000000,5001.000000000,0.000454511,-0.004885511,-0.003682427,1748428318345642.000000000
1748428318.363750,5.000000000,0.000000000,4874.000000000,-0.147020042,-2.022238255,-9.586502075,0.000000000,1.000000000,0.000000000,5001.000000000,0.007486048,0.000973453,-0.005919565,1748428318355644.000000000
1748428318.374753,5.000000000,0.000000000,4876.000000000,-0.160040066,-2.033625603,-9.622220993,0.000000000,1.000000000,0.000000000,5001.000000000,0.002105294,-0.003927242,0.002071767,1748428318365646.000000000
1748428318.384975,5.000000000,0.000000000,7312.000000000,-0.173679218,-2.045012951,-9.608433723,0.000000000,1.000000000,0.000000000,5001.000000000,0.003222762,-0.006003280,0.006919199,1748428318375649.000000000
1748428318.394815,5.000000000,0.000000000,4875.000000000,-0.135864288,-2.052602530,-9.609061241,0.000000000,1.000000000,0.000000000,5002.000000000,0.001626105,-0.000144514,-0.000485627,1748428318390678.000000000
1748428318.405810,5.000000000,0.000000000,4875.000000000,-0.147015110,-2.037424326,-9.610941887,0.000000000,1.000000000,0.000000000,5001.000000000,0.003970143,0.005235203,-0.003096140,1748428318395679.000000000
1748428318.414878,5.000000000,0.000000000,4875.000000000,-0.163761571,-2.007056236,-9.575222969,0.000000000,1.000000000,0.000000000,5001.000000000,-0.006683794,0.003955737,-0.000912337,1748428318405681.000000000
1748428318.423878,5.000000000,0.000000000,4875.000000000,-0.160043880,-2.018445015,-9.601541519,0.000000000,1.000000000,0.000000000,5001.000000000,-0.000717942,0.003317881,-0.003736061,1748428318415683.000000000
1748428318.433808,5.000000000,0.000000000,4875.000000000,-0.152602375,-2.029829979,-9.592144966,0.000000000,1.000000000,0.000000000,5001.000000000,0.000774035,-0.007282557,0.002176612,1748428318425686.000000000
1748428318.442851,5.000000000,0.000000000,4875.000000000,-0.137717053,-2.045014381,-9.603424072,0.000000000,1.000000000,0.000000000,5002.000000000,0.004129479,-0.001955462,-0.002829206,1748428318435689.000000000
1748428318.453782,5.000000000,0.000000000,4875.000000000,-0.152600080,-2.031728745,-9.590263367,0.000000000,1.000000000,0.000000000,5001.000000000,-0.000024275,0.000440363,0.003241406,1748428318445691.000000000
1748428318.462883,5.000000000,0.000000000,4875.000000000,-0.152603120,-2.069685221,-9.605299950,0.000000000,1.000000000,0.000000000,5001.000000000,0.004023119,0.004542770,0.001166432,1748428318455693.000000000
1748428318.473840,5.000000000,0.000000000,4875.000000000,-0.156318530,-2.043116808,-9.599662781,0.000000000,1.000000000,0.000000000,5002.000000000,0.007112234,0.003477363,-0.005226047,1748428318465696.000000000
1748428318.483831,5.000000000,0.000000000,7312.000000000,-0.155082807,-2.071583271,-9.599662781,0.000000000,1.000000000,0.000000000,4998.000000000,0.000188479,0.001028174,0.008300076,1748428318475698.000000000
1748428318.493862,5.000000000,0.000000000,4875.000000000,-0.178640053,-2.046910286,-9.599662781,0.000000000,1.000000000,0.000000000,5001.000000000,0.005035193,0.000921120,-0.000326458,1748428318485700.000000000
1748428318.502877,5.000000000,0.000000000,4875.000000000,-0.180501193,-2.071581364,-9.578984261,0.000000000,1.000000000,0.000000000,5001.000000000,0.001094670,-0.002755091,-0.000966121,1748428318495703.000000000
1748428318.513861,5.000000000,0.000000000,4874.000000000,-0.161900029,-2.056399822,-9.620342255,0.000000000,1.000000000,0.000000000,5002.000000000,0.006366533,0.001293583,-0.004586896,1748428318505706.000000000
1748428318.523810,5.000000000,0.000000000,4874.000000000,-0.145160079,-2.048808098,-9.605301857,0.000000000,1.000000000,0.000000000,5002.000000000,0.002744642,0.001346844,0.000206795,1748428318515708.000000000
1748428318.534749,5.000000000,0.000000000,4875.000000000,-0.137722388,-2.043112040,-9.603424072,0.000000000,1.000000000,0.000000000,5001.000000000,0.000507781,-0.004778390,0.005747174,1748428318525710.000000000
1748428318.542856,5.000000000,0.000000000,4876.000000000,-0.143300056,-2.010851383,-9.597782135,0.000000000,1.000000000,0.000000000,5002.000000000,0.003809900,-0.004778420,-0.001231310,1748428318535713.000000000
1748428318.553836,5.000000000,0.000000000,4875.000000000,-0.130280122,-2.027932405,-9.609063148,0.000000000,1.000000000,0.000000000,5001.000000000,-0.002581885,0.006514373,-0.000698647,1748428318545715.000000000
1748428318.564748,5.000000000,0.000000000,4875.000000000,-0.180499658,-2.029829025,-9.588383675,0.000000000,1.000000000,0.000000000,5001.000000000,-0.000451348,0.008803423,-0.002242467,1748428318555717.000000000
1748428318.574776,5.000000000,0.000000000,4875.000000000,-0.161901206,-2.048806906,-9.620342255,0.000000000,1.000000000,0.000000000,5001.000000000,0.003809803,0.001079626,0.000154498,1748428318565720.000000000
1748428318.584748,5.000000000,0.000000000,4875.000000000,-0.137719318,-2.071583033,-9.612822533,0.000000000,1.000000000,0.000000000,5001.000000000,0.000135764,0.003956287,-0.000165597,1748428318575722.000000000
1748428318.593815,5.000000000,0.000000000,4876.000000000,-0.137720093,-2.014647245,-9.599660873,0.000000000,1.000000000,0.000000000,5002.000000000,-0.000025051,-0.002860935,0.000845956,1748428318585725.000000000
1748428318.603761,5.000000000,0.000000000,4875.000000000,-0.156318530,-2.033626318,-9.607183456,0.000000000,1.000000000,0.000000000,5001.000000000,-0.000078527,-0.002328089,0.001484455,1748428318595727.000000000
1748428318.612877,5.000000000,0.000000000,4875.000000000,-0.115398593,-2.046909571,-9.610941887,0.000000000,1.000000000,0.000000000,5001.000000000,-0.006524323,-0.002754618,-0.000272706,1748428318605730.000000000
1748428318.623851,5.000000000,0.000000000,4876.000000000,-0.154460087,-2.045012712,-9.588382721,0.000000000,1.000000000,0.000000000,5001.000000000,0.001358625,0.004967541,0.002600165,1748428318615732.000000000
1748428318.632872,5.000000000,0.000000000,4875.000000000,-0.169338152,-2.052603245,-9.597781181,0.000000000,1.000000000,0.000000000,5001.000000000,-0.001251405,0.005821277,0.001005424,1748428318625734.000000000
1748428318.644754,5.000000000,0.000000000,4875.000000000,-0.141438574,-2.062093735,-9.575224876,0.000000000,1.000000000,0.000000000,5001.000000000,0.001253323,-0.007068757,0.002656290,1748428318635737.000000000
1748428318.653821,5.000000000,0.000000000,4875.000000000,-0.145160049,-2.056399584,-9.586503983,0.000000000,1.000000000,0.000000000,5001.000000000,0.005459992,0.003157720,-0.005545833,1748428318645739.000000000
1748428318.665006,5.000000000,0.000000000,4875.000000000,-0.152599335,-2.039318562,-9.599660873,0.000000000,1.000000000,0.000000000,5001.000000000,-0.004339613,0.006726147,-0.006824813,1748428318655742.000000000
1748428318.673871,5.000000000,0.000000000,5362.000000000,-0.153952241,-2.027413845,-9.614702225,0.000000000,1.000000000,0.000000000,5001.000000000,0.004235142,-0.005204591,0.009581167,1748428318665744.000000000
1748428318.683808,5.000000000,0.000000000,4875.000000000,-0.126562402,-2.037421227,-9.607182503,0.000000000,1.000000000,0.000000000,5001.000000000,-0.002954207,0.007311904,0.005799428,1748428318675746.000000000
1748428318.693806,5.000000000,0.000000000,7313.000000000,-0.153839201,-2.038683653,-9.594652176,0.000000000,1.000000000,0.000000000,5001.000000000,0.008070471,-0.000997111,-0.003307929,1748428318685749.000000000
1748428318.702864,5.000000000,0.000000000,4876.000000000,-0.148880109,-2.048808336,-9.612821579,0.000000000,1.000000000,0.000000000,5001.000000000,0.000720945,0.001453207,-0.000006872,1748428318695751.000000000
1748428318.712844,5.000000000,0.000000000,4875.000000000,-0.117258981,-2.016544580,-9.618466377,0.000000000,1.000000000,0.000000000,5001.000000000,-0.008014625,-0.002861353,0.003775963,1748428318705754.000000000
1748428318.722959,5.000000000,0.000000000,4875.000000000,-0.152599335,-2.029828310,-9.577103615,0.000000000,1.000000000,0.000000000,5001.000000000,-0.001730270,0.002571626,0.004627842,1748428318715756.000000000
1748428318.734803,5.000000000,0.000000000,4876.000000000,-0.124700099,-2.018442631,-9.610941887,0.000000000,1.000000000,0.000000000,5000.000000000,0.005727378,-0.004192524,0.004361326,1748428318725758.000000000
1748428318.744754,5.000000000,0.000000000,4875.000000000,-0.148880079,-2.041219234,-9.588383675,0.000000000,1.000000000,0.000000000,5001.000000000,-0.003701021,-0.003553984,-0.002883553,1748428318735761.000000000
1748428318.753858,5.000000000,0.000000000,4874.000000000,-0.167480052,-2.033625603,-9.620342255,0.000000000,1.000000000,0.000000000,5001.000000000,-0.002048815,0.004275641,0.000098908,1748428318745763.000000000
1748428318.762894,5.000000000,0.000000000,4875.000000000,-0.174918517,-2.048807621,-9.605304718,0.000000000,1.000000000,0.000000000,5001.000000000,-0.000717947,0.003263836,0.005214698,1748428318755766.000000000
1748428318.774795,5.000000000,0.000000000,4874.000000000,-0.161900073,-2.043114662,-9.631621361,0.000000000,1.000000000,0.000000000,4999.000000000,0.006898769,-0.008560470,-0.005652464,1748428318765768.000000000
1748428318.783815,5.000000000,0.000000000,4875.000000000,-0.141439319,-2.037422895,-9.622224808,0.000000000,1.000000000,0.000000000,5002.000000000,-0.002848002,0.001240320,0.002497114,1748428318775771.000000000
1748428318.795857,5.000000000,0.000000000,7311.000000000,-0.146400079,-2.042483330,-9.592140198,0.000000000,1.000000000,0.000000000,5001.000000000,0.003223898,-0.004458914,-0.002509596,1748428318785773.000000000
1748428318.804801,5.000000000,0.000000000,4875.000000000,-0.145159304,-2.024137020,-9.605303764,0.000000000,1.000000000,0.000000000,5002.000000000,0.003170748,0.003317584,-0.006983739,1748428318795776.000000000
1748428318.813773,5.000000000,0.000000000,4875.000000000,-0.178637773,-2.039321184,-9.580862999,0.000000000,1.000000000,0.000000000,5001.000000000,-0.005139394,-0.002541414,0.000686775,1748428318805778.000000000
1748428318.823754,5.000000000,0.000000000,4875.000000000,-0.141439319,-2.050705910,-9.609062195,0.000000000,1.000000000,0.000000000,5001.000000000,-0.000291322,0.009762480,0.000259029,1748428318815781.000000000
1748428318.833807,5.000000000,0.000000000,4875.000000000,-0.152600080,-2.050704956,-9.627861977,0.000000000,1.000000000,0.000000000,5001.000000000,0.004822182,-0.002381147,0.001325977,1748428318825783.000000000
1748428318.842874,5.000000000,0.000000000,4875.000000000,-0.126557052,-2.046913147,-9.635381699,0.000000000,1.000000000,0.000000000,5000.000000000,0.003170742,0.001613170,-0.004054258,1748428318835785.000000000
1748428318.852858,5.000000000,0.000000000,4875.000000000,-0.152602375,-2.054500818,-9.595902443,0.000000000,1.000000000,0.000000000,5001.000000000,0.001625530,0.001239146,0.004734849,1748428318845788.000000000
1748428318.862889,5.000000000,0.000000000,4874.000000000,-0.150740042,-2.035523415,-9.609063148,0.000000000,1.000000000,0.000000000,5001.000000000,0.000187870,-0.000891229,-0.002562037,1748428318855790.000000000
1748428318.873866,5.000000000,0.000000000,4876.000000000,-0.160040066,-2.046910524,-9.580862999,0.000000000,1.000000000,0.000000000,5002.000000000,-0.005031797,0.001240326,-0.002030241,1748428318865793.000000000
1748428318.883989,5.000000000,0.000000000,4875.000000000,-0.150740460,-2.039319515,-9.620341301,0.000000000,1.000000000,0.000000000,5002.000000000,0.000507576,-0.003979471,0.003242800,1748428318875795.000000000
1748428318.893757,5.000000000,0.000000000,4876.000000000,-0.161900043,-2.043114901,-9.609063148,0.000000000,1.000000000,0.000000000,5001.000000000,-0.000877021,-0.000357186,-0.003308506,1748428318885797.000000000
1748428318.903764,5.000000000,0.000000000,4875.000000000,-0.124701239,-2.035521507,-9.601541519,0.000000000,1.000000000,0.000000000,5002.000000000,-0.006150302,0.004862230,0.005373342,1748428318895800.000000000
1748428318.913772,5.000000000,0.000000000,4877.000000000,-0.145160079,-2.043115139,-9.599659920,0.000000000,1.000000000,0.000000000,5001.000000000,0.001998746,-0.000730216,-0.006078795,1748428318905802.000000000
1748428318.924770,5.000000000,0.000000000,4875.000000000,-0.132140502,-2.022238493,-9.607186317,0.000000000,1.000000000,0.000000000,5000.000000000,0.004875148,-0.005418440,-0.001234229,1748428318915805.000000000
1748428318.933764,5.000000000,0.000000000,4876.000000000,-0.135860100,-2.043114901,-9.595902443,0.000000000,1.000000000,0.000000000,5001.000000000,0.001306666,0.001880112,-0.000324281,1748428318925807.000000000
1748428318.944858,5.000000000,0.000000000,4875.000000000,-0.150741220,-2.054502249,-9.603427887,0.000000000,1.000000000,0.000000000,5002.000000000,-0.003327358,-0.004618630,-0.009593638,1748428318935810.000000000
1748428318.953900,5.000000000,0.000000000,4876.000000000,-0.139580101,-2.026034117,-9.592142105,0.000000000,1.000000000,0.000000000,5001.000000000,-0.005511025,-0.003392641,-0.003469701,1748428318945812.000000000
1748428318.963756,5.000000000,0.000000000,4876.000000000,-0.139580071,-2.062093496,-9.590263367,0.000000000,1.000000000,0.000000000,5002.000000000,0.000827162,-0.004671891,0.001804687,1748428318955815.000000000
1748428318.974784,5.000000000,0.000000000,4876.000000000,-0.180499271,-2.033623934,-9.578980446,0.000000000,1.000000000,0.000000000,5002.000000000,0.004182748,0.000760957,-0.007409840,1748428318965817.000000000
1748428318.985813,5.000000000,0.000000000,7313.000000000,-0.162522405,-2.048808336,-9.603422165,0.000000000,1.000000000,0.000000000,5001.000000000,0.005780287,0.006141346,-0.005332234,1748428318975819.000000000
1748428318.996820,5.000000000,0.000000000,4876.000000000,-0.174920008,-2.050705910,-9.584623337,0.000000000,1.000000000,0.000000000,5002.000000000,-0.006097057,-0.003446843,0.003562380,1748428318990823.000000000
1748428319.006853,5.000000000,0.000000000,4876.000000000,-0.167480052,-2.050705910,-9.590263367,0.000000000,1.000000000,0.000000000,5001.000000000,0.008923925,0.001453934,-0.002244161,1748428318995824.000000000
1748428319.016813,5.000000000,0.000000000,4876.000000000,-0.182360023,-2.035523415,-9.612821579,0.000000000,1.000000000,0.000000000,5001.000000000,0.002584740,-0.008559854,0.002176911,1748428319005826.000000000
1748428319.025790,5.000000000,0.000000000,4876.000000000,-0.163760036,-2.029829741,-9.607182503,0.000000000,1.000000000,0.000000000,5001.000000000,0.005194410,0.000227082,0.001804409,1748428319015829.000000000
1748428319.035773,5.000000000,0.000000000,4875.000000000,-0.163756996,-2.037421227,-9.595902443,0.000000000,1.000000000,0.000000000,5001.000000000,0.001944649,-0.001742072,0.001804783,1748428319025831.000000000
1748428319.044801,5.000000000,0.000000000,4876.000000000,-0.171200067,-2.045012712,-9.612821579,0.000000000,1.000000000,0.000000000,5001.000000000,-0.003328369,0.002678723,0.002391948,1748428319035834.000000000
1748428319.054747,5.000000000,0.000000000,4875.000000000,-0.158182696,-2.043115854,-9.609063148,0.000000000,1.000000000,0.000000000,5001.000000000,0.002319459,0.002677573,-0.004213309,1748428319045836.000000000
1748428319.063756,5.000000000,0.000000000,4875.000000000,-0.111680120,-2.022241592,-9.590263367,0.000000000,1.000000000,0.000000000,5002.000000000,-0.008653691,-0.003500099,-0.000059516,1748428319055839.000000000
1748428319.074860,5.000000000,0.000000000,4874.000000000,-0.135860100,-2.033625603,-9.597782135,0.000000000,1.000000000,0.000000000,4998.000000000,-0.004019638,0.000222994,-0.004693147,1748428319065841.000000000
1748428319.084765,5.000000000,0.000000000,7311.000000000,-0.140200123,-2.052604198,-9.609688759,0.000000000,1.000000000,0.000000000,5001.000000000,-0.005511117,-0.000411769,-0.001603153,1748428319075843.000000000
1748428319.093981,5.000000000,0.000000000,4874.000000000,-0.141440094,-2.060195446,-9.554544449,0.000000000,1.000000000,0.000000000,5001.000000000,0.003437126,0.002465303,0.001591941,1748428319085846.000000000
1748428319.104820,5.000000000,0.000000000,4875.000000000,-0.139579698,-2.065887928,-9.599660873,0.000000000,1.000000000,0.000000000,5001.000000000,-0.000078587,0.003796450,0.004627270,1748428319095848.000000000
1748428319.113778,5.000000000,0.000000000,4875.000000000,-0.141441613,-2.077276468,-9.588383675,0.000000000,1.000000000,0.000000000,5002.000000000,-0.001942531,-0.002381576,-0.001124787,1748428319105851.000000000
1748428319.122850,5.000000000,0.000000000,4875.000000000,-0.180499658,-2.073480844,-9.535746574,0.000000000,1.000000000,0.000000000,5001.000000000,-0.002048607,-0.000889318,0.002285092,1748428319115853.000000000
1748428319.133762,5.000000000,0.000000000,4874.000000000,-0.119120091,-2.054502010,-9.609063148,0.000000000,1.000000000,0.000000000,5000.000000000,-0.000451154,0.001559897,0.003189544,1748428319125855.000000000
1748428319.143750,5.000000000,0.000000000,4874.000000000,-0.182361558,-2.043120146,-9.629735947,0.000000000,1.000000000,0.000000000,5001.000000000,0.001199024,-0.002647433,0.002496895,1748428319135858.000000000
1748428319.152864,5.000000000,0.000000000,4874.000000000,-0.154460087,-2.027931690,-9.629739761,0.000000000,1.000000000,0.000000000,5001.000000000,0.002584827,-0.001582827,-0.000112588,1748428319145860.000000000
1748428319.163774,5.000000000,0.000000000,4874.000000000,-0.156320065,-2.008953333,-9.620341301,0.000000000,1.000000000,0.000000000,5001.000000000,0.002213466,-0.000037784,0.006277503,1748428319155863.000000000
1748428319.172900,5.000000000,0.000000000,4874.000000000,-0.180500016,-1.991872668,-9.584623337,0.000000000,1.000000000,0.000000000,5001.000000000,-0.001304088,0.007525047,-0.004373622,1748428319165865.000000000
1748428319.183870,5.000000000,0.000000000,4874.000000000,-0.139580071,-1.969098687,-9.646660805,0.000000000,1.000000000,0.000000000,5001.000000000,0.001945646,0.002838691,-0.002829512,1748428319175867.000000000
1748428319.193770,5.000000000,0.000000000,4874.000000000,-0.195380002,-2.020340443,-9.594022751,0.000000000,1.000000000,0.000000000,5001.000000000,0.000721121,-0.003021093,0.000258967,1748428319185870.000000000
1748428319.203861,5.000000000,0.000000000,4874.000000000,-0.134003118,-2.045009613,-9.612832069,0.000000000,1.000000000,0.000000000,5002.000000000,0.007272011,-0.000836950,-0.003042257,1748428319195873.000000000
1748428319.213907,5.000000000,0.000000000,4875.000000000,-0.139578938,-2.056399584,-9.592143059,0.000000000,1.000000000,0.000000000,5001.000000000,0.003330417,0.002040058,-0.003151051,1748428319205875.000000000
1748428319.222949,5.000000000,0.000000000,4875.000000000,-0.178641558,-2.069682837,-9.603422165,0.000000000,1.000000000,0.000000000,5001.000000000,-0.002261726,0.001666004,-0.003414465,1748428319215877.000000000
1748428319.235792,5.000000000,0.000000000,4874.000000000,-0.150740087,-2.054502010,-9.618462563,0.000000000,1.000000000,0.000000000,5002.000000000,0.002265262,0.002838221,-0.003628155,1748428319225880.000000000
1748428319.244745,5.000000000,0.000000000,4874.000000000,-0.182360053,-2.060195446,-9.577102661,0.000000000,1.000000000,0.000000000,5001.000000000,0.006685783,-0.000569660,-0.001072724,1748428319235882.000000000
1748428319.254747,5.000000000,0.000000000,4875.000000000,-0.126560882,-2.045011997,-9.603424072,0.000000000,1.000000000,0.000000000,5001.000000000,0.000294921,0.001294374,-0.003735718,1748428319245884.000000000
1748428319.263833,5.000000000,0.000000000,4874.000000000,-0.122840099,-2.046910286,-9.599661827,0.000000000,1.000000000,0.000000000,5001.000000000,-0.003540386,-0.000569717,-0.004854350,1748428319255887.000000000
1748428319.273850,5.000000000,0.000000000,7312.000000000,-0.168720379,-2.069051027,-9.568330765,0.000000000,1.000000000,0.000000000,5001.000000000,-0.008494219,0.000813758,0.007663501,1748428319265889.000000000
1748428319.283769,5.000000000,0.000000000,4874.000000000,-0.122840077,-2.065888882,-9.595902443,0.000000000,1.000000000,0.000000000,5001.000000000,0.001147232,0.001346738,-0.008688725,1748428319275892.000000000
