__time,/fmu/out/sensor_accel/clip_counter[0],/fmu/out/sensor_accel/clip_counter[1],/fmu/out/sensor_accel/clip_counter[2],/fmu/out/sensor_accel/device_id,/fmu/out/sensor_accel/error_count,/fmu/out/sensor_accel/samples,/fmu/out/sensor_accel/temperature,/fmu/out/sensor_accel/timestamp,/fmu/out/sensor_accel/timestamp_sample,/fmu/out/sensor_accel/x,/fmu/out/sensor_accel/y,/fmu/out/sensor_accel/z
1748428316.486848,0.000000000,0.000000000,0.000000000,4259850.000000000,0.000000000,5.000000000,30.000000000,1748428316466643.000000000,1748428316466575.000000000,-9.936894417,-1.555273414,0.268150598
1748428316.501837,0.000000000,0.000000000,0.000000000,4259850.000000000,0.000000000,5.000000000,30.000000000,1748428316478831.000000000,1748428316478763.000000000,-9.936894417,-1.593580723,0.306457818
1748428316.512772,0.000000000,0.000000000,0.000000000,4259850.000000000,0.000000000,5.000000000,30.000000000,1748428316488581.000000000,1748428316488513.000000000,-9.982863426,-1.601242065,0.306457818
1748428316.522775,0.000000000,0.000000000,0.000000000,4259850.000000000,0.000000000,5.000000000,30.000000000,1748428316498332.000000000,1748428316498263.000000000,-9.921571732,-1.593580723,0.275812030
1748428316.528753,0.000000000,0.000000000,0.000000000,4259850.000000000,0.000000000,5.000000000,30.000000000,1748428316508082.000000000,1748428316508014.000000000,-9.921571732,-1.616564989,0.260489136
1748428316.537806,0.000000000,0.000000000,0.000000000,4259850.000000000,0.000000000,5.000000000,30.000000000,1748428316517845.000000000,1748428316517764.000000000,-9.929233551,-1.608903527,0.321780711
1748428316.547817,0.000000000,0.000000000,0.000000000,4259850.000000000,0.000000000,5.000000000,30.000000000,1748428316527583.000000000,1748428316527514.000000000,-9.936894417,-1.532289147,0.337103605
1748428316.556777,0.000000000,0.000000000,0.000000000,4259850.000000000,0.000000000,5.000000000,30.000000000,1748428316537333.000000000,1748428316537265.000000000,-9.952218056,-1.570596337,0.367749393
1748428316.567749,0.000000000,0.000000000,0.000000000,4259850.000000000,0.000000000,5.000000000,30.000000000,1748428316547186.000000000,1748428316547016.000000000,-9.959878922,-1.501643300,0.329442143
1748428316.576787,0.000000000,0.000000000,0.000000000,4259850.000000000,0.000000000,5.000000000,30.000000000,1748428316556836.000000000,1748428316556768.000000000,-9.936894417,-1.555273414,0.283473492
1748428316.586863,0.000000000,0.000000000,0.000000000,4259850.000000000,0.000000000,5.000000000,30.000000000,1748428316566587.000000000,1748428316566518.000000000,-9.913910866,-1.539950609,0.306457818
1748428316.601810,0.000000000,0.000000000,0.000000000,4259850.000000000,0.000000000,5.000000000,30.000000000,1748428316578776.000000000,1748428316578706.000000000,-9.944556236,-1.509304762,0.268150598
1748428316.607756,0.000000000,0.000000000,0.000000000,4259850.000000000,0.000000000,5.000000000,30.000000000,1748428316586091.000000000,1748428316586019.000000000,-9.936894417,-1.585919261,0.321780711
1748428316.622775,0.000000000,0.000000000,0.000000000,4259850.000000000,0.000000000,5.000000000,30.000000000,1748428316598275.000000000,1748428316598206.000000000,-9.890926361,-1.616564989,0.321780711
1748428316.629925,0.000000000,0.000000000,0.000000000,4259850.000000000,0.000000000,5.000000000,30.000000000,1748428316608025.000000000,1748428316607956.000000000,-9.944556236,-1.647210836,0.291134924
1748428316.637808,0.000000000,0.000000000,0.000000000,4259850.000000000,0.000000000,5.000000000,30.000000000,1748428316617865.000000000,1748428316617707.000000000,-9.913910866,-1.601242065,0.291134924
1748428316.646826,0.000000000,0.000000000,0.000000000,4259850.000000000,0.000000000,5.000000000,30.000000000,1748428316627526.000000000,1748428316627458.000000000,-9.921571732,-1.585919261,0.337103605
1748428316.657776,0.000000000,0.000000000,0.000000000,4259850.000000000,0.000000000,5.000000000,30.000000000,1748428316637276.000000000,1748428316637208.000000000,-9.952218056,-1.562934875,0.291134924
1748428316.668789,0.000000000,0.000000000,0.000000000,4259850.000000000,0.000000000,5.000000000,30.000000000,1748428316647030.000000000,1748428316646958.000000000,-9.975201607,-1.516966224,0.306457818
1748428316.678751,0.000000000,0.000000000,0.000000000,4259850.000000000,0.000000000,5.000000000,30.000000000,1748428316656779.000000000,1748428316656708.000000000,-9.982863426,-1.478659034,0.421379507
1748428316.691786,0.000000000,0.000000000,0.000000000,4259850.000000000,0.000000000,5.000000000,30.000000000,1748428316668971.000000000,1748428316668900.000000000,-9.952218056,-1.562934875,0.298796386
1748428316.704197,0.000000000,0.000000000,0.000000000,4259850.000000000,0.000000000,5.000000000,30.000000000,1748428316678716.000000000,1748428316678648.000000000,-9.936894417,-1.532289147,0.306457818
1748428316.712859,0.000000000,0.000000000,0.000000000,4259850.000000000,0.000000000,5.000000000,30.000000000,1748428316688469.000000000,1748428316688399.000000000,-9.921571732,-1.516966224,0.260489136
1748428316.718856,0.000000000,0.000000000,0.000000000,4259850.000000000,0.000000000,5.000000000,30.000000000,1748428316698221.000000000,1748428316698151.000000000,-9.936894417,-1.578257799,0.321780711
1748428316.727798,0.000000000,0.000000000,0.000000000,4259850.000000000,0.000000000,5.000000000,30.000000000,1748428316707970.000000000,1748428316707900.000000000,-9.921571732,-1.593580723,0.260489136
1748428316.736862,0.000000000,0.000000000,0.000000000,4259850.000000000,0.000000000,5.000000000,30.000000000,1748428316715283.000000000,1748428316715213.000000000,-9.959878922,-1.562934875,0.306457818
1748428316.746809,0.000000000,0.000000000,0.000000000,4259850.000000000,0.000000000,5.000000000,30.000000000,1748428316727470.000000000,1748428316727401.000000000,-9.936894417,-1.608903527,0.321780711
1748428316.756821,0.000000000,0.000000000,0.000000000,4259850.000000000,0.000000000,5.000000000,30.000000000,1748428316737220.000000000,1748428316737152.000000000,-9.929233551,-1.624226451,0.337103605
1748428316.767766,0.000000000,0.000000000,0.000000000,4259850.000000000,0.000000000,5.000000000,30.000000000,1748428316746975.000000000,1748428316746905.000000000,-9.936894417,-1.585919261,0.291134924
1748428316.781828,0.000000000,0.000000000,0.000000000,4259850.000000000,0.000000000,5.000000000,30.000000000,1748428316756724.000000000,1748428316756653.000000000,-9.898587227,-1.601242065,0.321780711
1748428316.792808,0.000000000,0.000000000,0.000000000,4259850.000000000,0.000000000,5.000000000,30.000000000,1748428316768910.000000000,1748428316768841.000000000,-9.936894417,-1.578257799,0.314119279
1748428316.801883,0.000000000,0.000000000,0.000000000,4259850.000000000,0.000000000,5.000000000,30.000000000,1748428316778772.000000000,1748428316778592.000000000,-9.959878922,-1.539950609,0.329442143
1748428316.812767,0.000000000,0.000000000,0.000000000,4259850.000000000,0.000000000,5.000000000,30.000000000,1748428316788410.000000000,1748428316788343.000000000,-9.936894417,-1.608903527,0.329442143
1748428316.817837,0.000000000,0.000000000,0.000000000,4259850.000000000,0.000000000,5.000000000,30.000000000,1748428316798166.000000000,1748428316798093.000000000,-9.944556236,-1.539950609,0.260489136
1748428316.828844,0.000000000,0.000000000,0.000000000,4259850.000000000,0.000000000,5.000000000,30.000000000,1748428316807912.000000000,1748428316807844.000000000,-9.936894417,-1.539950609,0.306457818
1748428316.837855,0.000000000,0.000000000,0.000000000,4259850.000000000,0.000000000,5.000000000,30.000000000,1748428316817662.000000000,1748428316817593.000000000,-9.921571732,-1.532289147,0.329442143
1748428316.847860,0.000000000,0.000000000,0.000000000,4259850.000000000,0.000000000,5.000000000,30.000000000,1748428316827410.000000000,1748428316827343.000000000,-9.944556236,-1.547611952,0.283473492
1748428316.856858,0.000000000,0.000000000,0.000000000,4259850.000000000,0.000000000,5.000000000,30.000000000,1748428316837162.000000000,1748428316837092.000000000,-9.967540741,-1.601242065,0.268150598
1748428316.866838,0.000000000,0.000000000,0.000000000,4259850.000000000,0.000000000,5.000000000,30.000000000,1748428316844473.000000000,1748428316844405.000000000,-9.898587227,-1.555273414,0.360087931
1748428316.876768,0.000000000,0.000000000,0.000000000,4259850.000000000,0.000000000,5.000000000,30.000000000,1748428316856811.000000000,1748428316856592.000000000,-9.944556236,-1.555273414,0.298796386
1748428316.891881,0.000000000,0.000000000,0.000000000,4259850.000000000,0.000000000,5.000000000,30.000000000,1748428316868848.000000000,1748428316868780.000000000,-9.967540741,-1.539950609,0.298796386
1748428316.901853,0.000000000,0.000000000,0.000000000,4259850.000000000,0.000000000,5.000000000,30.000000000,1748428316878598.000000000,1748428316878530.000000000,-9.929233551,-1.570596337,0.314119279
1748428316.911850,0.000000000,0.000000000,0.000000000,4259850.000000000,0.000000000,5.000000000,30.000000000,1748428316888350.000000000,1748428316888280.000000000,-9.936894417,-1.532289147,0.291134924
1748428316.918807,0.000000000,0.000000000,0.000000000,4259850.000000000,0.000000000,5.000000000,30.000000000,1748428316898099.000000000,1748428316898030.000000000,-9.944556236,-1.524627686,0.298796386
1748428316.927958,0.000000000,0.000000000,0.000000000,4259850.000000000,0.000000000,5.000000000,30.000000000,1748428316907935.000000000,1748428316907780.000000000,-9.921571732,-1.509304762,0.291134924
1748428316.937749,0.000000000,0.000000000,0.000000000,4259850.000000000,0.000000000,5.000000000,30.000000000,1748428316917598.000000000,1748428316917529.000000000,-9.921571732,-1.601242065,0.222181916
1748428316.946792,0.000000000,0.000000000,0.000000000,4259850.000000000,0.000000000,5.000000000,30.000000000,1748428316927346.000000000,1748428316927280.000000000,-9.883264542,-1.578257799,0.252827704
1748428316.957801,0.000000000,0.000000000,0.000000000,4259850.000000000,0.000000000,5.000000000,30.000000000,1748428316937098.000000000,1748428316937029.000000000,-9.906249046,-1.562934875,0.329442143
1748428316.967810,0.000000000,0.000000000,0.000000000,4259850.000000000,0.000000000,5.000000000,30.000000000,1748428316946848.000000000,1748428316946779.000000000,-9.944556236,-1.585919261,0.329442143
1748428316.982813,0.000000000,0.000000000,0.000000000,4259850.000000000,0.000000000,5.000000000,30.000000000,1748428316956598.000000000,1748428316956529.000000000,-9.952218056,-1.578257799,0.321780711
1748428316.995804,0.000000000,0.000000000,0.000000000,4259850.000000000,0.000000000,5.000000000,30.000000000,1748428316973657.000000000,1748428316973590.000000000,-9.898587227,-1.616564989,0.321780711
1748428317.000803,0.000000000,0.000000000,0.000000000,4259850.000000000,0.000000000,5.000000000,30.000000000,1748428316976097.000000000,1748428316976027.000000000,-9.929233551,-1.608903527,0.321780711
1748428317.008853,0.000000000,0.000000000,0.000000000,4259850.000000000,0.000000000,5.000000000,30.000000000,1748428316985846.000000000,1748428316985777.000000000,-9.921571732,-1.562934875,0.306457818
1748428317.018747,0.000000000,0.000000000,0.000000000,4259850.000000000,0.000000000,5.000000000,30.000000000,1748428316995596.000000000,1748428316995527.000000000,-9.898587227,-1.509304762,0.298796386
1748428317.027807,0.000000000,0.000000000,0.000000000,4259850.000000000,0.000000000,5.000000000,30.000000000,1748428317007834.000000000,1748428317007714.000000000,-9.913910866,-1.555273414,0.314119279
1748428317.036813,0.000000000,0.000000000,0.000000000,4259850.000000000,0.000000000,5.000000000,30.000000000,1748428317017533.000000000,1748428317017464.000000000,-9.867941856,-1.532289147,0.344765037
1748428317.046857,0.000000000,0.000000000,0.000000000,4259850.000000000,0.000000000,5.000000000,30.000000000,1748428317027284.000000000,1748428317027214.000000000,-9.913910866,-1.562934875,0.337103605
1748428317.056842,0.000000000,0.000000000,0.000000000,4259850.000000000,0.000000000,5.000000000,30.000000000,1748428317037032.000000000,1748428317036962.000000000,-9.944556236,-1.547611952,0.337103605
1748428317.066858,0.000000000,0.000000000,0.000000000,4259850.000000000,0.000000000,5.000000000,30.000000000,1748428317046787.000000000,1748428317046711.000000000,-9.936894417,-1.562934875,0.314119279
1748428317.081949,0.000000000,0.000000000,0.000000000,4259850.000000000,0.000000000,5.000000000,30.000000000,1748428317058968.000000000,1748428317058897.000000000,-9.952218056,-1.578257799,0.275812030
1748428317.093835,0.000000000,0.000000000,0.000000000,4259850.000000000,0.000000000,5.000000000,30.000000000,1748428317068715.000000000,1748428317068647.000000000,-9.921571732,-1.616564989,0.298796386
1748428317.101860,0.000000000,0.000000000,0.000000000,4259850.000000000,0.000000000,5.000000000,30.000000000,1748428317078463.000000000,1748428317078396.000000000,-9.936894417,-1.562934875,0.283473492
1748428317.108816,0.000000000,0.000000000,0.000000000,4259850.000000000,0.000000000,5.000000000,30.000000000,1748428317088215.000000000,1748428317088144.000000000,-9.883264542,-1.578257799,0.306457818
1748428317.117761,0.000000000,0.000000000,0.000000000,4259850.000000000,0.000000000,5.000000000,30.000000000,1748428317097982.000000000,1748428317097893.000000000,-9.913910866,-1.555273414,0.291134924
1748428317.128016,0.000000000,0.000000000,0.000000000,4259850.000000000,0.000000000,5.000000000,30.000000000,1748428317105274.000000000,1748428317105205.000000000,-9.913910866,-1.555273414,0.268150598
1748428317.138779,0.000000000,0.000000000,0.000000000,4259850.000000000,0.000000000,5.000000000,30.000000000,1748428317117460.000000000,1748428317117391.000000000,-9.929233551,-1.585919261,0.337103605
1748428317.146812,0.000000000,0.000000000,0.000000000,4259850.000000000,0.000000000,5.000000000,30.000000000,1748428317127208.000000000,1748428317127139.000000000,-9.944556236,-1.585919261,0.291134924
1748428317.156831,0.000000000,0.000000000,0.000000000,4259850.000000000,0.000000000,5.000000000,30.000000000,1748428317136958.000000000,1748428317136889.000000000,-9.921571732,-1.532289147,0.275812030
1748428317.165812,0.000000000,0.000000000,0.000000000,4259850.000000000,0.000000000,5.000000000,30.000000000,1748428317146708.000000000,1748428317146638.000000000,-9.959878922,-1.570596337,0.329442143
1748428317.181853,0.000000000,0.000000000,0.000000000,4259850.000000000,0.000000000,5.000000000,30.000000000,1748428317158893.000000000,1748428317158826.000000000,-9.921571732,-1.547611952,0.329442143
1748428317.191836,0.000000000,0.000000000,0.000000000,4259850.000000000,0.000000000,5.000000000,30.000000000,1748428317168643.000000000,1748428317168576.000000000,-9.913910866,-1.555273414,0.329442143
1748428317.201844,0.000000000,0.000000000,0.000000000,4259850.000000000,0.000000000,5.000000000,30.000000000,1748428317178394.000000000,1748428317178326.000000000,-9.967540741,-1.578257799,0.298796386
1748428317.209744,0.000000000,0.000000000,0.000000000,4259850.000000000,0.000000000,5.000000000,30.000000000,1748428317188145.000000000,1748428317188076.000000000,-9.967540741,-1.547611952,0.344765037
1748428317.220781,0.000000000,0.000000000,0.000000000,4259850.000000000,0.000000000,5.000000000,30.000000000,1748428317197896.000000000,1748428317197824.000000000,-9.952218056,-1.555273414,0.306457818
1748428317.228794,0.000000000,0.000000000,0.000000000,4259850.000000000,0.000000000,5.000000000,30.000000000,1748428317207641.000000000,1748428317207573.000000000,-9.913910866,-1.585919261,0.291134924
1748428317.239742,0.000000000,0.000000000,0.000000000,4259850.000000000,0.000000000,5.000000000,30.000000000,1748428317217390.000000000,1748428317217322.000000000,-9.913910866,-1.562934875,0.291134924
1748428317.247758,0.000000000,0.000000000,0.000000000,4259850.000000000,0.000000000,5.000000000,30.000000000,1748428317227144.000000000,1748428317227071.000000000,-9.952218056,-1.593580723,0.321780711
1748428317.258758,0.000000000,0.000000000,0.000000000,4259850.000000000,0.000000000,5.000000000,30.000000000,1748428317236905.000000000,1748428317236820.000000000,-9.975201607,-1.585919261,0.283473492
1748428317.271856,0.000000000,0.000000000,0.000000000,4259850.000000000,0.000000000,5.000000000,30.000000000,1748428317249076.000000000,1748428317249008.000000000,-9.936894417,-1.562934875,0.298796386
1748428317.277756,0.000000000,0.000000000,0.000000000,4259850.000000000,0.000000000,5.000000000,30.000000000,1748428317256389.000000000,1748428317256320.000000000,-9.944556236,-1.539950609,0.352426499
1748428317.291836,0.000000000,0.000000000,0.000000000,4259850.000000000,0.000000000,5.000000000,30.000000000,1748428317268575.000000000,1748428317268507.000000000,-9.913910866,-1.562934875,0.306457818
1748428317.301963,0.000000000,0.000000000,0.000000000,4259850.000000000,0.000000000,5.000000000,30.000000000,1748428317278326.000000000,1748428317278257.000000000,-9.906249046,-1.555273414,0.291134924
1748428317.307878,0.000000000,0.000000000,0.000000000,4259850.000000000,0.000000000,5.000000000,30.000000000,1748428317288075.000000000,1748428317288006.000000000,-9.936894417,-1.516966224,0.298796386
1748428317.317805,0.000000000,0.000000000,0.000000000,4259850.000000000,0.000000000,5.000000000,30.000000000,1748428317297826.000000000,1748428317297757.000000000,-9.929233551,-1.509304762,0.314119279
1748428317.327805,0.000000000,0.000000000,0.000000000,4259850.000000000,0.000000000,5.000000000,30.000000000,1748428317307574.000000000,1748428317307506.000000000,-9.921571732,-1.555273414,0.306457818
1748428317.336781,0.000000000,0.000000000,0.000000000,4259850.000000000,0.000000000,5.000000000,30.000000000,1748428317317456.000000000,1748428317317255.000000000,-9.906249046,-1.570596337,0.321780711
1748428317.347898,0.000000000,0.000000000,0.000000000,4259850.000000000,0.000000000,5.000000000,30.000000000,1748428317327075.000000000,1748428317327005.000000000,-9.952218056,-1.555273414,0.337103605
1748428317.356787,0.000000000,0.000000000,0.000000000,4259850.000000000,0.000000000,5.000000000,30.000000000,1748428317336824.000000000,1748428317336755.000000000,-9.898587227,-1.601242065,0.283473492
1748428317.371903,0.000000000,0.000000000,0.000000000,4259850.000000000,0.000000000,5.000000000,30.000000000,1748428317349010.000000000,1748428317348942.000000000,-9.890926361,-1.593580723,0.298796386
1748428317.381869,0.000000000,0.000000000,0.000000000,4259850.000000000,0.000000000,5.000000000,30.000000000,1748428317358762.000000000,1748428317358692.000000000,-9.929233551,-1.570596337,0.337103605
1748428317.393785,0.000000000,0.000000000,0.000000000,4259850.000000000,0.000000000,5.000000000,30.000000000,1748428317368538.000000000,1748428317368465.000000000,-9.913910866,-1.585919261,0.306457818
1748428317.399798,0.000000000,0.000000000,0.000000000,4259850.000000000,0.000000000,5.000000000,30.000000000,1748428317378283.000000000,1748428317378214.000000000,-9.952218056,-1.570596337,0.306457818
1748428317.408862,0.000000000,0.000000000,0.000000000,4259850.000000000,0.000000000,5.000000000,30.000000000,1748428317385593.000000000,1748428317385525.000000000,-9.944556236,-1.585919261,0.314119279
1748428317.418903,0.000000000,0.000000000,0.000000000,4259850.000000000,0.000000000,5.000000000,30.000000000,1748428317397781.000000000,1748428317397712.000000000,-9.929233551,-1.547611952,0.352426499
1748428317.427766,0.000000000,0.000000000,0.000000000,4259850.000000000,0.000000000,5.000000000,30.000000000,1748428317407530.000000000,1748428317407461.000000000,-9.921571732,-1.547611952,0.283473492
1748428317.437794,0.000000000,0.000000000,0.000000000,4259850.000000000,0.000000000,5.000000000,30.000000000,1748428317417279.000000000,1748428317417210.000000000,-9.883264542,-1.585919261,0.321780711
1748428317.446884,0.000000000,0.000000000,0.000000000,4259850.000000000,0.000000000,5.000000000,30.000000000,1748428317427029.000000000,1748428317426960.000000000,-9.936894417,-1.593580723,0.268150598
1748428317.456888,0.000000000,0.000000000,0.000000000,4259850.000000000,0.000000000,5.000000000,30.000000000,1748428317436779.000000000,1748428317436710.000000000,-9.921571732,-1.585919261,0.283473492
1748428317.472761,0.000000000,0.000000000,0.000000000,4259850.000000000,0.000000000,5.000000000,30.000000000,1748428317448971.000000000,1748428317448898.000000000,-9.906249046,-1.585919261,0.375410825
1748428317.482772,0.000000000,0.000000000,0.000000000,4259850.000000000,0.000000000,5.000000000,30.000000000,1748428317458716.000000000,1748428317458648.000000000,-9.929233551,-1.539950609,0.260489136
1748428317.491847,0.000000000,0.000000000,0.000000000,4259850.000000000,0.000000000,5.000000000,30.000000000,1748428317468510.000000000,1748428317468398.000000000,-9.913910866,-1.593580723,0.306457818
1748428317.498762,0.000000000,0.000000000,0.000000000,4259850.000000000,0.000000000,5.000000000,30.000000000,1748428317478217.000000000,1748428317478149.000000000,-9.959878922,-1.516966224,0.252827704
1748428317.507789,0.000000000,0.000000000,0.000000000,4259850.000000000,0.000000000,5.000000000,30.000000000,1748428317487971.000000000,1748428317487900.000000000,-9.936894417,-1.562934875,0.390733719
1748428317.517803,0.000000000,0.000000000,0.000000000,4259850.000000000,0.000000000,5.000000000,30.000000000,1748428317497720.000000000,1748428317497651.000000000,-9.952218056,-1.578257799,0.321780711
1748428317.527753,0.000000000,0.000000000,0.000000000,4259850.000000000,0.000000000,5.000000000,30.000000000,1748428317507471.000000000,1748428317507401.000000000,-9.867941856,-1.555273414,0.344765037
1748428317.537738,0.000000000,0.000000000,0.000000000,4259850.000000000,0.000000000,5.000000000,30.000000000,1748428317515271.000000000,1748428317515201.000000000,-9.929233551,-1.570596337,0.306457818
1748428317.546809,0.000000000,0.000000000,0.000000000,4259850.000000000,0.000000000,5.000000000,30.000000000,1748428317527460.000000000,1748428317527390.000000000,-9.913910866,-1.601242065,0.321780711
1748428317.556831,0.000000000,0.000000000,0.000000000,4259850.000000000,0.000000000,5.000000000,30.000000000,1748428317537209.000000000,1748428317537141.000000000,-9.975201607,-1.578257799,0.337103605
1748428317.567767,0.000000000,0.000000000,0.000000000,4259850.000000000,0.000000000,5.000000000,30.000000000,1748428317546959.000000000,1748428317546891.000000000,-9.952218056,-1.539950609,0.314119279
1748428317.582811,0.000000000,0.000000000,0.000000000,4259850.000000000,0.000000000,5.000000000,30.000000000,1748428317559148.000000000,1748428317559079.000000000,-9.936894417,-1.555273414,0.344765037
1748428317.592779,0.000000000,0.000000000,0.000000000,4259850.000000000,0.000000000,5.000000000,30.000000000,1748428317568900.000000000,1748428317568830.000000000,-9.944556236,-1.562934875,0.275812030
1748428317.601848,0.000000000,0.000000000,0.000000000,4259850.000000000,0.000000000,5.000000000,30.000000000,1748428317578648.000000000,1748428317578581.000000000,-9.944556236,-1.562934875,0.275812030
1748428317.609788,0.000000000,0.000000000,0.000000000,4259850.000000000,0.000000000,5.000000000,30.000000000,1748428317588403.000000000,1748428317588331.000000000,-9.936894417,-1.562934875,0.306457818
1748428317.617780,0.000000000,0.000000000,0.000000000,4259850.000000000,0.000000000,5.000000000,30.000000000,1748428317598151.000000000,1748428317598082.000000000,-9.921571732,-1.578257799,0.321780711
1748428317.627805,0.000000000,0.000000000,0.000000000,4259850.000000000,0.000000000,5.000000000,30.000000000,1748428317607903.000000000,1748428317607833.000000000,-9.913910866,-1.524627686,0.275812030
1748428317.636799,0.000000000,0.000000000,0.000000000,4259850.000000000,0.000000000,5.000000000,30.000000000,1748428317617651.000000000,1748428317617583.000000000,-9.898587227,-1.585919261,0.321780711
1748428317.647791,0.000000000,0.000000000,0.000000000,4259850.000000000,0.000000000,5.000000000,30.000000000,1748428317627402.000000000,1748428317627334.000000000,-9.936894417,-1.555273414,0.321780711
1748428317.656818,0.000000000,0.000000000,0.000000000,4259850.000000000,0.000000000,5.000000000,30.000000000,1748428317637161.000000000,1748428317637085.000000000,-9.959878922,-1.547611952,0.306457818
1748428317.666846,0.000000000,0.000000000,0.000000000,4259850.000000000,0.000000000,5.000000000,30.000000000,1748428317646905.000000000,1748428317646835.000000000,-9.898587227,-1.547611952,0.329442143
1748428317.676812,0.000000000,0.000000000,0.000000000,4259850.000000000,0.000000000,5.000000000,30.000000000,1748428317656654.000000000,1748428317656585.000000000,-9.944556236,-1.532289147,0.275812030
1748428317.687773,0.000000000,0.000000000,0.000000000,4259850.000000000,0.000000000,5.000000000,30.000000000,1748428317666404.000000000,1748428317666335.000000000,-9.921571732,-1.593580723,0.268150598
1748428317.698785,0.000000000,0.000000000,0.000000000,4259850.000000000,0.000000000,5.000000000,30.000000000,1748428317676155.000000000,1748428317676085.000000000,-9.921571732,-1.578257799,0.337103605
1748428317.707826,0.000000000,0.000000000,0.000000000,4259850.000000000,0.000000000,5.000000000,30.000000000,1748428317688342.000000000,1748428317688273.000000000,-9.959878922,-1.578257799,0.344765037
1748428317.719809,0.000000000,0.000000000,0.000000000,4259850.000000000,0.000000000,5.000000000,30.000000000,1748428317698146.000000000,1748428317698023.000000000,-9.967540741,-1.578257799,0.275812030
1748428317.728746,0.000000000,0.000000000,0.000000000,4259850.000000000,0.000000000,5.000000000,30.000000000,1748428317707843.000000000,1748428317707774.000000000,-9.975201607,-1.578257799,0.283473492
1748428317.738855,0.000000000,0.000000000,0.000000000,4259850.000000000,0.000000000,5.000000000,30.000000000,1748428317717711.000000000,1748428317717524.000000000,-9.921571732,-1.562934875,0.291134924
1748428317.748755,0.000000000,0.000000000,0.000000000,4259850.000000000,0.000000000,5.000000000,30.000000000,1748428317727342.000000000,1748428317727274.000000000,-9.975201607,-1.524627686,0.268150598
1748428317.757843,0.000000000,0.000000000,0.000000000,4259850.000000000,0.000000000,5.000000000,30.000000000,1748428317737093.000000000,1748428317737023.000000000,-9.906249046,-1.562934875,0.298796386
1748428317.767871,0.000000000,0.000000000,0.000000000,4259850.000000000,0.000000000,5.000000000,30.000000000,1748428317746843.000000000,1748428317746773.000000000,-9.929233551,-1.547611952,0.298796386
1748428317.782772,0.000000000,0.000000000,0.000000000,4259850.000000000,0.000000000,5.000000000,30.000000000,1748428317759029.000000000,1748428317758960.000000000,-9.929233551,-1.593580723,0.321780711
1748428317.792761,0.000000000,0.000000000,0.000000000,4259850.000000000,0.000000000,5.000000000,30.000000000,1748428317768778.000000000,1748428317768710.000000000,-9.944556236,-1.532289147,0.268150598
1748428317.802773,0.000000000,0.000000000,0.000000000,4259850.000000000,0.000000000,5.000000000,30.000000000,1748428317778532.000000000,1748428317778460.000000000,-9.952218056,-1.555273414,0.321780711
1748428317.807858,0.000000000,0.000000000,0.000000000,4259850.000000000,0.000000000,5.000000000,30.000000000,1748428317788295.000000000,1748428317788210.000000000,-9.944556236,-1.593580723,0.344765037
1748428317.816814,0.000000000,0.000000000,0.000000000,4259850.000000000,0.000000000,5.000000000,30.000000000,1748428317795849.000000000,1748428317795523.000000000,-9.898587227,-1.585919261,0.268150598
1748428317.826854,0.000000000,0.000000000,0.000000000,4259850.000000000,0.000000000,5.000000000,30.000000000,1748428317807780.000000000,1748428317807709.000000000,-9.921571732,-1.555273414,0.252827704
1748428317.836866,0.000000000,0.000000000,0.000000000,4259850.000000000,0.000000000,5.000000000,30.000000000,1748428317817526.000000000,1748428317817457.000000000,-9.975201607,-1.532289147,0.314119279
1748428317.846842,0.000000000,0.000000000,0.000000000,4259850.000000000,0.000000000,5.000000000,30.000000000,1748428317827276.000000000,1748428317827206.000000000,-9.936894417,-1.593580723,0.337103605
1748428317.856786,0.000000000,0.000000000,0.000000000,4259850.000000000,0.000000000,5.000000000,30.000000000,1748428317837024.000000000,1748428317836955.000000000,-9.906249046,-1.570596337,0.329442143
1748428317.867808,0.000000000,0.000000000,0.000000000,4259850.000000000,0.000000000,5.000000000,30.000000000,1748428317846774.000000000,1748428317846705.000000000,-9.913910866,-1.562934875,0.291134924
1748428317.882760,0.000000000,0.000000000,0.000000000,4259850.000000000,0.000000000,5.000000000,30.000000000,1748428317858960.000000000,1748428317858892.000000000,-9.952218056,-1.608903527,0.306457818
1748428317.892796,0.000000000,0.000000000,0.000000000,4259850.000000000,0.000000000,5.000000000,30.000000000,1748428317868745.000000000,1748428317868641.000000000,-9.913910866,-1.608903527,0.298796386
1748428317.898803,0.000000000,0.000000000,0.000000000,4259850.000000000,0.000000000,5.000000000,30.000000000,1748428317878461.000000000,1748428317878391.000000000,-9.967540741,-1.509304762,0.252827704
1748428317.907873,0.000000000,0.000000000,0.000000000,4259850.000000000,0.000000000,5.000000000,30.000000000,1748428317888209.000000000,1748428317888142.000000000,-9.936894417,-1.570596337,0.275812030
1748428317.917838,0.000000000,0.000000000,0.000000000,4259850.000000000,0.000000000,5.000000000,30.000000000,1748428317897961.000000000,1748428317897892.000000000,-9.967540741,-1.532289147,0.306457818
1748428317.927802,0.000000000,0.000000000,0.000000000,4259850.000000000,0.000000000,5.000000000,30.000000000,1748428317907711.000000000,1748428317907643.000000000,-9.952218056,-1.601242065,0.314119279
1748428317.936792,0.000000000,0.000000000,0.000000000,4259850.000000000,0.000000000,5.000000000,30.000000000,1748428317917463.000000000,1748428317917393.000000000,-9.944556236,-1.593580723,0.314119279
1748428317.946883,0.000000000,0.000000000,0.000000000,4259850.000000000,0.000000000,5.000000000,30.000000000,1748428317927212.000000000,1748428317927143.000000000,-9.936894417,-1.601242065,0.298796386
1748428317.956776,0.000000000,0.000000000,0.000000000,4259850.000000000,0.000000000,5.000000000,30.000000000,1748428317936961.000000000,1748428317936893.000000000,-9.967540741,-1.593580723,0.298796386
1748428317.967879,0.000000000,0.000000000,0.000000000,4259850.000000000,0.000000000,5.000000000,30.000000000,1748428317946780.000000000,1748428317946644.000000000,-9.975201607,-1.509304762,0.329442143
1748428317.982768,0.000000000,0.000000000,0.000000000,4259850.000000000,0.000000000,5.000000000,30.000000000,1748428317958902.000000000,1748428317958832.000000000,-9.913910866,-1.547611952,0.275812030
1748428317.991864,0.000000000,0.000000000,0.000000000,4259850.000000000,0.000000000,5.000000000,30.000000000,1748428317968650.000000000,1748428317968582.000000000,-9.944556236,-1.585919261,0.260489136
1748428317.999843,0.000000000,0.000000000,0.000000000,4259850.000000000,0.000000000,5.000000000,30.000000000,1748428317978400.000000000,1748428317978331.000000000,-9.913910866,-1.524627686,0.283473492
1748428318.008823,0.000000000,0.000000000,0.000000000,4259850.000000000,0.000000000,5.000000000,30.000000000,1748428317988211.000000000,1748428317988081.000000000,-9.929233551,-1.562934875,0.306457818
1748428318.019761,0.000000000,0.000000000,0.000000000,4259850.000000000,0.000000000,5.000000000,30.000000000,1748428317997901.000000000,1748428317997832.000000000,-9.952218056,-1.555273414,0.298796386
1748428318.027853,0.000000000,0.000000000,0.000000000,4259850.000000000,0.000000000,5.000000000,30.000000000,1748428318007650.000000000,1748428318007582.000000000,-9.944556236,-1.601242065,0.306457818
1748428318.038807,0.000000000,0.000000000,0.000000000,4259850.000000000,0.000000000,5.000000000,30.000000000,1748428318017400.000000000,1748428318017333.000000000,-9.921571732,-1.593580723,0.306457818
1748428318.047882,0.000000000,0.000000000,0.000000000,4259850.000000000,0.000000000,5.000000000,30.000000000,1748428318027154.000000000,1748428318027082.000000000,-9.906249046,-1.593580723,0.306457818
1748428318.058754,0.000000000,0.000000000,0.000000000,4259850.000000000,0.000000000,5.000000000,30.000000000,1748428318036903.000000000,1748428318036833.000000000,-9.906249046,-1.539950609,0.344765037
1748428318.066831,0.000000000,0.000000000,0.000000000,4259850.000000000,0.000000000,5.000000000,30.000000000,1748428318046655.000000000,1748428318046583.000000000,-9.944556236,-1.532289147,0.344765037
1748428318.077797,0.000000000,0.000000000,0.000000000,4259850.000000000,0.000000000,5.000000000,30.000000000,1748428318056404.000000000,1748428318056335.000000000,-9.944556236,-1.578257799,0.329442143
1748428318.086846,0.000000000,0.000000000,0.000000000,4259850.000000000,0.000000000,5.000000000,30.000000000,1748428318066156.000000000,1748428318066087.000000000,-9.921571732,-1.601242065,0.275812030
1748428318.097835,0.000000000,0.000000000,0.000000000,4259850.000000000,0.000000000,5.000000000,30.000000000,1748428318075905.000000000,1748428318075837.000000000,-9.913910866,-1.593580723,0.283473492
1748428318.107795,0.000000000,0.000000000,0.000000000,4259850.000000000,0.000000000,5.000000000,30.000000000,1748428318088094.000000000,1748428318088024.000000000,-9.936894417,-1.532289147,0.275812030
1748428318.117750,0.000000000,0.000000000,0.000000000,4259850.000000000,0.000000000,5.000000000,30.000000000,1748428318097843.000000000,1748428318097775.000000000,-9.921571732,-1.578257799,0.298796386
1748428318.128770,0.000000000,0.000000000,0.000000000,4259850.000000000,0.000000000,5.000000000,30.000000000,1748428318107594.000000000,1748428318107525.000000000,-9.929233551,-1.616564989,0.260489136
1748428318.136821,0.000000000,0.000000000,0.000000000,4259850.000000000,0.000000000,5.000000000,30.000000000,1748428318117344.000000000,1748428318117275.000000000,-9.944556236,-1.593580723,0.237504810
1748428318.147804,0.000000000,0.000000000,0.000000000,4259850.000000000,0.000000000,5.000000000,30.000000000,1748428318127095.000000000,1748428318127026.000000000,-9.929233551,-1.532289147,0.314119279
1748428318.155849,0.000000000,0.000000000,0.000000000,4259850.000000000,0.000000000,5.000000000,30.000000000,1748428318136844.000000000,1748428318136775.000000000,-9.913910866,-1.562934875,0.291134924
1748428318.172800,0.000000000,0.000000000,0.000000000,4259850.000000000,0.000000000,5.000000000,30.000000000,1748428318149030.000000000,1748428318148962.000000000,-9.929233551,-1.547611952,0.283473492
1748428318.182764,0.000000000,0.000000000,0.000000000,4259850.000000000,0.000000000,5.000000000,30.000000000,1748428318158780.000000000,1748428318158711.000000000,-9.952218056,-1.555273414,0.321780711
1748428318.189775,0.000000000,0.000000000,0.000000000,4259850.000000000,0.000000000,5.000000000,30.000000000,1748428318168533.000000000,1748428318168461.000000000,-9.867941856,-1.578257799,0.298796386
1748428318.197813,0.000000000,0.000000000,0.000000000,4259850.000000000,0.000000000,5.000000000,30.000000000,1748428318178441.000000000,1748428318178212.000000000,-9.936894417,-1.585919261,0.321780711
1748428318.207850,0.000000000,0.000000000,0.000000000,4259850.000000000,0.000000000,5.000000000,30.000000000,1748428318185593.000000000,1748428318185524.000000000,-9.929233551,-1.524627686,0.283473492
1748428318.218859,0.000000000,0.000000000,0.000000000,4259850.000000000,0.000000000,5.000000000,30.000000000,1748428318195342.000000000,1748428318195274.000000000,-9.944556236,-1.562934875,0.291134924
1748428318.227816,0.000000000,0.000000000,0.000000000,4259850.000000000,0.000000000,5.000000000,30.000000000,1748428318207530.000000000,1748428318207461.000000000,-9.944556236,-1.585919261,0.283473492
1748428318.236861,0.000000000,0.000000000,0.000000000,4259850.000000000,0.000000000,5.000000000,30.000000000,1748428318217281.000000000,1748428318217211.000000000,-9.936894417,-1.570596337,0.329442143
1748428318.246780,0.000000000,0.000000000,0.000000000,4259850.000000000,0.000000000,5.000000000,30.000000000,1748428318227030.000000000,1748428318226960.000000000,-9.921571732,-1.570596337,0.344765037
1748428318.256918,0.000000000,0.000000000,0.000000000,4259850.000000000,0.000000000,5.000000000,30.000000000,1748428318236778.000000000,1748428318236709.000000000,-9.944556236,-1.578257799,0.321780711
1748428318.272768,0.000000000,0.000000000,0.000000000,4259850.000000000,0.000000000,5.000000000,30.000000000,1748428318248965.000000000,1748428318248897.000000000,-9.967540741,-1.547611952,0.337103605
1748428318.282791,0.000000000,0.000000000,0.000000000,4259850.000000000,0.000000000,5.000000000,30.000000000,1748428318258714.000000000,1748428318258646.000000000,-9.967540741,-1.562934875,0.360087931
1748428318.287812,0.000000000,0.000000000,0.000000000,4259850.000000000,0.000000000,5.000000000,30.000000000,1748428318268465.000000000,1748428318268396.000000000,-9.975201607,-1.578257799,0.268150598
1748428318.297820,0.000000000,0.000000000,0.000000000,4259850.000000000,0.000000000,5.000000000,30.000000000,1748428318278288.000000000,1748428318278146.000000000,-9.913910866,-1.547611952,0.283473492
1748428318.307760,0.000000000,0.000000000,0.000000000,4259850.000000000,0.000000000,5.000000000,30.000000000,1748428318287964.000000000,1748428318287895.000000000,-9.890926361,-1.547611952,0.268150598
1748428318.319793,0.000000000,0.000000000,0.000000000,4259850.000000000,0.000000000,5.000000000,30.000000000,1748428318297712.000000000,1748428318297645.000000000,-9.967540741,-1.555273414,0.352426499
1748428318.327852,0.000000000,0.000000000,0.000000000,4259850.000000000,0.000000000,5.000000000,30.000000000,1748428318307465.000000000,1748428318307395.000000000,-9.913910866,-1.562934875,0.298796386
1748428318.338796,0.000000000,0.000000000,0.000000000,4259850.000000000,0.000000000,5.000000000,30.000000000,1748428318317212.000000000,1748428318317145.000000000,-9.959878922,-1.578257799,0.360087931
1748428318.347931,0.000000000,0.000000000,0.000000000,4259850.000000000,0.000000000,5.000000000,30.000000000,1748428318326962.000000000,1748428318326895.000000000,-9.944556236,-1.570596337,0.306457818
1748428318.356804,0.000000000,0.000000000,0.000000000,4259850.000000000,0.000000000,5.000000000,30.000000000,1748428318336715.000000000,1748428318336644.000000000,-9.913910866,-1.547611952,0.298796386
1748428318.372969,0.000000000,0.000000000,0.000000000,4259850.000000000,0.000000000,5.000000000,30.000000000,1748428318348903.000000000,1748428318348832.000000000,-9.921571732,-1.547611952,0.298796386
1748428318.382823,0.000000000,0.000000000,0.000000000,4259850.000000000,0.000000000,5.000000000,30.000000000,1748428318358649.000000000,1748428318358581.000000000,-9.967540741,-1.578257799,0.329442143
1748428318.387861,0.000000000,0.000000000,0.000000000,4259850.000000000,0.000000000,5.000000000,30.000000000,1748428318368399.000000000,1748428318368332.000000000,-9.936894417,-1.570596337,0.321780711
1748428318.399858,0.000000000,0.000000000,0.000000000,4259850.000000000,0.000000000,5.000000000,30.000000000,1748428318378177.000000000,1748428318378106.000000000,-9.913910866,-1.578257799,0.268150598
1748428318.409757,0.000000000,0.000000000,0.000000000,4259850.000000000,0.000000000,5.000000000,30.000000000,1748428318387925.000000000,1748428318387856.000000000,-9.959878922,-1.570596337,0.314119279
1748428318.418766,0.000000000,0.000000000,0.000000000,4259850.000000000,0.000000000,5.000000000,30.000000000,1748428318397676.000000000,1748428318397606.000000000,-9.936894417,-1.593580723,0.275812030
1748428318.427861,0.000000000,0.000000000,0.000000000,4259850.000000000,0.000000000,5.000000000,30.000000000,1748428318407460.000000000,1748428318407355.000000000,-9.936894417,-1.585919261,0.298796386
1748428318.437778,0.000000000,0.000000000,0.000000000,4259850.000000000,0.000000000,5.000000000,30.000000000,1748428318417175.000000000,1748428318417106.000000000,-9.929233551,-1.570596337,0.283473492
1748428318.447865,0.000000000,0.000000000,0.000000000,4259850.000000000,0.000000000,5.000000000,30.000000000,1748428318426928.000000000,1748428318426857.000000000,-9.921571732,-1.570596337,0.268150598
1748428318.456797,0.000000000,0.000000000,0.000000000,4259850.000000000,0.000000000,5.000000000,30.000000000,1748428318436676.000000000,1748428318436607.000000000,-9.898587227,-1.570596337,0.245166257
1748428318.472757,0.000000000,0.000000000,0.000000000,4259850.000000000,0.000000000,5.000000000,30.000000000,1748428318448864.000000000,1748428318448795.000000000,-9.944556236,-1.593580723,0.275812030
1748428318.478741,0.000000000,0.000000000,0.000000000,4259850.000000000,0.000000000,5.000000000,30.000000000,1748428318458613.000000000,1748428318458545.000000000,-9.913910866,-1.547611952,0.329442143
1748428318.488816,0.000000000,0.000000000,0.000000000,4259850.000000000,0.000000000,5.000000000,30.000000000,1748428318465926.000000000,1748428318465857.000000000,-9.898587227,-1.562934875,0.283473492
1748428318.497794,0.000000000,0.000000000,0.000000000,4259850.000000000,0.000000000,5.000000000,30.000000000,1748428318478113.000000000,1748428318478044.000000000,-9.952218056,-1.578257799,0.275812030
1748428318.506832,0.000000000,0.000000000,0.000000000,4259850.000000000,0.000000000,5.000000000,30.000000000,1748428318488011.000000000,1748428318487794.000000000,-9.921571732,-1.631887913,0.321780711
1748428318.517758,0.000000000,0.000000000,0.000000000,4259850.000000000,0.000000000,5.000000000,30.000000000,1748428318497614.000000000,1748428318497544.000000000,-9.967540741,-1.585919261,0.321780711
1748428318.526824,0.000000000,0.000000000,0.000000000,4259850.000000000,0.000000000,5.000000000,30.000000000,1748428318507363.000000000,1748428318507294.000000000,-9.898587227,-1.578257799,0.337103605
1748428318.537844,0.000000000,0.000000000,0.000000000,4259850.000000000,0.000000000,5.000000000,30.000000000,1748428318517111.000000000,1748428318517043.000000000,-9.921571732,-1.578257799,0.321780711
1748428318.545909,0.000000000,0.000000000,0.000000000,4259850.000000000,0.000000000,5.000000000,30.000000000,1748428318526864.000000000,1748428318526793.000000000,-9.921571732,-1.524627686,0.306457818
1748428318.562762,0.000000000,0.000000000,0.000000000,4259850.000000000,0.000000000,5.000000000,30.000000000,1748428318539050.000000000,1748428318538981.000000000,-9.913910866,-1.562934875,0.298796386
1748428318.572804,0.000000000,0.000000000,0.000000000,4259850.000000000,0.000000000,5.000000000,30.000000000,1748428318548799.000000000,1748428318548731.000000000,-9.944556236,-1.539950609,0.291134924
1748428318.578809,0.000000000,0.000000000,0.000000000,4259850.000000000,0.000000000,5.000000000,30.000000000,1748428318558557.000000000,1748428318558482.000000000,-9.944556236,-1.555273414,0.306457818
1748428318.587838,0.000000000,0.000000000,0.000000000,4259850.000000000,0.000000000,5.000000000,30.000000000,1748428318568384.000000000,1748428318568233.000000000,-9.921571732,-1.601242065,0.321780711
1748428318.597859,0.000000000,0.000000000,0.000000000,4259850.000000000,0.000000000,5.000000000,30.000000000,1748428318578053.000000000,1748428318577983.000000000,-9.929233551,-1.532289147,0.245166257
1748428318.607784,0.000000000,0.000000000,0.000000000,4259850.000000000,0.000000000,5.000000000,30.000000000,1748428318587804.000000000,1748428318587733.000000000,-9.936894417,-1.539950609,0.275812030
1748428318.618753,0.000000000,0.000000000,0.000000000,4259850.000000000,0.000000000,5.000000000,30.000000000,1748428318597553.000000000,1748428318597484.000000000,-9.929233551,-1.570596337,0.283473492
1748428318.626808,0.000000000,0.000000000,0.000000000,4259850.000000000,0.000000000,5.000000000,30.000000000,1748428318607303.000000000,1748428318607234.000000000,-9.913910866,-1.562934875,0.298796386
1748428318.636851,0.000000000,0.000000000,0.000000000,4259850.000000000,0.000000000,5.000000000,30.000000000,1748428318617059.000000000,1748428318616989.000000000,-9.929233551,-1.578257799,0.344765037
1748428318.647760,0.000000000,0.000000000,0.000000000,4259850.000000000,0.000000000,5.000000000,30.000000000,1748428318626805.000000000,1748428318626736.000000000,-9.929233551,-1.601242065,0.260489136
1748428318.662818,0.000000000,0.000000000,0.000000000,4259850.000000000,0.000000000,5.000000000,30.000000000,1748428318639036.000000000,1748428318638924.000000000,-9.913910866,-1.570596337,0.314119279
1748428318.667857,0.000000000,0.000000000,0.000000000,4259850.000000000,0.000000000,5.000000000,30.000000000,1748428318646305.000000000,1748428318646237.000000000,-9.913910866,-1.570596337,0.367749393
1748428318.682822,0.000000000,0.000000000,0.000000000,4259850.000000000,0.000000000,5.000000000,30.000000000,1748428318658495.000000000,1748428318658425.000000000,-9.921571732,-1.555273414,0.314119279
1748428318.692746,0.000000000,0.000000000,0.000000000,4259850.000000000,0.000000000,5.000000000,30.000000000,1748428318668731.000000000,1748428318668662.000000000,-9.929233551,-1.555273414,0.291134924
1748428318.697809,0.000000000,0.000000000,0.000000000,4259850.000000000,0.000000000,5.000000000,30.000000000,1748428318678481.000000000,1748428318678413.000000000,-9.867941856,-1.601242065,0.298796386
1748428318.707824,0.000000000,0.000000000,0.000000000,4259850.000000000,0.000000000,5.000000000,30.000000000,1748428318688233.000000000,1748428318688164.000000000,-9.883264542,-1.585919261,0.298796386
1748428318.717775,0.000000000,0.000000000,0.000000000,4259850.000000000,0.000000000,5.000000000,30.000000000,1748428318697985.000000000,1748428318697914.000000000,-9.929233551,-1.578257799,0.291134924
1748428318.729765,0.000000000,0.000000000,0.000000000,4259850.000000000,0.000000000,5.000000000,30.000000000,1748428318707734.000000000,1748428318707665.000000000,-9.936894417,-1.570596337,0.321780711
1748428318.738926,0.000000000,0.000000000,0.000000000,4259850.000000000,0.000000000,5.000000000,30.000000000,1748428318717483.000000000,1748428318717416.000000000,-9.898587227,-1.547611952,0.321780711
1748428318.748810,0.000000000,0.000000000,0.000000000,4259850.000000000,0.000000000,5.000000000,30.000000000,1748428318724796.000000000,1748428318724729.000000000,-9.929233551,-1.562934875,0.321780711
1748428318.756826,0.000000000,0.000000000,0.000000000,4259850.000000000,0.000000000,5.000000000,30.000000000,1748428318736985.000000000,1748428318736915.000000000,-9.944556236,-1.570596337,0.298796386
1748428318.767788,0.000000000,0.000000000,0.000000000,4259850.000000000,0.000000000,5.000000000,30.000000000,1748428318746734.000000000,1748428318746665.000000000,-9.921571732,-1.539950609,0.314119279
1748428318.777863,0.000000000,0.000000000,0.000000000,4259850.000000000,0.000000000,5.000000000,30.000000000,1748428318756485.000000000,1748428318756416.000000000,-9.967540741,-1.585919261,0.291134924
1748428318.792849,0.000000000,0.000000000,0.000000000,4259850.000000000,0.000000000,5.000000000,30.000000000,1748428318768671.000000000,1748428318768602.000000000,-9.990525246,-1.570596337,0.283473492
1748428318.798888,0.000000000,0.000000000,0.000000000,4259850.000000000,0.000000000,5.000000000,30.000000000,1748428318778432.000000000,1748428318778354.000000000,-9.936894417,-1.555273414,0.268150598
1748428318.807889,0.000000000,0.000000000,0.000000000,4259850.000000000,0.000000000,5.000000000,30.000000000,1748428318788174.000000000,1748428318788102.000000000,-9.959878922,-1.585919261,0.352426499
1748428318.817802,0.000000000,0.000000000,0.000000000,4259850.000000000,0.000000000,5.000000000,30.000000000,1748428318797922.000000000,1748428318797853.000000000,-9.952218056,-1.562934875,0.298796386
1748428318.826802,0.000000000,0.000000000,0.000000000,4259850.000000000,0.000000000,5.000000000,30.000000000,1748428318807693.000000000,1748428318807603.000000000,-9.936894417,-1.585919261,0.375410825
1748428318.837856,0.000000000,0.000000000,0.000000000,4259850.000000000,0.000000000,5.000000000,30.000000000,1748428318817423.000000000,1748428318817354.000000000,-9.883264542,-1.570596337,0.314119279
1748428318.846758,0.000000000,0.000000000,0.000000000,4259850.000000000,0.000000000,5.000000000,30.000000000,1748428318827175.000000000,1748428318827104.000000000,-9.913910866,-1.616564989,0.352426499
1748428318.857868,0.000000000,0.000000000,0.000000000,4259850.000000000,0.000000000,5.000000000,30.000000000,1748428318836924.000000000,1748428318836855.000000000,-9.944556236,-1.524627686,0.344765037
1748428318.872959,0.000000000,0.000000000,0.000000000,4259850.000000000,0.000000000,5.000000000,30.000000000,1748428318849110.000000000,1748428318849042.000000000,-9.921571732,-1.585919261,0.268150598
1748428318.882768,0.000000000,0.000000000,0.000000000,4259850.000000000,0.000000000,5.000000000,30.000000000,1748428318858860.000000000,1748428318858791.000000000,-9.913910866,-1.555273414,0.337103605
1748428318.887811,0.000000000,0.000000000,0.000000000,4259850.000000000,0.000000000,5.000000000,30.000000000,1748428318868610.000000000,1748428318868542.000000000,-9.952218056,-1.555273414,0.314119279
1748428318.897743,0.000000000,0.000000000,0.000000000,4259850.000000000,0.000000000,5.000000000,30.000000000,1748428318875954.000000000,1748428318875856.000000000,-9.952218056,-1.555273414,0.314119279
1748428318.907864,0.000000000,0.000000000,0.000000000,4259850.000000000,0.000000000,5.000000000,30.000000000,1748428318885723.000000000,1748428318885606.000000000,-9.944556236,-1.578257799,0.298796386
1748428318.916810,0.000000000,0.000000000,0.000000000,4259850.000000000,0.000000000,5.000000000,30.000000000,1748428318897863.000000000,1748428318897794.000000000,-9.944556236,-1.601242065,0.329442143
1748428318.927842,0.000000000,0.000000000,0.000000000,4259850.000000000,0.000000000,5.000000000,30.000000000,1748428318907614.000000000,1748428318907545.000000000,-9.944556236,-1.601242065,0.283473492
1748428318.936835,0.000000000,0.000000000,0.000000000,4259850.000000000,0.000000000,5.000000000,30.000000000,1748428318917364.000000000,1748428318917296.000000000,-9.944556236,-1.555273414,0.306457818
1748428318.948794,0.000000000,0.000000000,0.000000000,4259850.000000000,0.000000000,5.000000000,30.000000000,1748428318927115.000000000,1748428318927047.000000000,-9.906249046,-1.562934875,0.283473492
1748428318.956880,0.000000000,0.000000000,0.000000000,4259850.000000000,0.000000000,5.000000000,30.000000000,1748428318936867.000000000,1748428318936798.000000000,-9.921571732,-1.608903527,0.283473492
1748428318.972767,0.000000000,0.000000000,0.000000000,4259850.000000000,0.000000000,5.000000000,30.000000000,1748428318949055.000000000,1748428318948986.000000000,-9.952218056,-1.601242065,0.237504810
1748428318.980758,0.000000000,0.000000000,0.000000000,4259850.000000000,0.000000000,5.000000000,30.000000000,1748428318958806.000000000,1748428318958737.000000000,-9.898587227,-1.555273414,0.306457818
1748428318.990795,0.000000000,0.000000000,0.000000000,4259850.000000000,0.000000000,5.000000000,30.000000000,1748428318968561.000000000,1748428318968488.000000000,-9.913910866,-1.601242065,0.298796386
1748428318.998820,0.000000000,0.000000000,0.000000000,4259850.000000000,0.000000000,5.000000000,30.000000000,1748428318975873.000000000,1748428318975801.000000000,-9.936894417,-1.608903527,0.306457818
1748428319.011760,0.000000000,0.000000000,0.000000000,4259850.000000000,0.000000000,5.000000000,30.000000000,1748428318988060.000000000,1748428318987991.000000000,-9.906249046,-1.562934875,0.329442143
1748428319.019824,0.000000000,0.000000000,0.000000000,4259850.000000000,0.000000000,5.000000000,30.000000000,1748428318997812.000000000,1748428318997743.000000000,-9.952218056,-1.562934875,0.329442143
1748428319.029767,0.000000000,0.000000000,0.000000000,4259850.000000000,0.000000000,5.000000000,30.000000000,1748428319005125.000000000,1748428319005057.000000000,-9.921571732,-1.570596337,0.360087931
1748428319.037854,0.000000000,0.000000000,0.000000000,4259850.000000000,0.000000000,5.000000000,30.000000000,1748428319017314.000000000,1748428319017245.000000000,-9.936894417,-1.562934875,0.291134924
1748428319.047759,0.000000000,0.000000000,0.000000000,4259850.000000000,0.000000000,5.000000000,30.000000000,1748428319027063.000000000,1748428319026995.000000000,-9.975201607,-1.562934875,0.329442143
1748428319.058813,0.000000000,0.000000000,0.000000000,4259850.000000000,0.000000000,5.000000000,30.000000000,1748428319036816.000000000,1748428319036747.000000000,-9.921571732,-1.555273414,0.275812030
1748428319.072767,0.000000000,0.000000000,0.000000000,4259850.000000000,0.000000000,5.000000000,30.000000000,1748428319049006.000000000,1748428319048936.000000000,-9.936894417,-1.532289147,0.291134924
1748428319.082979,0.000000000,0.000000000,0.000000000,4259850.000000000,0.000000000,5.000000000,30.000000000,1748428319058754.000000000,1748428319058685.000000000,-9.936894417,-1.555273414,0.275812030
1748428319.088760,0.000000000,0.000000000,0.000000000,4259850.000000000,0.000000000,5.000000000,30.000000000,1748428319068504.000000000,1748428319068435.000000000,-9.921571732,-1.539950609,0.275812030
1748428319.098816,0.000000000,0.000000000,0.000000000,4259850.000000000,0.000000000,5.000000000,30.000000000,1748428319078253.000000000,1748428319078183.000000000,-9.936894417,-1.570596337,0.291134924
1748428319.107790,0.000000000,0.000000000,0.000000000,4259850.000000000,0.000000000,5.000000000,30.000000000,1748428319088003.000000000,1748428319087932.000000000,-9.944556236,-1.624226451,0.291134924
1748428319.117847,0.000000000,0.000000000,0.000000000,4259850.000000000,0.000000000,5.000000000,30.000000000,1748428319097748.000000000,1748428319097681.000000000,-9.936894417,-1.593580723,0.314119279
1748428319.127849,0.000000000,0.000000000,0.000000000,4259850.000000000,0.000000000,5.000000000,30.000000000,1748428319107498.000000000,1748428319107431.000000000,-9.906249046,-1.593580723,0.314119279
1748428319.137862,0.000000000,0.000000000,0.000000000,4259850.000000000,0.000000000,5.000000000,30.000000000,1748428319117307.000000000,1748428319117180.000000000,-9.944556236,-1.608903527,0.337103605
1748428319.146791,0.000000000,0.000000000,0.000000000,4259850.000000000,0.000000000,5.000000000,30.000000000,1748428319127002.000000000,1748428319126930.000000000,-9.890926361,-1.555273414,0.329442143
1748428319.157830,0.000000000,0.000000000,0.000000000,4259850.000000000,0.000000000,5.000000000,30.000000000,1748428319136747.000000000,1748428319136679.000000000,-9.898587227,-1.539950609,0.268150598
1748428319.166818,0.000000000,0.000000000,0.000000000,4259850.000000000,0.000000000,5.000000000,30.000000000,1748428319146496.000000000,1748428319146427.000000000,-9.906249046,-1.562934875,0.283473492
1748428319.177819,0.000000000,0.000000000,0.000000000,4259850.000000000,0.000000000,5.000000000,30.000000000,1748428319156244.000000000,1748428319156176.000000000,-9.944556236,-1.486320376,0.252827704
1748428319.187842,0.000000000,0.000000000,0.000000000,4259850.000000000,0.000000000,5.000000000,30.000000000,1748428319168433.000000000,1748428319168361.000000000,-9.906249046,-1.516966224,0.291134924
1748428319.197832,0.000000000,0.000000000,0.000000000,4259850.000000000,0.000000000,5.000000000,30.000000000,1748428319178180.000000000,1748428319178110.000000000,-9.936894417,-1.578257799,0.352426499
1748428319.207793,0.000000000,0.000000000,0.000000000,4259850.000000000,0.000000000,5.000000000,30.000000000,1748428319187931.000000000,1748428319187863.000000000,-9.975201607,-1.532289147,0.275812030
1748428319.216817,0.000000000,0.000000000,0.000000000,4259850.000000000,0.000000000,5.000000000,30.000000000,1748428319197679.000000000,1748428319197609.000000000,-9.936894417,-1.601242065,0.321780711
1748428319.227863,0.000000000,0.000000000,0.000000000,4259850.000000000,0.000000000,5.000000000,30.000000000,1748428319207429.000000000,1748428319207357.000000000,-9.906249046,-1.570596337,0.260489136
1748428319.238757,0.000000000,0.000000000,0.000000000,4259850.000000000,0.000000000,5.000000000,30.000000000,1748428319217176.000000000,1748428319217106.000000000,-9.936894417,-1.547611952,0.306457818
1748428319.248799,0.000000000,0.000000000,0.000000000,4259850.000000000,0.000000000,5.000000000,30.000000000,1748428319226925.000000000,1748428319226856.000000000,-9.967540741,-1.608903527,0.306457818
1748428319.258841,0.000000000,0.000000000,0.000000000,4259850.000000000,0.000000000,5.000000000,30.000000000,1748428319236674.000000000,1748428319236605.000000000,-9.921571732,-1.601242065,0.275812030
1748428319.268815,0.000000000,0.000000000,0.000000000,4259850.000000000,0.000000000,5.000000000,30.000000000,1748428319248860.000000000,1748428319248792.000000000,-9.936894417,-1.585919261,0.298796386
1748428319.277826,0.000000000,0.000000000,0.000000000,4259850.000000000,0.000000000,5.000000000,30.000000000,1748428319258608.000000000,1748428319258541.000000000,-9.898587227,-1.631887913,0.298796386
1748428319.287850,0.000000000,0.000000000,0.000000000,4259850.000000000,0.000000000,5.000000000,30.000000000,1748428319265921.000000000,1748428319265853.000000000,-9.906249046,-1.593580723,0.344765037
1748428319.297750,0.000000000,0.000000000,0.000000000,4259850.000000000,0.000000000,5.000000000,30.000000000,1748428319278109.000000000,1748428319278040.000000000,-9.929233551,-1.601242065,0.329442143
1748428319.307822,0.000000000,0.000000000,0.000000000,4259850.000000000,0.000000000,5.000000000,30.000000000,1748428319285420.000000000,1748428319285352.000000000,-9.898587227,-1.631887913,0.329442143
1748428319.316820,0.000000000,0.000000000,0.000000000,4259850.000000000,0.000000000,5.000000000,30.000000000,1748428319297606.000000000,1748428319297537.000000000,-9.929233551,-1.578257799,0.245166257
1748428319.326789,0.000000000,0.000000000,0.000000000,4259850.000000000,0.000000000,5.000000000,30.000000000,1748428319307356.000000000,1748428319307287.000000000,-9.959878922,-1.547611952,0.275812030
1748428319.338879,0.000000000,0.000000000,0.000000000,4259850.000000000,0.000000000,5.000000000,30.000000000,1748428319317106.000000000,1748428319317036.000000000,-9.952218056,-1.516966224,0.252827704
1748428319.346809,0.000000000,0.000000000,0.000000000,4259850.000000000,0.000000000,5.000000000,30.000000000,1748428319326856.000000000,1748428319326785.000000000,-9.944556236,-1.570596337,0.383072287
1748428319.362952,0.000000000,0.000000000,0.000000000,4259850.000000000,0.000000000,5.000000000,30.000000000,1748428319339040.000000000,1748428319338972.000000000,-9.921571732,-1.509304762,0.367749393
1748428319.367847,0.000000000,0.000000000,0.000000000,4259850.000000000,0.000000000,5.000000000,30.000000000,1748428319348890.000000000,1748428319348720.000000000,-9.913910866,-1.539950609,0.329442143
1748428319.378814,0.000000000,0.000000000,0.000000000,4259850.000000000,0.000000000,5.000000000,30.000000000,1748428319358579.000000000,1748428319358467.000000000,-9.944556236,-1.562934875,0.291134924
1748428319.387892,0.000000000,0.000000000,0.000000000,4259850.000000000,0.000000000,5.000000000,30.000000000,1748428319368285.000000000,1748428319368215.000000000,-9.952218056,-1.463336110,0.275812030
1748428319.398843,0.000000000,0.000000000,0.000000000,4259850.000000000,0.000000000,5.000000000,30.000000000,1748428319378032.000000000,1748428319377963.000000000,-9.944556236,-1.547611952,0.268150598
1748428319.408949,0.000000000,0.000000000,0.000000000,4259850.000000000,0.000000000,5.000000000,30.000000000,1748428319387803.000000000,1748428319387733.000000000,-9.959878922,-1.593580723,0.260489136
1748428319.420811,0.000000000,0.000000000,0.000000000,4259850.000000000,0.000000000,5.000000000,30.000000000,1748428319397551.000000000,1748428319397481.000000000,-9.890926361,-1.631887913,0.260489136
1748428319.430760,0.000000000,0.000000000,0.000000000,4259850.000000000,0.000000000,5.000000000,30.000000000,1748428319407298.000000000,1748428319407230.000000000,-9.913910866,-1.647210836,0.298796386
1748428319.437855,0.000000000,0.000000000,0.000000000,4259850.000000000,0.000000000,5.000000000,30.000000000,1748428319417047.000000000,1748428319416979.000000000,-9.913910866,-1.616564989,0.321780711
