__time,/fmu/out/vehicle_acceleration/timestamp,/fmu/out/vehicle_acceleration/timestamp_sample,/fmu/out/vehicle_acceleration/xyz[0],/fmu/out/vehicle_acceleration/xyz[1],/fmu/out/vehicle_acceleration/xyz[2]
1748428316.495828,1748428316493467.000000000,1748428316493388.000000000,-0.011699781,-2.101897955,-9.596837997
1748428316.507871,1748428316503217.000000000,1748428316503138.000000000,-0.021125542,-2.105691910,-9.596073151
1748428316.516749,1748428316512971.000000000,1748428316512889.000000000,-0.022819337,-2.110652924,-9.586134911
1748428316.527792,1748428316522737.000000000,1748428316522639.000000000,-0.032249827,-2.110047817,-9.574343681
1748428316.536838,1748428316532470.000000000,1748428316532390.000000000,-0.051582549,-2.054731846,-9.594863892
1748428316.546865,1748428316542222.000000000,1748428316542141.000000000,-0.079255678,-2.035228491,-9.614278793
1748428316.555790,1748428316551975.000000000,1748428316551892.000000000,-0.064083330,-2.019740820,-9.613525391
1748428316.565841,1748428316561729.000000000,1748428316561643.000000000,-0.034038465,-2.020745993,-9.604383469
1748428316.575793,1748428316571475.000000000,1748428316571393.000000000,-0.048717521,-2.033825397,-9.611259460
1748428316.585796,1748428316581228.000000000,1748428316581144.000000000,-0.033445388,-2.035796642,-9.613921165
1748428316.602792,1748428316595851.000000000,1748428316595769.000000000,-0.017463880,-2.083595991,-9.587420464
1748428316.607798,1748428316600726.000000000,1748428316600644.000000000,-0.019813534,-2.104845285,-9.580370903
1748428316.622816,1748428316615399.000000000,1748428316615272.000000000,-0.011359547,-2.117487669,-9.575856209
1748428316.629970,1748428316625245.000000000,1748428316625020.000000000,-0.016820384,-2.109753370,-9.576457024
1748428316.638772,1748428316634862.000000000,1748428316634771.000000000,-0.040178653,-2.075474024,-9.597334862
1748428316.647756,1748428316644603.000000000,1748428316644520.000000000,-0.036960728,-2.041502476,-9.616373062
1748428316.657942,1748428316654356.000000000,1748428316654271.000000000,-0.050128538,-2.020931959,-9.607916832
1748428316.667806,1748428316659228.000000000,1748428316659146.000000000,-0.074959807,-2.006857634,-9.609382629
1748428316.678848,1748428316673856.000000000,1748428316673772.000000000,-0.058817018,-2.030470848,-9.630147934
1748428316.686817,1748428316683603.000000000,1748428316683523.000000000,-0.022374563,-2.025398493,-9.609323502
1748428316.697782,1748428316688482.000000000,1748428316688399.000000000,-0.035898946,-2.020030022,-9.606434822
1748428316.708769,1748428316698234.000000000,1748428316698151.000000000,-0.021994375,-2.040941000,-9.593216896
1748428316.717795,1748428316707984.000000000,1748428316707900.000000000,-0.037124984,-2.079715490,-9.597757339
1748428316.726862,1748428316722611.000000000,1748428316722526.000000000,-0.028486060,-2.093784571,-9.605176926
1748428316.735816,1748428316732358.000000000,1748428316732276.000000000,-0.029395390,-2.082806587,-9.591253281
1748428316.745810,1748428316742109.000000000,1748428316742027.000000000,-0.047465716,-2.081266165,-9.600026131
1748428316.755769,1748428316751872.000000000,1748428316751778.000000000,-0.032637764,-2.078631401,-9.593547821
1748428316.766817,1748428316761609.000000000,1748428316761528.000000000,-0.061084308,-2.086767912,-9.586421967
1748428316.782779,1748428316771359.000000000,1748428316771279.000000000,-0.048535801,-2.075060606,-9.593892097
1748428316.792830,1748428316785989.000000000,1748428316785905.000000000,-0.042373691,-2.052083254,-9.608807564
1748428316.802772,1748428316795745.000000000,1748428316795658.000000000,-0.042787284,-2.068953991,-9.598075867
1748428316.812852,1748428316805491.000000000,1748428316805406.000000000,-0.017252738,-2.036078453,-9.597458839
1748428316.818766,1748428316815240.000000000,1748428316815156.000000000,-0.019292686,-2.044272661,-9.603202820
1748428316.828769,1748428316820112.000000000,1748428316820030.000000000,-0.026530491,-2.049085140,-9.591440201
1748428316.837860,1748428316834753.000000000,1748428316834655.000000000,-0.025416046,-2.069482565,-9.581159592
1748428316.846793,1748428316839610.000000000,1748428316839530.000000000,-0.023503624,-2.086406708,-9.593678474
1748428316.856868,1748428316854317.000000000,1748428316854155.000000000,-0.060136255,-2.077841043,-9.580471039
1748428316.866805,1748428316859119.000000000,1748428316859030.000000000,-0.059891630,-2.078773975,-9.587388039
1748428316.875810,1748428316873739.000000000,1748428316873655.000000000,-0.019825598,-2.042953730,-9.608969688
1748428316.885838,1748428316883487.000000000,1748428316883405.000000000,-0.057165015,-2.048278570,-9.607570648
1748428316.896837,1748428316893235.000000000,1748428316893155.000000000,-0.039788432,-2.037814856,-9.598314285
1748428316.906878,1748428316902986.000000000,1748428316902905.000000000,-0.039087851,-2.028055191,-9.585349083
1748428316.917761,1748428316912739.000000000,1748428316912655.000000000,-0.063485429,-2.034067392,-9.599783897
1748428316.926828,1748428316922486.000000000,1748428316922405.000000000,-0.019360105,-2.074490070,-9.600628853
1748428316.936805,1748428316932331.000000000,1748428316932154.000000000,-0.000054206,-2.079111338,-9.585296631
1748428316.945823,1748428316941987.000000000,1748428316941904.000000000,-0.031419568,-2.089169979,-9.577521324
1748428316.956923,1748428316951739.000000000,1748428316951654.000000000,-0.056133028,-2.082684040,-9.606706619
1748428316.968789,1748428316961487.000000000,1748428316961404.000000000,-0.050652090,-2.090582132,-9.610597610
1748428316.976793,1748428316971237.000000000,1748428316971153.000000000,-0.047817733,-2.092862606,-9.599481583
1748428316.996836,1748428316990737.000000000,1748428316990652.000000000,-0.036465149,-2.067582846,-9.585316658
1748428317.003849,1748428316995609.000000000,1748428316995527.000000000,-0.039729010,-2.049239874,-9.595350266
1748428317.009747,1748428317000485.000000000,1748428317000402.000000000,-0.037507586,-2.031337976,-9.597500801
1748428317.018799,1748428317010380.000000000,1748428317010152.000000000,-0.022979738,-2.046977520,-9.609783173
1748428317.027851,1748428317024860.000000000,1748428317024777.000000000,-0.031085685,-2.023490191,-9.588485718
1748428317.037764,1748428317034606.000000000,1748428317034525.000000000,-0.034461889,-2.035266161,-9.606125832
1748428317.047767,1748428317044362.000000000,1748428317044274.000000000,-0.053050429,-2.037964106,-9.612869263
1748428317.056870,1748428317054105.000000000,1748428317054023.000000000,-0.048055522,-2.051715612,-9.602853775
1748428317.067819,1748428317063854.000000000,1748428317063772.000000000,-0.038565133,-2.076126337,-9.603348732
1748428317.075849,1748428317073600.000000000,1748428317073521.000000000,-0.055038538,-2.103134394,-9.584493637
1748428317.087832,1748428317083362.000000000,1748428317083270.000000000,-0.040276036,-2.086045504,-9.599785805
1748428317.096827,1748428317093099.000000000,1748428317093019.000000000,-0.033675466,-2.078823328,-9.575744629
1748428317.107849,1748428317097996.000000000,1748428317097893.000000000,-0.028922277,-2.083634853,-9.572230339
1748428317.116811,1748428317112597.000000000,1748428317112516.000000000,-0.023427667,-2.060707331,-9.569306374
1748428317.125796,1748428317122348.000000000,1748428317122265.000000000,-0.017161435,-2.056701422,-9.567134857
1748428317.135844,1748428317132096.000000000,1748428317132014.000000000,-0.017725486,-2.052494764,-9.590606689
1748428317.145759,1748428317141845.000000000,1748428317141763.000000000,-0.020965355,-2.042507172,-9.596516609
1748428317.156839,1748428317151594.000000000,1748428317151513.000000000,-0.034345813,-2.053656816,-9.592043877
1748428317.166795,1748428317161401.000000000,1748428317161263.000000000,-0.031212965,-2.049976587,-9.598805428
1748428317.182804,1748428317175973.000000000,1748428317175888.000000000,-0.033244912,-2.056221008,-9.589339256
1748428317.192743,1748428317185723.000000000,1748428317185638.000000000,-0.034624927,-2.060212612,-9.608510017
1748428317.202756,1748428317195531.000000000,1748428317195387.000000000,-0.020818893,-2.062245607,-9.594714165
1748428317.208765,1748428317200361.000000000,1748428317200261.000000000,-0.013577831,-2.066978455,-9.583576202
1748428317.219754,1748428317210094.000000000,1748428317210010.000000000,-0.041638695,-2.084753990,-9.580681801
1748428317.229748,1748428317224717.000000000,1748428317224634.000000000,-0.027695218,-2.070023775,-9.589390755
1748428317.238907,1748428317229588.000000000,1748428317229508.000000000,-0.030873535,-2.069812775,-9.597433090
1748428317.247798,1748428317244227.000000000,1748428317244133.000000000,-0.041041065,-2.055774689,-9.600903511
1748428317.256758,1748428317249089.000000000,1748428317249008.000000000,-0.050630383,-2.051715374,-9.586214066
1748428317.266829,1748428317258839.000000000,1748428317258758.000000000,-0.036157858,-2.048366785,-9.582968712
1748428317.276752,1748428317273464.000000000,1748428317273385.000000000,-0.031477034,-2.050319195,-9.594102859
1748428317.286770,1748428317283211.000000000,1748428317283131.000000000,-0.037113562,-2.055685997,-9.596262932
1748428317.296755,1748428317293038.000000000,1748428317292882.000000000,-0.044592928,-2.046011209,-9.587147713
1748428317.307834,1748428317302713.000000000,1748428317302632.000000000,-0.034994263,-2.040781021,-9.595318794
1748428317.316803,1748428317312462.000000000,1748428317312381.000000000,-0.033063833,-2.061287165,-9.589274406
1748428317.326784,1748428317322212.000000000,1748428317322130.000000000,-0.031352904,-2.067000628,-9.588927269
1748428317.335809,1748428317331964.000000000,1748428317331881.000000000,-0.040683266,-2.061138868,-9.592791557
1748428317.347817,1748428317341722.000000000,1748428317341630.000000000,-0.017196920,-2.066402674,-9.575754166
1748428317.356820,1748428317351461.000000000,1748428317351380.000000000,-0.014106419,-2.084637642,-9.582907677
1748428317.366844,1748428317361212.000000000,1748428317361130.000000000,-0.022414306,-2.069619894,-9.584836960
1748428317.382816,1748428317375845.000000000,1748428317375754.000000000,-0.027235441,-2.072336912,-9.594473839
1748428317.394760,1748428317385606.000000000,1748428317385525.000000000,-0.047512595,-2.070371151,-9.601108551
1748428317.398851,1748428317390502.000000000,1748428317390400.000000000,-0.052020121,-2.068270683,-9.597602844
1748428317.408762,1748428317400231.000000000,1748428317400149.000000000,-0.071639121,-2.058637381,-9.585509300
1748428317.418955,1748428317414855.000000000,1748428317414773.000000000,-0.047063716,-2.037794352,-9.594800949
1748428317.427821,1748428317424605.000000000,1748428317424523.000000000,-0.049720529,-2.067453384,-9.584056854
1748428317.438749,1748428317434357.000000000,1748428317434272.000000000,-0.029153947,-2.063897848,-9.588631630
1748428317.447806,1748428317444114.000000000,1748428317444023.000000000,-0.013419675,-2.065585852,-9.592876434
1748428317.457830,1748428317453856.000000000,1748428317453772.000000000,-0.045730695,-2.068173170,-9.588540077
1748428317.465797,1748428317463603.000000000,1748428317463523.000000000,-0.029915726,-2.059661150,-9.585307121
1748428317.477792,1748428317473359.000000000,1748428317473273.000000000,-0.017842535,-2.063525677,-9.581830025
1748428317.487810,1748428317483106.000000000,1748428317483024.000000000,-0.017528843,-2.055370092,-9.597166061
1748428317.497795,1748428317492857.000000000,1748428317492775.000000000,-0.051661577,-2.057313442,-9.602473259
1748428317.505833,1748428317502606.000000000,1748428317502526.000000000,-0.039238229,-2.059028149,-9.609063148
1748428317.516740,1748428317507484.000000000,1748428317507401.000000000,-0.056356069,-2.058529615,-9.618528366
1748428317.526724,1748428317522611.000000000,1748428317522515.000000000,-0.038128629,-2.058620214,-9.602766991
1748428317.535804,1748428317532347.000000000,1748428317532266.000000000,-0.029680895,-2.048747540,-9.608418465
1748428317.545971,1748428317542099.000000000,1748428317542016.000000000,-0.049748231,-2.045794725,-9.602129936
1748428317.555802,1748428317551847.000000000,1748428317551766.000000000,-0.051194541,-2.038856745,-9.613258362
1748428317.566792,1748428317561660.000000000,1748428317561516.000000000,-0.024803879,-2.070928812,-9.598000526
1748428317.582925,1748428317576225.000000000,1748428317576143.000000000,-0.017319316,-2.076940298,-9.587140083
1748428317.593803,1748428317585977.000000000,1748428317585894.000000000,-0.028648051,-2.080399990,-9.579391479
1748428317.602801,1748428317595728.000000000,1748428317595645.000000000,-0.027587323,-2.079684734,-9.595706940
1748428317.609842,1748428317605495.000000000,1748428317605395.000000000,-0.029605169,-2.086846828,-9.595104218
1748428317.617880,1748428317615229.000000000,1748428317615145.000000000,-0.036143869,-2.058161259,-9.589735031
1748428317.627907,1748428317624980.000000000,1748428317624896.000000000,-0.030308250,-2.062166691,-9.578952789
1748428317.637746,1748428317634730.000000000,1748428317634647.000000000,-0.031675864,-2.067729712,-9.579926491
1748428317.646799,1748428317639694.000000000,1748428317639523.000000000,-0.034370452,-2.063546896,-9.587194443
1748428317.655870,1748428317649355.000000000,1748428317649272.000000000,-0.038039505,-2.046656609,-9.605093956
1748428317.666745,1748428317659105.000000000,1748428317659022.000000000,-0.041416001,-2.037813425,-9.593549728
1748428317.675869,1748428317673728.000000000,1748428317673648.000000000,-0.023184227,-2.060460091,-9.605295181
1748428317.686741,1748428317683477.000000000,1748428317683398.000000000,-0.039585095,-2.067331553,-9.600520134
1748428317.696745,1748428317693232.000000000,1748428317693148.000000000,-0.062060907,-2.070035458,-9.602699280
1748428317.705842,1748428317702979.000000000,1748428317702899.000000000,-0.051311642,-2.049885988,-9.597777367
1748428317.718865,1748428317712729.000000000,1748428317712649.000000000,-0.027590202,-2.054340124,-9.610711098
1748428317.727808,1748428317722482.000000000,1748428317722398.000000000,-0.021733806,-2.061945200,-9.605584145
1748428317.738757,1748428317732231.000000000,1748428317732149.000000000,-0.023353230,-2.073880672,-9.612436295
1748428317.747827,1748428317741980.000000000,1748428317741899.000000000,-0.023104787,-2.084531784,-9.605305672
1748428317.757763,1748428317751729.000000000,1748428317751648.000000000,-0.038052719,-2.069582701,-9.600591660
1748428317.767766,1748428317761482.000000000,1748428317761398.000000000,-0.032953311,-2.058172226,-9.593070030
1748428317.777786,1748428317771229.000000000,1748428317771147.000000000,-0.038035534,-2.054020882,-9.584118843
1748428317.786833,1748428317780979.000000000,1748428317780898.000000000,-0.047937483,-2.059543371,-9.591764450
1748428317.796899,1748428317790832.000000000,1748428317790648.000000000,-0.040459458,-2.062614918,-9.594174385
1748428317.807867,1748428317805354.000000000,1748428317805272.000000000,-0.016893033,-2.064521074,-9.571276665
1748428317.817786,1748428317810230.000000000,1748428317810146.000000000,-0.007892747,-2.058968067,-9.571201324
1748428317.827857,1748428317824852.000000000,1748428317824769.000000000,-0.041007694,-2.059524536,-9.605992317
1748428317.837789,1748428317834601.000000000,1748428317834518.000000000,-0.045270104,-2.059894562,-9.600403786
1748428317.848740,1748428317844358.000000000,1748428317844267.000000000,-0.041691493,-2.065301657,-9.587159157
1748428317.856804,1748428317854102.000000000,1748428317854017.000000000,-0.034440685,-2.074465036,-9.572957039
1748428317.867847,1748428317863849.000000000,1748428317863766.000000000,-0.029351834,-2.081419706,-9.600138664
1748428317.876771,1748428317873602.000000000,1748428317873516.000000000,-0.043016575,-2.077571392,-9.602958679
1748428317.887987,1748428317883346.000000000,1748428317883266.000000000,-0.039395474,-2.057406902,-9.611394882
1748428317.896826,1748428317893114.000000000,1748428317893016.000000000,-0.011154182,-2.069366693,-9.597778320
1748428317.907833,1748428317897975.000000000,1748428317897892.000000000,-0.014231732,-2.062089205,-9.598365784
1748428317.916792,1748428317912600.000000000,1748428317912518.000000000,-0.045227349,-2.065294981,-9.608725548
1748428317.926732,1748428317917477.000000000,1748428317917393.000000000,-0.049709830,-2.084247351,-9.617485046
1748428317.935861,1748428317932101.000000000,1748428317932018.000000000,-0.026671141,-2.081393003,-9.609964371
1748428317.945805,1748428317941850.000000000,1748428317941768.000000000,-0.030135918,-2.085278273,-9.613075256
1748428317.956804,1748428317951607.000000000,1748428317951519.000000000,-0.032163460,-2.053379297,-9.594167709
1748428317.968816,1748428317961351.000000000,1748428317961269.000000000,-0.035925619,-2.054031372,-9.586993217
1748428317.982880,1748428317975999.000000000,1748428317975894.000000000,-0.014769674,-2.073680639,-9.600396156
1748428317.992841,1748428317985743.000000000,1748428317985646.000000000,-0.013779407,-2.054903507,-9.583828926
1748428317.998811,1748428317990613.000000000,1748428317990519.000000000,-0.020900393,-2.060009003,-9.575600624
1748428318.009751,1748428318005229.000000000,1748428318005145.000000000,-0.026991714,-2.055264473,-9.606117249
1748428318.019812,1748428318014977.000000000,1748428318014895.000000000,-0.037803028,-2.061023712,-9.597653389
1748428318.028822,1748428318024829.000000000,1748428318024645.000000000,-0.039926451,-2.058154583,-9.589317322
1748428318.038850,1748428318034480.000000000,1748428318034395.000000000,-0.051131956,-2.057696819,-9.591668129
1748428318.048771,1748428318044235.000000000,1748428318044146.000000000,-0.072574496,-2.047531366,-9.596147537
1748428318.057865,1748428318049105.000000000,1748428318049021.000000000,-0.069309212,-2.046988964,-9.600339890
1748428318.066750,1748428318063728.000000000,1748428318063648.000000000,-0.039881006,-2.056519270,-9.599141121
1748428318.076765,1748428318068605.000000000,1748428318068524.000000000,-0.033635560,-2.068171263,-9.607212067
1748428318.085841,1748428318083250.000000000,1748428318083149.000000000,-0.025279216,-2.058229685,-9.589007378
1748428318.095801,1748428318092984.000000000,1748428318092899.000000000,-0.025258098,-2.061003923,-9.601860046
1748428318.106774,1748428318102863.000000000,1748428318102649.000000000,-0.025029073,-2.065227032,-9.579169273
1748428318.115852,1748428318112483.000000000,1748428318112400.000000000,-0.012850885,-2.084892511,-9.584869385
1748428318.126870,1748428318122233.000000000,1748428318122150.000000000,-0.015021242,-2.086958170,-9.595578194
1748428318.136733,1748428318131982.000000000,1748428318131900.000000000,-0.024958979,-2.063471556,-9.589210510
1748428318.146854,1748428318141730.000000000,1748428318141650.000000000,-0.047098130,-2.070461750,-9.592228889
1748428318.156795,1748428318151482.000000000,1748428318151400.000000000,-0.050346199,-2.069034576,-9.603995323
1748428318.172848,1748428318166108.000000000,1748428318166024.000000000,-0.048051041,-2.052776337,-9.612287521
1748428318.182814,1748428318175949.000000000,1748428318175773.000000000,-0.041080777,-2.056132078,-9.590637207
1748428318.188797,1748428318180951.000000000,1748428318180649.000000000,-0.040974766,-2.061304569,-9.595148087
1748428318.198796,1748428318195357.000000000,1748428318195274.000000000,-0.029387681,-2.037580252,-9.596939087
1748428318.206815,1748428318200231.000000000,1748428318200149.000000000,-0.027900463,-2.042462111,-9.599674225
1748428318.218756,1748428318209981.000000000,1748428318209899.000000000,-0.011835335,-2.053832054,-9.602730751
1748428318.227855,1748428318224620.000000000,1748428318224523.000000000,-0.032088049,-2.057494164,-9.599276543
1748428318.237751,1748428318234355.000000000,1748428318234272.000000000,-0.037873425,-2.052659273,-9.591711044
1748428318.246887,1748428318244114.000000000,1748428318244022.000000000,-0.044713479,-2.063388586,-9.596292496
1748428318.257841,1748428318253893.000000000,1748428318253772.000000000,-0.047767386,-2.054572344,-9.590323448
1748428318.266784,1748428318263600.000000000,1748428318263521.000000000,-0.053602882,-2.052389622,-9.610032082
1748428318.277802,1748428318273350.000000000,1748428318273271.000000000,-0.035299644,-2.052548647,-9.608478546
1748428318.286749,1748428318283103.000000000,1748428318283020.000000000,-0.025217727,-2.059034586,-9.593530655
1748428318.296862,1748428318292853.000000000,1748428318292770.000000000,-0.027817301,-2.058043242,-9.595693588
1748428318.306765,1748428318302601.000000000,1748428318302520.000000000,-0.034839656,-2.065944910,-9.603450775
1748428318.317813,1748428318307479.000000000,1748428318307395.000000000,-0.043796331,-2.078166485,-9.604224205
1748428318.327751,1748428318322108.000000000,1748428318322020.000000000,-0.035604946,-2.063805580,-9.587625504
1748428318.336813,1748428318331927.000000000,1748428318331770.000000000,-0.039331213,-2.062761545,-9.593288422
1748428318.347811,1748428318341601.000000000,1748428318341519.000000000,-0.028330078,-2.049669027,-9.587400436
1748428318.357763,1748428318351350.000000000,1748428318351269.000000000,-0.029550757,-2.048695803,-9.586237907
1748428318.373023,1748428318365979.000000000,1748428318365894.000000000,-0.042746644,-2.055920601,-9.607238770
1748428318.382853,1748428318375742.000000000,1748428318375644.000000000,-0.057631727,-2.062921286,-9.601815224
1748428318.388808,1748428318385476.000000000,1748428318385393.000000000,-0.037976094,-2.060455322,-9.585390091
1748428318.398808,1748428318390374.000000000,1748428318390293.000000000,-0.035197560,-2.060215712,-9.587615967
1748428318.409906,1748428318405001.000000000,1748428318404918.000000000,-0.035123687,-2.053935051,-9.588490486
1748428318.418829,1748428318414750.000000000,1748428318414668.000000000,-0.041912738,-2.047810793,-9.583103180
1748428318.428757,1748428318424502.000000000,1748428318424419.000000000,-0.030032493,-2.045638323,-9.592407227
1748428318.437803,1748428318434254.000000000,1748428318434169.000000000,-0.011996990,-2.060240030,-9.589573860
1748428318.446866,1748428318439126.000000000,1748428318439044.000000000,-0.013040941,-2.062225580,-9.584590912
1748428318.455847,1748428318453749.000000000,1748428318453670.000000000,-0.035050035,-2.077760696,-9.589076042
1748428318.466747,1748428318458627.000000000,1748428318458545.000000000,-0.038787454,-2.083748817,-9.584085464
1748428318.476893,1748428318468375.000000000,1748428318468295.000000000,-0.033631627,-2.071188927,-9.580773354
1748428318.486761,1748428318483000.000000000,1748428318482919.000000000,-0.039319061,-2.084451437,-9.591978073
1748428318.496814,1748428318492751.000000000,1748428318492669.000000000,-0.055350352,-2.088043928,-9.585787773
1748428318.505784,1748428318502499.000000000,1748428318502419.000000000,-0.058683783,-2.087510347,-9.593588829
1748428318.516843,1748428318512251.000000000,1748428318512168.000000000,-0.047450192,-2.074792862,-9.597492218
1748428318.526729,1748428318522001.000000000,1748428318521918.000000000,-0.044811800,-2.070034504,-9.594052315
1748428318.537745,1748428318531749.000000000,1748428318531668.000000000,-0.032113720,-2.056649923,-9.596363068
1748428318.546781,1748428318541499.000000000,1748428318541418.000000000,-0.033908933,-2.037964344,-9.591714859
1748428318.562862,1748428318556132.000000000,1748428318556044.000000000,-0.047409724,-2.050996065,-9.584761620
1748428318.572854,1748428318565916.000000000,1748428318565795.000000000,-0.043919344,-2.065416813,-9.595379829
1748428318.578856,1748428318575629.000000000,1748428318575545.000000000,-0.029144330,-2.080600739,-9.598416328
1748428318.587856,1748428318585380.000000000,1748428318585296.000000000,-0.017164456,-2.051922798,-9.598937035
1748428318.596860,1748428318590255.000000000,1748428318590171.000000000,-0.017680598,-2.041841745,-9.591582298
1748428318.606801,1748428318600004.000000000,1748428318599921.000000000,-0.031183431,-2.051942825,-9.591669083
1748428318.616865,1748428318609752.000000000,1748428318609671.000000000,-0.013579622,-2.064317942,-9.595926285
1748428318.627769,1748428318624381.000000000,1748428318624298.000000000,-0.049887586,-2.066262245,-9.585342407
1748428318.636876,1748428318634130.000000000,1748428318634048.000000000,-0.035225697,-2.081332922,-9.583694458
1748428318.647817,1748428318643899.000000000,1748428318643799.000000000,-0.037055492,-2.074206352,-9.577949524
1748428318.656798,1748428318653629.000000000,1748428318653550.000000000,-0.051327471,-2.067030430,-9.586162567
1748428318.668823,1748428318663869.000000000,1748428318663787.000000000,-0.046828829,-2.057903051,-9.593439102
1748428318.676799,1748428318673617.000000000,1748428318673537.000000000,-0.034399662,-2.059356928,-9.593093872
1748428318.687925,1748428318683419.000000000,1748428318683288.000000000,-0.021567663,-2.066029072,-9.585779190
1748428318.696843,1748428318693122.000000000,1748428318693039.000000000,-0.025537992,-2.064585686,-9.585268021
1748428318.706880,1748428318702872.000000000,1748428318702790.000000000,-0.027391680,-2.061726332,-9.606880188
1748428318.715810,1748428318712622.000000000,1748428318712541.000000000,-0.022732368,-2.049713373,-9.597730637
1748428318.728821,1748428318722373.000000000,1748428318722291.000000000,-0.037203658,-2.046419621,-9.578000069
1748428318.737852,1748428318732189.000000000,1748428318732042.000000000,-0.025996098,-2.052186251,-9.593764305
1748428318.746847,1748428318741873.000000000,1748428318741790.000000000,-0.032945782,-2.062497139,-9.595293999
1748428318.757849,1748428318751629.000000000,1748428318751540.000000000,-0.050452374,-2.051516771,-9.600267410
1748428318.767803,1748428318761373.000000000,1748428318761290.000000000,-0.047491860,-2.066413879,-9.611105919
1748428318.779802,1748428318771122.000000000,1748428318771040.000000000,-0.041201707,-2.060078382,-9.617558479
1748428318.793780,1748428318785749.000000000,1748428318785665.000000000,-0.017550446,-2.058751822,-9.591609001
1748428318.799776,1748428318795498.000000000,1748428318795415.000000000,-0.039055586,-2.064558268,-9.597284317
1748428318.808745,1748428318805247.000000000,1748428318805165.000000000,-0.037564065,-2.059221983,-9.593566895
1748428318.817849,1748428318815001.000000000,1748428318814916.000000000,-0.055109840,-2.065312386,-9.590527534
1748428318.827765,1748428318824752.000000000,1748428318824666.000000000,-0.039872166,-2.067293882,-9.595583916
1748428318.837956,1748428318834499.000000000,1748428318834417.000000000,-0.042368658,-2.075965881,-9.608305931
1748428318.846838,1748428318844256.000000000,1748428318844167.000000000,-0.039787896,-2.065662861,-9.604477882
1748428318.856863,1748428318849123.000000000,1748428318849042.000000000,-0.033168010,-2.074696064,-9.592768669
1748428318.866765,1748428318858873.000000000,1748428318858791.000000000,-0.030001843,-2.064453840,-9.588013649
1748428318.876859,1748428318868623.000000000,1748428318868542.000000000,-0.037128385,-2.059736729,-9.587144852
1748428318.886798,1748428318883249.000000000,1748428318883168.000000000,-0.041328050,-2.068036795,-9.613254547
1748428318.896011,1748428318893004.000000000,1748428318892918.000000000,-0.037431896,-2.063803911,-9.606512070
1748428318.906844,1748428318902751.000000000,1748428318902669.000000000,-0.028811889,-2.059504271,-9.598146439
1748428318.915843,1748428318912503.000000000,1748428318912420.000000000,-0.022682162,-2.069098234,-9.589039803
1748428318.927762,1748428318922253.000000000,1748428318922171.000000000,-0.020058660,-2.053975582,-9.599774361
1748428318.935858,1748428318932005.000000000,1748428318931923.000000000,-0.023666179,-2.062140703,-9.603085518
1748428318.947833,1748428318941756.000000000,1748428318941673.000000000,-0.027612671,-2.075582504,-9.584837914
1748428318.957838,1748428318951506.000000000,1748428318951424.000000000,-0.011012090,-2.062934160,-9.591577530
1748428318.972858,1748428318966291.000000000,1748428318966051.000000000,-0.049948771,-2.065036774,-9.582706451
1748428318.980809,1748428318975901.000000000,1748428318975801.000000000,-0.051284865,-2.072168589,-9.590646744
1748428318.989812,1748428318980760.000000000,1748428318980677.000000000,-0.037573092,-2.077481985,-9.601319313
1748428319.000799,1748428318990511.000000000,1748428318990429.000000000,-0.029469276,-2.086004257,-9.599852562
1748428319.009886,1748428319000262.000000000,1748428319000181.000000000,-0.052054591,-2.068908930,-9.588665962
1748428319.019855,1748428319014891.000000000,1748428319014808.000000000,-0.059712004,-2.058100224,-9.590684891
1748428319.028824,1748428319019764.000000000,1748428319019683.000000000,-0.055851769,-2.059397221,-9.593451500
1748428319.039766,1748428319034392.000000000,1748428319034309.000000000,-0.053110395,-2.057783604,-9.608505249
1748428319.047879,1748428319044158.000000000,1748428319044060.000000000,-0.034948073,-2.059403658,-9.595438957
1748428319.058819,1748428319053893.000000000,1748428319053811.000000000,-0.033011973,-2.057175159,-9.593338966
1748428319.065861,1748428319063638.000000000,1748428319063559.000000000,-0.012785699,-2.057316303,-9.589470863
1748428319.078756,1748428319073404.000000000,1748428319073309.000000000,-0.020940414,-2.063744545,-9.588979721
1748428319.087811,1748428319083141.000000000,1748428319083058.000000000,-0.027519267,-2.074393511,-9.591247559
1748428319.097865,1748428319092887.000000000,1748428319092806.000000000,-0.022917505,-2.090701580,-9.582122803
1748428319.106804,1748428319102639.000000000,1748428319102556.000000000,-0.029375810,-2.091932297,-9.594777107
1748428319.116862,1748428319112386.000000000,1748428319112306.000000000,-0.035877340,-2.093886375,-9.574892044
1748428319.127768,1748428319122145.000000000,1748428319122055.000000000,-0.051725585,-2.088185072,-9.561861992
1748428319.136816,1748428319131887.000000000,1748428319131805.000000000,-0.038207114,-2.071567774,-9.587092400
1748428319.146872,1748428319141635.000000000,1748428319141553.000000000,-0.034985371,-2.050591707,-9.601657867
1748428319.156801,1748428319151383.000000000,1748428319151301.000000000,-0.035143659,-2.047104120,-9.597434998
1748428319.167775,1748428319161131.000000000,1748428319161050.000000000,-0.019376462,-2.006901026,-9.603094101
1748428319.178768,1748428319170896.000000000,1748428319170799.000000000,-0.047908142,-2.002476454,-9.587244034
1748428319.188753,1748428319185507.000000000,1748428319185422.000000000,-0.065034270,-2.034130096,-9.613710403
1748428319.197867,1748428319195357.000000000,1748428319195171.000000000,-0.040101551,-2.049503088,-9.608490944
1748428319.207860,1748428319205005.000000000,1748428319204920.000000000,-0.027955055,-2.076151133,-9.591897964
1748428319.217831,1748428319214754.000000000,1748428319214669.000000000,-0.032278977,-2.080109119,-9.582819939
1748428319.228771,1748428319224500.000000000,1748428319224418.000000000,-0.041280545,-2.073476553,-9.598738670
1748428319.238811,1748428319234250.000000000,1748428319234167.000000000,-0.048154131,-2.083229780,-9.603775024
1748428319.249778,1748428319244001.000000000,1748428319243917.000000000,-0.028331993,-2.085550308,-9.582083702
1748428319.257888,1748428319253746.000000000,1748428319253666.000000000,-0.023805160,-2.069093466,-9.591416359
1748428319.267810,1748428319258621.000000000,1748428319258541.000000000,-0.020295367,-2.075929403,-9.586152077
1748428319.276776,1748428319273390.000000000,1748428319273165.000000000,-0.031767532,-2.085054636,-9.585420609
1748428319.286896,1748428319282997.000000000,1748428319282915.000000000,-0.028369578,-2.081410170,-9.597368240
1748428319.295864,1748428319292747.000000000,1748428319292663.000000000,-0.025588881,-2.098626852,-9.591736794
1748428319.305850,1748428319302493.000000000,1748428319302412.000000000,-0.004898568,-2.091548204,-9.579882622
1748428319.315862,1748428319312243.000000000,1748428319312161.000000000,-0.025170673,-2.075829506,-9.587618828
1748428319.325924,1748428319321997.000000000,1748428319321911.000000000,-0.041866470,-2.064138174,-9.593285561
1748428319.338760,1748428319331742.000000000,1748428319331660.000000000,-0.040545411,-2.043623686,-9.606814384
1748428319.347756,1748428319341490.000000000,1748428319341409.000000000,-0.034929182,-2.023093700,-9.600180626
1748428319.363771,1748428319356113.000000000,1748428319356030.000000000,-0.035089545,-2.019821167,-9.599105835
1748428319.368831,1748428319365864.000000000,1748428319365778.000000000,-0.029368520,-2.026873112,-9.612527847
1748428319.378869,1748428319375608.000000000,1748428319375525.000000000,-0.044281773,-2.022912025,-9.625213623
1748428319.388752,1748428319385359.000000000,1748428319385274.000000000,-0.022145024,-2.046897411,-9.599115372
1748428319.398766,1748428319390229.000000000,1748428319390149.000000000,-0.012746210,-2.066971779,-9.594038010
1748428319.409765,1748428319404877.000000000,1748428319404793.000000000,0.002289247,-2.108782530,-9.565348625
1748428319.417864,1748428319409748.000000000,1748428319409667.000000000,-0.005203673,-2.123367548,-9.576970100
1748428319.429759,1748428319419496.000000000,1748428319419416.000000000,-0.015925514,-2.113052607,-9.591505051
1748428319.438860,1748428319434119.000000000,1748428319434038.000000000,-0.019043552,-2.090314627,-9.577292442
1748428319.447824,1748428319443871.000000000,1748428319443785.000000000,-0.037844602,-2.073315382,-9.585300446
1748428319.456765,1748428319453626.000000000,1748428319453533.000000000,-0.038269911,-2.071180582,-9.592063904
1748428319.466891,1748428319463365.000000000,1748428319463282.000000000,-0.051842812,-2.050023079,-9.603540421
1748428319.476972,1748428319473112.000000000,1748428319473031.000000000,-0.068043366,-2.030879498,-9.606941223
1748428319.487763,1748428319482862.000000000,1748428319482780.000000000,-0.049629573,-2.022330761,-9.580681801
1748428319.495851,1748428319492610.000000000,1748428319492529.000000000,-0.035913143,-2.023649454,-9.590237617
1748428319.507830,1748428319502477.000000000,1748428319502276.000000000,-0.032320686,-2.031289101,-9.607448578
1748428319.516824,1748428319512106.000000000,1748428319512024.000000000,-0.019259635,-2.031274319,-9.602931976
1748428319.527820,1748428319521854.000000000,1748428319521772.000000000,-0.018006083,-2.073646307,-9.592351913
1748428319.537784,1748428319531600.000000000,1748428319531519.000000000,-0.012457271,-2.089049339,-9.593910217
1748428319.546910,1748428319541353.000000000,1748428319541268.000000000,-0.025158234,-2.093201876,-9.598485947
1748428319.557845,1748428319551174.000000000,1748428319551015.000000000,-0.022187106,-2.090266228,-9.594931602
1748428319.567758,1748428319560843.000000000,1748428319560762.000000000,-0.027647847,-2.078656912,-9.602241516
1748428319.578763,1748428319575481.000000000,1748428319575382.000000000,-0.040497229,-2.080056429,-9.594228745
1748428319.588810,1748428319585213.000000000,1748428319585129.000000000,-0.031706270,-2.069242954,-9.587025642
1748428319.597840,1748428319594962.000000000,1748428319594875.000000000,-0.031245667,-2.054472446,-9.587429047
1748428319.607790,1748428319604706.000000000,1748428319604623.000000000,-0.038592424,-2.060947418,-9.598211288
1748428319.617839,1748428319614459.000000000,1748428319614370.000000000,-0.036593359,-2.070533752,-9.603140831
1748428319.626842,1748428319624204.000000000,1748428319624118.000000000,-0.037156224,-2.074325323,-9.573451996
1748428319.637847,1748428319633951.000000000,1748428319633866.000000000,-0.023970973,-2.064711094,-9.582289696
1748428319.646785,1748428319643692.000000000,1748428319643613.000000000,-0.039424781,-2.075640678,-9.589956284
1748428319.657860,1748428319653531.000000000,1748428319653360.000000000,-0.033991791,-2.084309816,-9.589877129
1748428319.666812,1748428319663192.000000000,1748428319663108.000000000,-0.006647763,-2.070718765,-9.604429245
1748428319.676793,1748428319668064.000000000,1748428319667982.000000000,-0.015428745,-2.058079004,-9.599273682
1748428319.687865,1748428319682685.000000000,1748428319682604.000000000,-0.048330754,-2.037152767,-9.598134041
1748428319.695853,1748428319692434.000000000,1748428319692352.000000000,-0.054019555,-2.031646967,-9.599707603
1748428319.706854,1748428319702192.000000000,1748428319702100.000000000,-0.048303429,-2.035410881,-9.590287209
1748428319.715862,1748428319711932.000000000,1748428319711848.000000000,-0.036720257,-2.034054756,-9.600079536
1748428319.727821,1748428319721678.000000000,1748428319721597.000000000,-0.014231965,-2.043008089,-9.597429276
1748428319.737811,1748428319731543.000000000,1748428319731347.000000000,-0.025958844,-2.055440187,-9.602718353
1748428319.750831,1748428319746069.000000000,1748428319745971.000000000,-0.004181068,-2.076660395,-9.590360641
1748428319.758803,1748428319755813.000000000,1748428319755720.000000000,-0.017425269,-2.078074217,-9.591999054
1748428319.768857,1748428319765552.000000000,1748428319765468.000000000,-0.040271446,-2.090112448,-9.585904121
1748428319.777863,1748428319775303.000000000,1748428319775218.000000000,-0.021605972,-2.102958918,-9.591650963
1748428319.787846,1748428319785050.000000000,1748428319784967.000000000,-0.043044258,-2.094203949,-9.592629433
1748428319.797808,1748428319794803.000000000,1748428319794716.000000000,-0.048625711,-2.056023598,-9.578597069
1748428319.807804,1748428319799672.000000000,1748428319799591.000000000,-0.037016112,-2.038692713,-9.582260132
1748428319.816810,1748428319809578.000000000,1748428319809339.000000000,-0.051639512,-2.033159018,-9.600356102
1748428319.826939,1748428319819656.000000000,1748428319819575.000000000,-0.047715589,-2.022468328,-9.610740662
1748428319.837819,1748428319834279.000000000,1748428319834197.000000000,-0.032002363,-2.029603004,-9.597620964
1748428319.846827,1748428319844032.000000000,1748428319843946.000000000,-0.034279607,-2.027540207,-9.606486320
1748428319.856865,1748428319853775.000000000,1748428319853695.000000000,-0.034292217,-2.049555779,-9.593782425
1748428319.865844,1748428319863524.000000000,1748428319863444.000000000,-0.034677211,-2.067502975,-9.569700241
1748428319.877774,1748428319873274.000000000,1748428319873193.000000000,-0.023613784,-2.070386648,-9.585865021
1748428319.885890,1748428319883025.000000000,1748428319882942.000000000,-0.023825679,-2.070351839,-9.590652466
1748428319.897921,1748428319892772.000000000,1748428319892691.000000000,-0.038418952,-2.087615728,-9.585880280
1748428319.906805,1748428319902527.000000000,1748428319902440.000000000,-0.063799605,-2.089337111,-9.589568138
1748428319.917782,1748428319912269.000000000,1748428319912189.000000000,-0.047988255,-2.083200455,-9.585080147
1748428319.925862,1748428319922024.000000000,1748428319921938.000000000,-0.068971023,-2.065326214,-9.594238281
1748428319.936823,1748428319931771.000000000,1748428319931689.000000000,-0.055663139,-2.047352552,-9.600463867
1748428319.946848,1748428319941520.000000000,1748428319941437.000000000,-0.032940648,-2.041687012,-9.603370667
1748428319.956835,1748428319951268.000000000,1748428319951186.000000000,-0.030286251,-2.033113480,-9.609015465
1748428319.968792,1748428319961019.000000000,1748428319960935.000000000,-0.040284600,-2.040639877,-9.590480804
1748428319.978862,1748428319970765.000000000,1748428319970684.000000000,-0.033243004,-2.059158325,-9.602565765
1748428319.989765,1748428319980525.000000000,1748428319980433.000000000,-0.060411770,-2.045037031,-9.593733788
1748428319.998761,1748428319990262.000000000,1748428319990183.000000000,-0.033660579,-2.046517372,-9.609543800
1748428320.010761,1748428320004891.000000000,1748428320004808.000000000,-0.013753348,-2.059981346,-9.583041191
1748428320.018860,1748428320014636.000000000,1748428320014554.000000000,-0.049803391,-2.069300175,-9.606313705
1748428320.028871,1748428320024389.000000000,1748428320024303.000000000,-0.039546181,-2.064996243,-9.596732140
1748428320.038751,1748428320034136.000000000,1748428320034054.000000000,-0.055801343,-2.067090511,-9.576053619
1748428320.047800,1748428320043882.000000000,1748428320043803.000000000,-0.053900898,-2.074594259,-9.600187302
1748428320.056846,1748428320053755.000000000,1748428320053552.000000000,-0.031683873,-2.069540024,-9.599082947
1748428320.067826,1748428320058511.000000000,1748428320058428.000000000,-0.014551491,-2.059593678,-9.593499184
1748428320.076826,1748428320073137.000000000,1748428320073053.000000000,-0.035008624,-2.048086882,-9.601742744
1748428320.086808,1748428320078013.000000000,1748428320077928.000000000,-0.021585384,-2.059338331,-9.605159760
1748428320.096761,1748428320092639.000000000,1748428320092553.000000000,-0.012451242,-2.084888697,-9.598386765
1748428320.106854,1748428320102385.000000000,1748428320102304.000000000,-0.017719233,-2.081602812,-9.599389076
1748428320.116858,1748428320112135.000000000,1748428320112054.000000000,-0.035274424,-2.069710732,-9.598036766
1748428320.126764,1748428320121885.000000000,1748428320121804.000000000,-0.041946709,-2.075685263,-9.593991280
1748428320.137821,1748428320131782.000000000,1748428320131553.000000000,-0.036440659,-2.078716755,-9.591862679
1748428320.153823,1748428320146321.000000000,1748428320146176.000000000,-0.029146364,-2.083637238,-9.597072601
1748428320.159792,1748428320156023.000000000,1748428320155935.000000000,-0.023304529,-2.073046684,-9.586788177
1748428320.168870,1748428320165759.000000000,1748428320165674.000000000,-0.039549518,-2.058789968,-9.587765694
1748428320.178898,1748428320175507.000000000,1748428320175424.000000000,-0.015873356,-2.066629887,-9.576652527
1748428320.187848,1748428320185258.000000000,1748428320185175.000000000,-0.019165182,-2.069253922,-9.581387520
1748428320.198830,1748428320195010.000000000,1748428320194924.000000000,-0.028085437,-2.042946339,-9.622776031
1748428320.207820,1748428320204781.000000000,1748428320204675.000000000,-0.049739782,-2.057775021,-9.597846985
1748428320.216818,1748428320209638.000000000,1748428320209548.000000000,-0.041743703,-2.077984810,-9.603618622
1748428320.226861,1748428320224256.000000000,1748428320224174.000000000,-0.043773331,-2.083438158,-9.588397026
1748428320.236797,1748428320229129.000000000,1748428320229049.000000000,-0.034147780,-2.066879272,-9.602719307
1748428320.247820,1748428320243821.000000000,1748428320243672.000000000,-0.036810532,-2.039755344,-9.602278709
1748428320.256951,1748428320253502.000000000,1748428320253421.000000000,-0.025877878,-2.045946598,-9.635076523
1748428320.267799,1748428320263258.000000000,1748428320263170.000000000,-0.040128238,-2.042125940,-9.600706100
1748428320.276772,1748428320273004.000000000,1748428320272921.000000000,-0.035066266,-2.040147781,-9.600834846
1748428320.287864,1748428320282818.000000000,1748428320282671.000000000,-0.056374095,-2.062569380,-9.605828285
1748428320.297790,1748428320292502.000000000,1748428320292421.000000000,-0.050103672,-2.048235655,-9.585854530
1748428320.307881,1748428320302251.000000000,1748428320302171.000000000,-0.041383840,-2.061466932,-9.581792831
1748428320.316812,1748428320312003.000000000,1748428320311920.000000000,-0.050446138,-2.068254709,-9.587930679
1748428320.327766,1748428320321751.000000000,1748428320321670.000000000,-0.016499689,-2.082624197,-9.606816292
1748428320.337917,1748428320331500.000000000,1748428320331420.000000000,-0.023607846,-2.090325832,-9.579505920
1748428320.347801,1748428320341280.000000000,1748428320341170.000000000,-0.042929657,-2.072836637,-9.598307610
1748428320.358828,1748428320355880.000000000,1748428320355795.000000000,-0.033706367,-2.057082415,-9.599036217
1748428320.367769,1748428320360852.000000000,1748428320360670.000000000,-0.038782850,-2.054148436,-9.606316566
1748428320.376834,1748428320370503.000000000,1748428320370420.000000000,-0.043959387,-2.029988050,-9.602362633
1748428320.387811,1748428320380250.000000000,1748428320380169.000000000,-0.030726232,-2.044131041,-9.608698845
1748428320.397805,1748428320394878.000000000,1748428320394793.000000000,-0.047824848,-2.042938232,-9.580739975
1748428320.407825,1748428320399772.000000000,1748428320399690.000000000,-0.060398486,-2.037595987,-9.576988220
1748428320.418797,1748428320414400.000000000,1748428320414315.000000000,-0.044017155,-2.063726187,-9.575385094
1748428320.427837,1748428320424147.000000000,1748428320424065.000000000,-0.034017254,-2.077000380,-9.593652725
1748428320.438834,1748428320433959.000000000,1748428320433816.000000000,-0.035697918,-2.080404520,-9.606376648
1748428320.446807,1748428320443657.000000000,1748428320443567.000000000,-0.022677710,-2.094963312,-9.581821442
1748428320.458758,1748428320453399.000000000,1748428320453316.000000000,-0.021579530,-2.116819143,-9.591964722
1748428320.467770,1748428320463155.000000000,1748428320463066.000000000,-0.027961439,-2.091521025,-9.579815865
1748428320.477971,1748428320468025.000000000,1748428320467941.000000000,-0.023354955,-2.086969137,-9.561891556
1748428320.486766,1748428320482644.000000000,1748428320482564.000000000,-0.036459804,-2.060177803,-9.596787453
1748428320.496817,1748428320492398.000000000,1748428320492314.000000000,-0.036393054,-2.047461033,-9.590598106
1748428320.506784,1748428320502146.000000000,1748428320502064.000000000,-0.039949752,-2.041260958,-9.573359489
1748428320.516756,1748428320511903.000000000,1748428320511813.000000000,-0.059959646,-2.054298162,-9.595361710
1748428320.528763,1748428320521643.000000000,1748428320521563.000000000,-0.073591217,-2.051199913,-9.605909348
1748428320.536856,1748428320531426.000000000,1748428320531313.000000000,-0.054113019,-2.050032139,-9.588165283
1748428320.548811,1748428320546022.000000000,1748428320545937.000000000,-0.042731605,-2.047572374,-9.599353790
1748428320.558749,1748428320555772.000000000,1748428320555686.000000000,-0.028936116,-2.048950672,-9.588949203
1748428320.568806,1748428320565529.000000000,1748428320565436.000000000,-0.018033609,-2.043859720,-9.595635414
1748428320.577842,1748428320575268.000000000,1748428320575185.000000000,-0.036455598,-2.064928055,-9.595896721
1748428320.588805,1748428320585020.000000000,1748428320584934.000000000,-0.021132514,-2.071386576,-9.570599556
1748428320.597857,1748428320594774.000000000,1748428320594683.000000000,-0.022025924,-2.076539278,-9.583635330
1748428320.607868,1748428320599638.000000000,1748428320599557.000000000,-0.020633284,-2.072106361,-9.591641426
1748428320.617781,1748428320614262.000000000,1748428320614180.000000000,-0.042008206,-2.085417271,-9.599738121
1748428320.626818,1748428320619137.000000000,1748428320619055.000000000,-0.025990143,-2.078404188,-9.600843430
1748428320.636854,1748428320628936.000000000,1748428320628804.000000000,-0.048668504,-2.067005634,-9.594954491
1748428320.646831,1748428320643510.000000000,1748428320643429.000000000,-0.043209746,-2.082183123,-9.573332787
1748428320.656818,1748428320653260.000000000,1748428320653178.000000000,-0.018412102,-2.078132153,-9.591407776
1748428320.666775,1748428320663011.000000000,1748428320662928.000000000,-0.053394865,-2.062726974,-9.592834473
1748428320.676847,1748428320672769.000000000,1748428320672677.000000000,-0.030955296,-2.059676647,-9.605061531
1748428320.686774,1748428320682509.000000000,1748428320682428.000000000,-0.039747525,-2.091447830,-9.600363731
1748428320.697757,1748428320692260.000000000,1748428320692178.000000000,-0.038135108,-2.063775063,-9.595945358
1748428320.706817,1748428320702012.000000000,1748428320701928.000000000,-0.048856057,-2.047136307,-9.576890945
1748428320.717839,1748428320711758.000000000,1748428320711678.000000000,-0.031832214,-2.041133642,-9.601902008
1748428320.727838,1748428320721508.000000000,1748428320721427.000000000,-0.061503381,-2.043372869,-9.600800514
1748428320.738878,1748428320736134.000000000,1748428320736051.000000000,-0.067122556,-2.043750525,-9.596872330
1748428320.749786,1748428320741011.000000000,1748428320740926.000000000,-0.075228840,-2.046059132,-9.589611053
1748428320.757975,1748428320750758.000000000,1748428320750675.000000000,-0.061783943,-2.051145792,-9.595027924
1748428320.768884,1748428320760506.000000000,1748428320760424.000000000,-0.034965232,-2.074838638,-9.585245132
1748428320.777743,1748428320770254.000000000,1748428320770172.000000000,-0.010524564,-2.086911201,-9.584619522
1748428320.787800,1748428320784879.000000000,1748428320784796.000000000,-0.027840352,-2.094157457,-9.580991745
1748428320.797775,1748428320794627.000000000,1748428320794544.000000000,-0.048843373,-2.089766741,-9.590370178
1748428320.807790,1748428320804379.000000000,1748428320804293.000000000,-0.026384776,-2.082446575,-9.588690758
1748428320.816888,1748428320814125.000000000,1748428320814043.000000000,-0.046623547,-2.080804586,-9.592264175
1748428320.826885,1748428320819095.000000000,1748428320818918.000000000,-0.047988120,-2.073944330,-9.592150688
1748428320.838819,1748428320833623.000000000,1748428320833541.000000000,-0.058484044,-2.046205044,-9.598677635
1748428320.848811,1748428320843374.000000000,1748428320843291.000000000,-0.054041337,-2.029451370,-9.608986855
1748428320.857918,1748428320853121.000000000,1748428320853039.000000000,-0.040394548,-2.033398390,-9.598760605
1748428320.867861,1748428320862868.000000000,1748428320862787.000000000,-0.041758846,-2.044578552,-9.608467102
1748428320.876862,1748428320872617.000000000,1748428320872537.000000000,-0.021872628,-2.053905010,-9.592904091
1748428320.886854,1748428320882371.000000000,1748428320882286.000000000,-0.017043807,-2.052820206,-9.597033501
1748428320.897918,1748428320892131.000000000,1748428320892036.000000000,-0.035038404,-2.056506872,-9.602265358
1748428320.906837,1748428320901873.000000000,1748428320901784.000000000,-0.037876096,-2.066478968,-9.602435112
1748428320.917815,1748428320911614.000000000,1748428320911533.000000000,-0.039735705,-2.067120790,-9.597765923
1748428320.927802,1748428320921377.000000000,1748428320921282.000000000,-0.044980280,-2.068883181,-9.595674515
1748428320.938863,1748428320931114.000000000,1748428320931031.000000000,-0.039745342,-2.071792364,-9.594478607
1748428320.948831,1748428320945742.000000000,1748428320945655.000000000,-0.033824410,-2.074191093,-9.603932381
1748428320.958773,1748428320955486.000000000,1748428320955403.000000000,-0.033837292,-2.066869497,-9.599351883
1748428320.968877,1748428320965722.000000000,1748428320965640.000000000,-0.045906268,-2.081539631,-9.584615707
1748428320.978791,1748428320975471.000000000,1748428320975388.000000000,-0.048888624,-2.066519499,-9.584836960
1748428320.987850,1748428320985219.000000000,1748428320985137.000000000,-0.052727398,-2.057503700,-9.573192596
1748428320.998792,1748428320990181.000000000,1748428320990011.000000000,-0.044613026,-2.063437223,-9.578254700
1748428321.009872,1748428321004715.000000000,1748428321004634.000000000,-0.043559298,-2.059266329,-9.595720291
1748428321.019789,1748428321009590.000000000,1748428321009508.000000000,-0.035111260,-2.047588587,-9.589811325
1748428321.028849,1748428321019339.000000000,1748428321019257.000000000,-0.031297531,-2.049459934,-9.596518517
1748428321.037937,1748428321029089.000000000,1748428321029006.000000000,-0.037494298,-2.058209181,-9.588407516
1748428321.048772,1748428321043710.000000000,1748428321043629.000000000,-0.025559798,-2.039727688,-9.597270012
1748428321.056774,1748428321053471.000000000,1748428321053378.000000000,-0.035959605,-2.051357508,-9.596605301
1748428321.067890,1748428321063209.000000000,1748428321063127.000000000,-0.040278826,-2.060179234,-9.591316223
1748428321.077789,1748428321072964.000000000,1748428321072876.000000000,-0.024326917,-2.079065323,-9.602758408
1748428321.087754,1748428321082706.000000000,1748428321082626.000000000,-0.035970319,-2.089048624,-9.591685295
1748428321.096779,1748428321092458.000000000,1748428321092375.000000000,-0.019868378,-2.084380150,-9.583828926
1748428321.107836,1748428321097333.000000000,1748428321097249.000000000,-0.020182796,-2.081903219,-9.585377693
1748428321.117862,1748428321107084.000000000,1748428321106999.000000000,-0.051174942,-2.082345486,-9.593294144
1748428321.127822,1748428321121703.000000000,1748428321121623.000000000,-0.036889315,-2.051306486,-9.588794708
1748428321.138866,1748428321136330.000000000,1748428321136248.000000000,-0.032801703,-2.034375429,-9.597736359
1748428321.148761,1748428321141207.000000000,1748428321141123.000000000,-0.040656786,-2.031396866,-9.605088234
1748428321.158828,1748428321155837.000000000,1748428321155748.000000000,-0.044699758,-2.013883591,-9.612823486
1748428321.166876,1748428321160704.000000000,1748428321160623.000000000,-0.053555939,-2.003973961,-9.610339165
1748428321.177854,1748428321175331.000000000,1748428321175249.000000000,-0.051791944,-2.015884399,-9.608433723
1748428321.187820,1748428321180207.000000000,1748428321180124.000000000,-0.028770672,-2.021018505,-9.598256111
1748428321.198823,1748428321194836.000000000,1748428321194750.000000000,-0.053429965,-2.072254181,-9.589044571
1748428321.207780,1748428321204583.000000000,1748428321204500.000000000,-0.044354312,-2.085967779,-9.572801590
1748428321.218833,1748428321214332.000000000,1748428321214250.000000000,-0.024817457,-2.088927269,-9.587558746
1748428321.227765,1748428321224096.000000000,1748428321224000.000000000,-0.013745383,-2.120918751,-9.575860023
1748428321.238768,1748428321228971.000000000,1748428321228873.000000000,-0.002745199,-2.126299143,-9.574109077
1748428321.247774,1748428321238706.000000000,1748428321238623.000000000,-0.004988006,-2.142341137,-9.565612793
1748428321.259755,1748428321253328.000000000,1748428321253247.000000000,-0.018879121,-2.102625370,-9.577604294
1748428321.268762,1748428321263079.000000000,1748428321262996.000000000,-0.052244458,-2.080226898,-9.594869614
1748428321.277856,1748428321272836.000000000,1748428321272744.000000000,-0.053192351,-2.063619375,-9.599183083
1748428321.287777,1748428321282573.000000000,1748428321282493.000000000,-0.045709170,-2.044950485,-9.593589783
1748428321.297770,1748428321287450.000000000,1748428321287367.000000000,-0.054129973,-2.043201208,-9.585921288
1748428321.306806,1748428321302083.000000000,1748428321301992.000000000,-0.072115697,-2.031785488,-9.617890358
1748428321.316828,1748428321311825.000000000,1748428321311740.000000000,-0.059458360,-2.033974648,-9.610344887
1748428321.327865,1748428321321613.000000000,1748428321321489.000000000,-0.022414889,-2.051524162,-9.592181206
1748428321.338759,1748428321331321.000000000,1748428321331239.000000000,-0.007716882,-2.046738863,-9.588716507
1748428321.348814,1748428321345961.000000000,1748428321345863.000000000,-0.003830989,-2.074073076,-9.585794449
1748428321.358765,1748428321355694.000000000,1748428321355612.000000000,0.004466290,-2.071722746,-9.583025932
1748428321.368773,1748428321360568.000000000,1748428321360486.000000000,-0.003847703,-2.075282812,-9.601599693
1748428321.378800,1748428321375308.000000000,1748428321375110.000000000,-0.017301358,-2.079165220,-9.584153175
1748428321.388770,1748428321384942.000000000,1748428321384859.000000000,-0.041306477,-2.070984125,-9.600398064
1748428321.397754,1748428321394691.000000000,1748428321394609.000000000,-0.051331282,-2.072417259,-9.604104042
1748428321.408833,1748428321404441.000000000,1748428321404360.000000000,-0.063348174,-2.078384638,-9.605443001
1748428321.419866,1748428321414214.000000000,1748428321414132.000000000,-0.054169632,-2.079384565,-9.615925789
1748428321.428864,1748428321419149.000000000,1748428321419006.000000000,-0.051708248,-2.066690445,-9.603186607
1748428321.437844,1748428321433709.000000000,1748428321433629.000000000,-0.043128591,-2.055939913,-9.593489647
1748428321.447778,1748428321438587.000000000,1748428321438503.000000000,-0.035581626,-2.061474085,-9.592911720
1748428321.456785,1748428321453362.000000000,1748428321453126.000000000,-0.021406645,-2.054853916,-9.583332062
1748428321.466880,1748428321462956.000000000,1748428321462875.000000000,-0.004360096,-2.056047440,-9.589362144
1748428321.476800,1748428321472704.000000000,1748428321472624.000000000,0.000031143,-2.054784060,-9.592370987
1748428321.486766,1748428321482457.000000000,1748428321482374.000000000,-0.001395586,-2.065308809,-9.600935936
1748428321.497822,1748428321492205.000000000,1748428321492123.000000000,-0.037189186,-2.058218479,-9.582403183
1748428321.507793,1748428321501952.000000000,1748428321501872.000000000,-0.067881666,-2.066561937,-9.584630013
1748428321.518864,1748428321511704.000000000,1748428321511621.000000000,-0.058549691,-2.066351175,-9.592734337
1748428321.528870,1748428321526364.000000000,1748428321526245.000000000,-0.063976601,-2.067154884,-9.582805634
1748428321.538864,1748428321536078.000000000,1748428321535994.000000000,-0.073938936,-2.076962709,-9.590669632
1748428321.548873,1748428321545828.000000000,1748428321545744.000000000,-0.068187661,-2.090075493,-9.599618912
1748428321.557864,1748428321550699.000000000,1748428321550618.000000000,-0.045474548,-2.085523605,-9.592078209
1748428321.567849,1748428321565324.000000000,1748428321565242.000000000,-0.012041619,-2.091064453,-9.601730347
1748428321.576916,1748428321570197.000000000,1748428321570116.000000000,-0.014767608,-2.089871883,-9.591522217
1748428321.587884,1748428321579948.000000000,1748428321579865.000000000,-0.022202313,-2.081673861,-9.600201607
1748428321.597864,1748428321589697.000000000,1748428321589615.000000000,-0.020630492,-2.083865404,-9.589632988
1748428321.607750,1748428321604404.000000000,1748428321604239.000000000,-0.020842209,-2.086289406,-9.592088699
1748428321.617861,1748428321609203.000000000,1748428321609113.000000000,-0.032135267,-2.073064804,-9.597702980
1748428321.627850,1748428321623821.000000000,1748428321623737.000000000,-0.032728467,-2.058057547,-9.602885246
1748428321.637771,1748428321633569.000000000,1748428321633486.000000000,-0.023768082,-2.038624525,-9.620476723
1748428321.648781,1748428321638445.000000000,1748428321638361.000000000,-0.014673398,-2.027167082,-9.627071381
1748428321.656859,1748428321653069.000000000,1748428321652986.000000000,-0.066417754,-2.017940998,-9.614078522
1748428321.668770,1748428321662815.000000000,1748428321662735.000000000,-0.058168486,-2.019579649,-9.615552902
1748428321.677817,1748428321672564.000000000,1748428321672484.000000000,-0.027043449,-2.019536972,-9.609311104
1748428321.687859,1748428321677447.000000000,1748428321677358.000000000,-0.034742009,-2.031665087,-9.598470688
1748428321.696862,1748428321692064.000000000,1748428321691981.000000000,-0.029523719,-2.083141804,-9.590968132
1748428321.706838,1748428321701811.000000000,1748428321701731.000000000,0.001466645,-2.109884977,-9.580929756
1748428321.717779,1748428321711577.000000000,1748428321711481.000000000,-0.021794673,-2.121411085,-9.569279671
1748428321.727813,1748428321721312.000000000,1748428321721230.000000000,-0.025605854,-2.096809864,-9.587172508
1748428321.738823,1748428321735935.000000000,1748428321735853.000000000,-0.037907042,-2.066228390,-9.607563972
1748428321.748816,1748428321740808.000000000,1748428321740727.000000000,-0.057160404,-2.058332682,-9.598272324
1748428321.758801,1748428321755432.000000000,1748428321755350.000000000,-0.058719896,-2.042465687,-9.592296600
1748428321.768852,1748428321765182.000000000,1748428321765099.000000000,-0.045599476,-2.037154436,-9.597503662
1748428321.778867,1748428321774931.000000000,1748428321774849.000000000,-0.054693606,-2.023908138,-9.610022545
1748428321.787809,1748428321784681.000000000,1748428321784599.000000000,-0.026102172,-2.036384583,-9.601171494
1748428321.798867,1748428321794430.000000000,1748428321794348.000000000,-0.002810133,-2.058295488,-9.588551521
1748428321.808804,1748428321804240.000000000,1748428321804097.000000000,0.010888186,-2.048815966,-9.581376076
1748428321.818768,1748428321813927.000000000,1748428321813845.000000000,-0.031229090,-2.056609631,-9.582188606
1748428321.826917,1748428321823674.000000000,1748428321823593.000000000,-0.020928985,-2.072203159,-9.609647751
1748428321.837782,1748428321828549.000000000,1748428321828467.000000000,-0.032164302,-2.085228443,-9.610641479
1748428321.847762,1748428321838306.000000000,1748428321838216.000000000,-0.049037527,-2.110067129,-9.585905075
1748428321.856827,1748428321852922.000000000,1748428321852838.000000000,-0.027808996,-2.097849369,-9.595189095
1748428321.866819,1748428321862667.000000000,1748428321862587.000000000,-0.023879152,-2.066477299,-9.581590652
