__time,/fmu/out/vehicle_imu/accel_calibration_count,/fmu/out/vehicle_imu/accel_device_id,/fmu/out/vehicle_imu/delta_angle[0],/fmu/out/vehicle_imu/delta_angle[1],/fmu/out/vehicle_imu/delta_angle[2],/fmu/out/vehicle_imu/delta_angle_clipping,/fmu/out/vehicle_imu/delta_angle_dt,/fmu/out/vehicle_imu/delta_velocity[0],/fmu/out/vehicle_imu/delta_velocity[1],/fmu/out/vehicle_imu/delta_velocity[2],/fmu/out/vehicle_imu/delta_velocity_clipping,/fmu/out/vehicle_imu/delta_velocity_dt,/fmu/out/vehicle_imu/gyro_calibration_count,/fmu/out/vehicle_imu/gyro_device_id,/fmu/out/vehicle_imu/timestamp,/fmu/out/vehicle_imu/timestamp_sample
1748428316.485748,5.000000000,4259850.000000000,-0.000005457,0.000013133,-0.000004287,0.000000000,5001.000000000,-0.000653258,-0.010154482,-0.046835013,0.000000000,4875.000000000,1.000000000,4325386.000000000,1748428316480291.000000000,1748428316480168.000000000
1748428316.495806,5.000000000,4259850.000000000,0.000004404,-0.000010847,-0.000011487,0.000000000,5002.000000000,-0.000562587,-0.010117468,-0.046825871,0.000000000,4875.000000000,1.000000000,4325386.000000000,1748428316490289.000000000,1748428316490171.000000000
1748428316.507865,5.000000000,4259850.000000000,-0.000012107,0.000000608,0.000022341,0.000000000,5001.000000000,-0.000580707,-0.010145221,-0.046780024,0.000000000,4875.000000000,1.000000000,4325386.000000000,1748428316500293.000000000,1748428316500173.000000000
1748428316.515842,5.000000000,4259850.000000000,-0.000014246,-0.000038555,0.000019417,0.000000000,5002.000000000,-0.000608038,-0.010175067,-0.046807956,0.000000000,4876.000000000,1.000000000,4325386.000000000,1748428316510299.000000000,1748428316510176.000000000
1748428316.527755,5.000000000,4259850.000000000,0.000001207,0.000032575,-0.000000560,0.000000000,5001.000000000,-0.000707644,-0.010219232,-0.046670068,0.000000000,4875.000000000,1.000000000,4325386.000000000,1748428316515295.000000000,1748428316515177.000000000
1748428316.536809,5.000000000,4259850.000000000,-0.000009720,-0.000019899,0.000003704,0.000000000,5001.000000000,-0.000870878,-0.009830655,-0.046844173,0.000000000,4875.000000000,1.000000000,4325386.000000000,1748428316530300.000000000,1748428316530180.000000000
1748428316.545786,5.000000000,4259850.000000000,0.000023586,0.000013925,0.000040187,0.000000000,5001.000000000,-0.000925465,-0.009786403,-0.046853792,0.000000000,4876.000000000,1.000000000,4325386.000000000,1748428316535299.000000000,1748428316535181.000000000
1748428316.555737,5.000000000,4259850.000000000,0.000009725,-0.000006848,-0.000016019,0.000000000,5001.000000000,-0.000807392,-0.009673364,-0.046862505,0.000000000,4875.000000000,1.000000000,4325386.000000000,1748428316550307.000000000,1748428316550185.000000000
1748428316.564872,5.000000000,4259850.000000000,-0.000018511,0.000001945,0.000022346,0.000000000,5001.000000000,-0.000716870,-0.009823420,-0.046872120,0.000000000,4876.000000000,1.000000000,4325386.000000000,1748428316560309.000000000,1748428316560187.000000000
1748428316.574797,5.000000000,4259850.000000000,0.000029972,0.000007000,0.000002640,0.000000000,5001.000000000,-0.000798494,-0.009832674,-0.046862952,0.000000000,4876.000000000,1.000000000,4325386.000000000,1748428316570326.000000000,1748428316570190.000000000
1748428316.584838,5.000000000,4259850.000000000,0.000012135,-0.000012975,0.000001840,0.000000000,5001.000000000,-0.000589787,-0.009765903,-0.046944994,0.000000000,4875.000000000,1.000000000,4325386.000000000,1748428316580313.000000000,1748428316580192.000000000
1748428316.594799,5.000000000,4259850.000000000,-0.000010513,-0.000004985,0.000023946,0.000000000,5001.000000000,-0.000735009,-0.010082528,-0.046789620,0.000000000,4876.000000000,1.000000000,4325386.000000000,1748428316590312.000000000,1748428316590195.000000000
1748428316.605855,5.000000000,4259850.000000000,0.000017719,-0.000008709,-0.000017079,0.000000000,5001.000000000,-0.000689509,-0.010219237,-0.046743382,0.000000000,4875.000000000,1.000000000,4325386.000000000,1748428316600319.000000000,1748428316600197.000000000
1748428316.615839,5.000000000,4259850.000000000,-0.000026235,-0.000010048,0.000006896,0.000000000,5002.000000000,-0.000616981,-0.010191479,-0.046743382,0.000000000,4875.000000000,1.000000000,4325386.000000000,1748428316610321.000000000,1748428316610200.000000000
1748428316.626788,5.000000000,4259850.000000000,0.000002006,0.000004872,0.000025815,0.000000000,5001.000000000,-0.000907365,-0.015251289,-0.070083186,0.000000000,7313.000000000,1.000000000,4325386.000000000,1748428316620349.000000000,1748428316620202.000000000
1748428316.636851,5.000000000,4259850.000000000,-0.000008382,0.000024585,0.000025006,0.000000000,5001.000000000,-0.000825538,-0.010015714,-0.046780013,0.000000000,4875.000000000,1.000000000,4325386.000000000,1748428316630323.000000000,1748428316630204.000000000
1748428316.645828,5.000000000,4259850.000000000,0.000003335,0.000001940,0.000032202,0.000000000,5001.000000000,-0.000707655,-0.009913925,-0.046917483,0.000000000,4875.000000000,1.000000000,4325386.000000000,1748428316640370.000000000,1748428316640207.000000000
1748428316.656830,5.000000000,4259850.000000000,0.000030773,-0.000021498,0.000000762,0.000000000,5001.000000000,-0.000789261,-0.009728885,-0.046917487,0.000000000,4875.000000000,1.000000000,4325386.000000000,1748428316650439.000000000,1748428316650209.000000000
1748428316.665851,5.000000000,4259850.000000000,0.000043834,0.000002474,-0.000014685,0.000000000,5002.000000000,-0.001133826,-0.009562355,-0.046999995,0.000000000,4875.000000000,1.000000000,4325386.000000000,1748428316660343.000000000,1748428316660212.000000000
1748428316.676756,5.000000000,4259850.000000000,-0.000014776,0.000007536,-0.000012549,0.000000000,5001.000000000,-0.000780355,-0.009693864,-0.047037117,0.000000000,4876.000000000,1.000000000,4325386.000000000,1748428316665339.000000000,1748428316665213.000000000
1748428316.686734,5.000000000,4259850.000000000,0.000001471,0.000012595,0.000000764,0.000000000,5001.000000000,-0.000562691,-0.009749386,-0.046862945,0.000000000,4876.000000000,1.000000000,4325386.000000000,1748428316680335.000000000,1748428316680216.000000000
1748428316.695781,5.000000000,4259850.000000000,-0.000005984,0.000014724,0.000013018,0.000000000,5000.000000000,-0.000816633,-0.009777150,-0.046899617,0.000000000,4876.000000000,1.000000000,4325386.000000000,1748428316690341.000000000,1748428316690219.000000000
1748428316.707800,5.000000000,4259850.000000000,-0.000010514,-0.000007114,-0.000002432,0.000000000,5001.000000000,-0.000680749,-0.009880972,-0.046698369,0.000000000,4877.000000000,1.000000000,4325386.000000000,1748428316700345.000000000,1748428316700221.000000000
1748428316.716822,5.000000000,4259850.000000000,-0.000014246,-0.000013511,-0.000048254,0.000000000,5002.000000000,-0.000680477,-0.010061968,-0.046853349,0.000000000,4875.000000000,1.000000000,4325386.000000000,1748428316710365.000000000,1748428316710224.000000000
1748428316.726793,5.000000000,4259850.000000000,0.000004401,0.000003008,-0.000011220,0.000000000,5001.000000000,-0.000743929,-0.010098967,-0.046844184,0.000000000,4875.000000000,1.000000000,4325386.000000000,1748428316720360.000000000,1748428316720226.000000000
1748428316.735779,5.000000000,4259850.000000000,-0.000002523,0.000013664,-0.000025874,0.000000000,5002.000000000,-0.000743914,-0.010061949,-0.046770871,0.000000000,4875.000000000,1.000000000,4325386.000000000,1748428316730348.000000000,1748428316730229.000000000
1748428316.744853,5.000000000,4259850.000000000,0.000007841,-0.000007134,0.000005047,0.000000000,5001.000000000,-0.000871049,-0.010119545,-0.046817120,0.000000000,4876.000000000,1.000000000,4325386.000000000,1748428316740352.000000000,1748428316740231.000000000
1748428316.754899,5.000000000,4259850.000000000,-0.000013443,-0.000012710,-0.000002164,0.000000000,5001.000000000,-0.000689483,-0.010043435,-0.046789255,0.000000000,4875.000000000,1.000000000,4325386.000000000,1748428316750356.000000000,1748428316750233.000000000
1748428316.766014,5.000000000,4259850.000000000,0.000001210,0.000002203,0.000021013,0.000000000,5001.000000000,-0.000880118,-0.010082528,-0.046734624,0.000000000,4876.000000000,1.000000000,4325386.000000000,1748428316760356.000000000,1748428316760236.000000000
1748428316.774793,5.000000000,4259850.000000000,-0.000026233,-0.000013774,0.000027674,0.000000000,5001.000000000,-0.000716732,-0.010024946,-0.046825849,0.000000000,4875.000000000,1.000000000,4325386.000000000,1748428316770370.000000000,1748428316770238.000000000
1748428316.786850,5.000000000,4259850.000000000,-0.000003056,0.000022456,0.000034604,0.000000000,5002.000000000,-0.000825535,-0.009793655,-0.046880838,0.000000000,4875.000000000,1.000000000,4325386.000000000,1748428316780363.000000000,1748428316780241.000000000
1748428316.796893,5.000000000,4259850.000000000,0.000015859,-0.000000456,-0.000017616,0.000000000,5001.000000000,-0.000780355,-0.010128797,-0.046872120,0.000000000,4876.000000000,1.000000000,4325386.000000000,1748428316790364.000000000,1748428316790243.000000000
1748428316.807809,5.000000000,4259850.000000000,-0.000022231,-0.000040145,0.000034070,0.000000000,5001.000000000,-0.000762068,-0.009941711,-0.046798367,0.000000000,4875.000000000,1.000000000,4325386.000000000,1748428316795374.000000000,1748428316795244.000000000
1748428316.816808,5.000000000,4259850.000000000,-0.000016377,-0.000021231,0.000005562,0.000000000,5001.000000000,-0.000608038,-0.009860435,-0.046872120,0.000000000,4876.000000000,1.000000000,4325386.000000000,1748428316810385.000000000,1748428316810248.000000000
1748428316.826770,5.000000000,4259850.000000000,-0.000005719,0.000008071,0.000030066,0.000000000,5001.000000000,-0.000761904,-0.009819390,-0.046706293,0.000000000,4874.000000000,1.000000000,4325386.000000000,1748428316820418.000000000,1748428316820250.000000000
1748428316.836777,5.000000000,4259850.000000000,-0.000008118,-0.000003387,0.000005830,0.000000000,5002.000000000,-0.000616977,-0.009950930,-0.046789188,0.000000000,4875.000000000,1.000000000,4325386.000000000,1748428316830371.000000000,1748428316830253.000000000
1748428316.845869,5.000000000,4259850.000000000,0.000034767,-0.000026558,0.000017021,0.000000000,5001.000000000,-0.000589765,-0.010117462,-0.046944987,0.000000000,4875.000000000,1.000000000,4325386.000000000,1748428316840381.000000000,1748428316840255.000000000
1748428316.855949,5.000000000,4259850.000000000,-0.000003056,0.000010200,-0.000008557,0.000000000,5002.000000000,-0.000916206,-0.010015699,-0.046743371,0.000000000,4875.000000000,1.000000000,4325386.000000000,1748428316850379.000000000,1748428316850258.000000000
1748428316.864860,5.000000000,4259850.000000000,0.000011861,0.000019260,0.000013824,0.000000000,5001.000000000,-0.000698586,-0.009997192,-0.046890009,0.000000000,4875.000000000,1.000000000,4325386.000000000,1748428316860380.000000000,1748428316860260.000000000
1748428316.874817,5.000000000,4259850.000000000,-0.000002530,0.000006739,0.000017552,0.000000000,5001.000000000,-0.000562482,-0.009800890,-0.046852931,0.000000000,4874.000000000,1.000000000,4325386.000000000,1748428316870399.000000000,1748428316870262.000000000
1748428316.884821,5.000000000,4259850.000000000,0.000012926,-0.000011105,0.000020481,0.000000000,5001.000000000,-0.000889001,-0.009932432,-0.046835013,0.000000000,4875.000000000,1.000000000,4325386.000000000,1748428316880385.000000000,1748428316880265.000000000
1748428316.896834,5.000000000,4259850.000000000,-0.000010777,-0.000008451,-0.000003757,0.000000000,5001.000000000,-0.000716721,-0.009802905,-0.046890002,0.000000000,4875.000000000,1.000000000,4325386.000000000,1748428316890386.000000000,1748428316890267.000000000
1748428316.906845,5.000000000,4259850.000000000,0.000010532,0.000006471,0.000018885,0.000000000,5002.000000000,-0.000725783,-0.009765892,-0.046734199,0.000000000,4875.000000000,1.000000000,4325386.000000000,1748428316900393.000000000,1748428316900270.000000000
1748428316.916805,5.000000000,4259850.000000000,0.000013202,-0.000030559,-0.000002428,0.000000000,5001.000000000,-0.001306227,-0.014703345,-0.070247717,0.000000000,7312.000000000,1.000000000,4325386.000000000,1748428316910412.000000000,1748428316910272.000000000
1748428316.925831,5.000000000,4259850.000000000,-0.000000393,0.000003012,-0.000035731,0.000000000,5001.000000000,-0.000453773,-0.010080460,-0.046761703,0.000000000,4875.000000000,1.000000000,4325386.000000000,1748428316920406.000000000,1748428316920275.000000000
1748428316.935858,5.000000000,4259850.000000000,0.000006537,0.000031773,0.000044719,0.000000000,5001.000000000,-0.000671389,-0.009987952,-0.046926659,0.000000000,4875.000000000,1.000000000,4325386.000000000,1748428316925397.000000000,1748428316925276.000000000
1748428316.944828,5.000000000,4259850.000000000,0.000017988,0.000026178,-0.000007215,0.000000000,5001.000000000,-0.000807232,-0.010013643,-0.046752103,0.000000000,4874.000000000,1.000000000,4325386.000000000,1748428316940400.000000000,1748428316940279.000000000
1748428316.955733,5.000000000,4259850.000000000,-0.000006786,-0.000041219,0.000003699,0.000000000,5002.000000000,-0.000916396,-0.010008498,-0.046881281,0.000000000,4876.000000000,1.000000000,4325386.000000000,1748428316945401.000000000,1748428316945281.000000000
1748428316.966787,5.000000000,4259850.000000000,0.000018788,0.000026446,-0.000001100,0.000000000,5001.000000000,-0.000843666,-0.010024961,-0.046871673,0.000000000,4875.000000000,1.000000000,4325386.000000000,1748428316960408.000000000,1748428316960284.000000000
1748428316.975937,5.000000000,4259850.000000000,0.000001740,-0.000006583,0.000011962,0.000000000,5001.000000000,-0.000761904,-0.010032193,-0.046752118,0.000000000,4874.000000000,1.000000000,4325386.000000000,1748428316970419.000000000,1748428316970286.000000000
1748428316.986823,5.000000000,4259850.000000000,0.000010267,-0.000026026,0.000010894,0.000000000,5001.000000000,-0.000752983,-0.010126713,-0.046743367,0.000000000,4875.000000000,1.000000000,4325386.000000000,1748428316980408.000000000,1748428316980289.000000000
1748428316.997803,5.000000000,4259850.000000000,-0.000001986,-0.000019898,0.000029267,0.000000000,5001.000000000,-0.000689517,-0.009895417,-0.046770871,0.000000000,4875.000000000,1.000000000,4325386.000000000,1748428316990416.000000000,1748428316990291.000000000
1748428317.007805,5.000000000,4259850.000000000,-0.000009175,-0.000008449,-0.000019211,0.000000000,5001.000000000,-0.000734871,-0.009710385,-0.046752520,0.000000000,4875.000000000,1.000000000,4325386.000000000,1748428317000433.000000000,1748428317000294.000000000
1748428317.016837,5.000000000,4259850.000000000,-0.000035279,-0.000006049,0.000032726,0.000000000,5000.000000000,-0.000698594,-0.009876909,-0.046807516,0.000000000,4875.000000000,1.000000000,4325386.000000000,1748428317010474.000000000,1748428317010296.000000000
1748428317.026836,5.000000000,4259850.000000000,-0.000024105,-0.000011111,0.000023144,0.000000000,5001.000000000,-0.000789257,-0.009747374,-0.046688382,0.000000000,4875.000000000,1.000000000,4325386.000000000,1748428317020472.000000000,1748428317020298.000000000
1748428317.035797,5.000000000,4259850.000000000,0.000023581,-0.000009243,-0.000007221,0.000000000,5001.000000000,-0.000761904,-0.009884140,-0.046807077,0.000000000,4874.000000000,1.000000000,4325386.000000000,1748428317030540.000000000,1748428317030301.000000000
1748428317.046765,5.000000000,4259850.000000000,0.000007341,0.000016316,0.000001562,0.000000000,5001.000000000,-0.000825363,-0.009800890,-0.046880387,0.000000000,4874.000000000,1.000000000,4325386.000000000,1748428317040431.000000000,1748428317040303.000000000
1748428317.055845,5.000000000,4259850.000000000,-0.000012906,-0.000039887,-0.000009090,0.000000000,5002.000000000,-0.000789101,-0.009911891,-0.046825401,0.000000000,4874.000000000,1.000000000,4325386.000000000,1748428317050437.000000000,1748428317050306.000000000
1748428317.066783,5.000000000,4259850.000000000,-0.000014776,0.000029905,0.000027140,0.000000000,5001.000000000,-0.000734871,-0.010006430,-0.046853341,0.000000000,4875.000000000,1.000000000,4325386.000000000,1748428317055438.000000000,1748428317055307.000000000
1748428317.074846,5.000000000,4259850.000000000,0.000031309,-0.000058788,-0.000019740,0.000000000,5001.000000000,-0.000879928,-0.010228493,-0.046688382,0.000000000,4875.000000000,1.000000000,4325386.000000000,1748428317070445.000000000,1748428317070311.000000000
1748428317.086780,5.000000000,4259850.000000000,-0.000006779,0.000028843,0.000020209,0.000000000,5001.000000000,-0.000761904,-0.010087643,-0.046871219,0.000000000,4874.000000000,1.000000000,4325386.000000000,1748428317075432.000000000,1748428317075312.000000000
1748428317.096799,5.000000000,4259850.000000000,-0.000034489,-0.000002857,0.000012219,0.000000000,5001.000000000,-0.000780035,-0.010013643,-0.046697125,0.000000000,4874.000000000,1.000000000,4325386.000000000,1748428317090461.000000000,1748428317090315.000000000
1748428317.105814,5.000000000,4259850.000000000,0.000013722,-0.000010579,-0.000026405,0.000000000,5001.000000000,-0.000671248,-0.010078392,-0.046807077,0.000000000,4874.000000000,1.000000000,4325386.000000000,1748428317100455.000000000,1748428317100318.000000000
1748428317.115936,5.000000000,4259850.000000000,0.000002539,0.000007798,-0.000018676,0.000000000,5001.000000000,-0.000671248,-0.009911891,-0.046678800,0.000000000,4874.000000000,1.000000000,4325386.000000000,1748428317110439.000000000,1748428317110320.000000000
1748428317.124866,5.000000000,4259850.000000000,-0.000000651,0.000012332,0.000022343,0.000000000,5001.000000000,-0.000743925,-0.009987934,-0.046715889,0.000000000,4875.000000000,1.000000000,4325386.000000000,1748428317120455.000000000,1748428317120323.000000000
1748428317.135791,5.000000000,4259850.000000000,-0.000027834,0.000005936,0.000007391,0.000000000,5003.000000000,-0.000662320,-0.009941669,-0.046853341,0.000000000,4875.000000000,1.000000000,4325386.000000000,1748428317130447.000000000,1748428317130327.000000000
1748428317.144855,5.000000000,4259850.000000000,-0.000003057,-0.000034816,0.000013819,0.000000000,5001.000000000,-0.000634985,-0.009837889,-0.046770431,0.000000000,4874.000000000,1.000000000,4325386.000000000,1748428317140450.000000000,1748428317140327.000000000
1748428317.155796,5.000000000,4259850.000000000,-0.000024390,0.000025646,-0.000014699,0.000000000,5001.000000000,-0.000716717,-0.009932425,-0.046853349,0.000000000,4875.000000000,1.000000000,4325386.000000000,1748428317150451.000000000,1748428317150330.000000000
1748428317.164842,5.000000000,4259850.000000000,0.000023583,-0.000020963,0.000018618,0.000000000,5001.000000000,-0.000716717,-0.009886171,-0.046862517,0.000000000,4875.000000000,1.000000000,4325386.000000000,1748428317160452.000000000,1748428317160332.000000000
1748428317.176724,5.000000000,4259850.000000000,-0.000035557,-0.000008714,0.000001038,0.000000000,5001.000000000,-0.000662309,-0.009969440,-0.046825849,0.000000000,4875.000000000,1.000000000,4325386.000000000,1748428317170470.000000000,1748428317170335.000000000
1748428317.186845,5.000000000,4259850.000000000,0.000004136,-0.000031353,-0.000007486,0.000000000,5001.000000000,-0.000698731,-0.009952975,-0.047018781,0.000000000,4876.000000000,1.000000000,4325386.000000000,1748428317180459.000000000,1748428317180337.000000000
1748428317.197764,5.000000000,4259850.000000000,-0.000000657,0.000022716,-0.000003757,0.000000000,5001.000000000,-0.000771286,-0.009971482,-0.046872117,0.000000000,4876.000000000,1.000000000,4325386.000000000,1748428317190467.000000000,1748428317190340.000000000
1748428317.205855,5.000000000,4259850.000000000,-0.000013712,0.000007268,-0.000009348,0.000000000,5001.000000000,-0.001006983,-0.014999404,-0.070110239,0.000000000,7312.000000000,1.000000000,4325386.000000000,1748428317200466.000000000,1748428317200342.000000000
1748428317.216848,5.000000000,4259850.000000000,0.000007867,-0.000025226,0.000002633,0.000000000,5001.000000000,-0.000834600,-0.010071219,-0.046725046,0.000000000,4875.000000000,1.000000000,4325386.000000000,1748428317205462.000000000,1748428317205343.000000000
1748428317.227855,5.000000000,4259850.000000000,0.000025982,0.000015260,-0.000003492,0.000000000,5001.000000000,-0.000698597,-0.010006450,-0.046825856,0.000000000,4875.000000000,1.000000000,4325386.000000000,1748428317215464.000000000,1748428317215345.000000000
1748428317.236804,5.000000000,4259850.000000000,-0.000011579,0.000028041,0.000002097,0.000000000,5001.000000000,-0.000798166,-0.010013643,-0.046862058,0.000000000,4874.000000000,1.000000000,4325386.000000000,1748428317230472.000000000,1748428317230349.000000000
1748428317.246800,5.000000000,4259850.000000000,0.000007601,-0.000003121,-0.000034133,0.000000000,5002.000000000,-0.000707510,-0.009958141,-0.046889547,0.000000000,4874.000000000,1.000000000,4325386.000000000,1748428317240469.000000000,1748428317240352.000000000
1748428317.255759,5.000000000,4259850.000000000,0.000017460,-0.000015638,0.000018875,0.000000000,5001.000000000,-0.000907133,-0.009913932,-0.046780042,0.000000000,4875.000000000,1.000000000,4325386.000000000,1748428317250474.000000000,1748428317250354.000000000
1748428317.265957,5.000000000,4259850.000000000,-0.000012114,-0.000026033,0.000015155,0.000000000,5002.000000000,-0.000807407,-0.009839908,-0.046825841,0.000000000,4875.000000000,1.000000000,4325386.000000000,1748428317260479.000000000,1748428317260357.000000000
1748428317.275826,5.000000000,4259850.000000000,0.000004139,-0.000015644,0.000036997,0.000000000,5001.000000000,-0.000698445,-0.009828639,-0.046807077,0.000000000,4874.000000000,1.000000000,4325386.000000000,1748428317270495.000000000,1748428317270359.000000000
1748428317.285848,5.000000000,4259850.000000000,-0.000007047,0.000005404,0.000011680,0.000000000,5001.000000000,-0.000716289,-0.009898585,-0.046888568,0.000000000,4872.000000000,1.000000000,4325386.000000000,1748428317280481.000000000,1748428317280361.000000000
1748428317.295810,5.000000000,4259850.000000000,-0.000013446,-0.000004986,-0.000015217,0.000000000,5002.000000000,-0.000780206,-0.009849170,-0.046770863,0.000000000,4875.000000000,1.000000000,4325386.000000000,1748428317290510.000000000,1748428317290364.000000000
1748428317.306831,5.000000000,4259850.000000000,-0.000003584,-0.000026831,0.000016480,0.000000000,5001.000000000,-0.000725790,-0.009793643,-0.046844181,0.000000000,4875.000000000,1.000000000,4325386.000000000,1748428317300485.000000000,1748428317300366.000000000
1748428317.315851,5.000000000,4259850.000000000,0.000012663,0.000024587,-0.000025874,0.000000000,5002.000000000,-0.000707510,-0.009948892,-0.046761267,0.000000000,4874.000000000,1.000000000,4325386.000000000,1748428317310487.000000000,1748428317310369.000000000
1748428317.326734,5.000000000,4259850.000000000,0.000007864,-0.000043872,0.000005564,0.000000000,5001.000000000,-0.000734860,-0.009960183,-0.046761695,0.000000000,4875.000000000,1.000000000,4325386.000000000,1748428317320506.000000000,1748428317320371.000000000
1748428317.334891,5.000000000,4259850.000000000,-0.000011844,-0.000006583,0.000010353,0.000000000,5001.000000000,-0.000780203,-0.009932418,-0.046835013,0.000000000,4875.000000000,1.000000000,4325386.000000000,1748428317330493.000000000,1748428317330373.000000000
1748428317.345862,5.000000000,4259850.000000000,0.000002272,0.000024854,-0.000020546,0.000000000,5002.000000000,-0.000680462,-0.009932432,-0.046651721,0.000000000,4875.000000000,1.000000000,4325386.000000000,1748428317335492.000000000,1748428317335375.000000000
1748428317.355753,5.000000000,4259850.000000000,-0.000027299,-0.000008710,-0.000000827,0.000000000,5001.000000000,-0.000544448,-0.010043456,-0.046761695,0.000000000,4875.000000000,1.000000000,4325386.000000000,1748428317345496.000000000,1748428317345377.000000000
1748428317.365836,5.000000000,4259850.000000000,-0.000002257,0.000013930,-0.000002163,0.000000000,5002.000000000,-0.000653239,-0.009904671,-0.046816684,0.000000000,4875.000000000,1.000000000,4325386.000000000,1748428317360500.000000000,1748428317360381.000000000
1748428317.375807,5.000000000,4259850.000000000,0.000006536,-0.000003119,0.000034866,0.000000000,5001.000000000,-0.000734856,-0.010043446,-0.046734214,0.000000000,4875.000000000,1.000000000,4325386.000000000,1748428317370516.000000000,1748428317370383.000000000
1748428317.386760,5.000000000,4259850.000000000,0.000017725,-0.000003654,0.000003432,0.000000000,5002.000000000,-0.000789272,-0.010034208,-0.046862505,0.000000000,4875.000000000,1.000000000,4325386.000000000,1748428317380506.000000000,1748428317380386.000000000
1748428317.397859,5.000000000,4259850.000000000,0.000012391,-0.000001522,-0.000022142,0.000000000,5001.000000000,-0.001233680,-0.014990145,-0.070201904,0.000000000,7312.000000000,1.000000000,4325386.000000000,1748428317390608.000000000,1748428317390411.000000000
1748428317.407922,5.000000000,4259850.000000000,-0.000006248,0.000026981,-0.000032798,0.000000000,5001.000000000,-0.000934337,-0.009830655,-0.046752527,0.000000000,4875.000000000,1.000000000,4325386.000000000,1748428317400593.000000000,1748428317400413.000000000
1748428317.418796,5.000000000,4259850.000000000,0.000007331,-0.000023630,-0.000014149,0.000000000,5001.000000000,-0.000689506,-0.009821401,-0.046816692,0.000000000,4875.000000000,1.000000000,4325386.000000000,1748428317410661.000000000,1748428317410416.000000000
1748428317.426759,5.000000000,4259850.000000000,0.000023318,-0.000010049,-0.000028257,0.000000000,5001.000000000,-0.000825553,-0.010126719,-0.046660885,0.000000000,4875.000000000,1.000000000,4325386.000000000,1748428317420562.000000000,1748428317420418.000000000
1748428317.436863,5.000000000,4259850.000000000,0.000008129,0.000021389,0.000037260,0.000000000,5001.000000000,-0.000644200,-0.009969449,-0.046807513,0.000000000,4875.000000000,1.000000000,4325386.000000000,1748428317430548.000000000,1748428317430420.000000000
1748428317.446835,5.000000000,4259850.000000000,0.000006000,-0.000001250,-0.000031726,0.000000000,5001.000000000,-0.000607922,-0.009969440,-0.046798348,0.000000000,4875.000000000,1.000000000,4325386.000000000,1748428317440546.000000000,1748428317440423.000000000
1748428317.456753,5.000000000,4259850.000000000,0.000006262,0.000025908,0.000006633,0.000000000,5001.000000000,-0.000825557,-0.009969438,-0.046770848,0.000000000,4875.000000000,1.000000000,4325386.000000000,1748428317450546.000000000,1748428317450425.000000000
1748428317.464878,5.000000000,4259850.000000000,-0.000009982,-0.000018569,-0.000006153,0.000000000,5001.000000000,-0.000698731,-0.009925212,-0.046762124,0.000000000,4876.000000000,1.000000000,4325386.000000000,1748428317460547.000000000,1748428317460428.000000000
1748428317.476832,5.000000000,4259850.000000000,0.000010793,0.000008597,-0.000007489,0.000000000,5001.000000000,-0.000480977,-0.009886171,-0.046807505,0.000000000,4875.000000000,1.000000000,4325386.000000000,1748428317465549.000000000,1748428317465429.000000000
1748428317.487761,5.000000000,4259850.000000000,-0.000002523,-0.000014843,0.000022881,0.000000000,5002.000000000,-0.000734856,-0.010034196,-0.046706714,0.000000000,4875.000000000,1.000000000,4325386.000000000,1748428317475551.000000000,1748428317475432.000000000
1748428317.496756,5.000000000,4259850.000000000,-0.000000930,-0.000028427,-0.000031452,0.000000000,5001.000000000,-0.000644207,-0.009904687,-0.046880834,0.000000000,4875.000000000,1.000000000,4325386.000000000,1748428317485568.000000000,1748428317485434.000000000
1748428317.505786,5.000000000,4259850.000000000,-0.000023571,0.000026452,0.000014622,0.000000000,5002.000000000,-0.000752972,-0.009950940,-0.046908323,0.000000000,4875.000000000,1.000000000,4325386.000000000,1748428317500556.000000000,1748428317500438.000000000
1748428317.515769,5.000000000,4259850.000000000,0.000007332,-0.000033221,-0.000017605,0.000000000,5001.000000000,-0.000825557,-0.009932437,-0.046688382,0.000000000,4875.000000000,1.000000000,4325386.000000000,1748428317510559.000000000,1748428317510440.000000000
1748428317.525745,5.000000000,4259850.000000000,0.000002799,0.000010993,0.000010357,0.000000000,5001.000000000,-0.000780355,-0.009934464,-0.046954621,0.000000000,4876.000000000,1.000000000,4325386.000000000,1748428317520573.000000000,1748428317520442.000000000
1748428317.534872,5.000000000,4259850.000000000,-0.000004917,0.000013928,-0.000034923,0.000000000,5001.000000000,-0.000653384,-0.009915958,-0.046789620,0.000000000,4876.000000000,1.000000000,4325386.000000000,1748428317530565.000000000,1748428317530445.000000000
1748428317.545891,5.000000000,4259850.000000000,0.000013992,0.000023779,0.000039655,0.000000000,5001.000000000,-0.000898257,-0.009897450,-0.046899617,0.000000000,4876.000000000,1.000000000,4325386.000000000,1748428317540565.000000000,1748428317540447.000000000
1748428317.554857,5.000000000,4259850.000000000,-0.000004122,-0.000003653,0.000010626,0.000000000,5002.000000000,-0.000752991,-0.009821406,-0.046917498,0.000000000,4875.000000000,1.000000000,4325386.000000000,1748428317550570.000000000,1748428317550450.000000000
1748428317.566746,5.000000000,4259850.000000000,0.000021448,-0.000028159,-0.000001898,0.000000000,5001.000000000,-0.000662305,-0.010071215,-0.046844181,0.000000000,4875.000000000,1.000000000,4325386.000000000,1748428317560575.000000000,1748428317560452.000000000
1748428317.575768,5.000000000,4259850.000000000,-0.000007852,-0.000005785,0.000004498,0.000000000,5002.000000000,-0.000571760,-0.010008498,-0.046835456,0.000000000,4876.000000000,1.000000000,4325386.000000000,1748428317570588.000000000,1748428317570455.000000000
1748428317.587916,5.000000000,4259850.000000000,-0.000016105,0.000007271,0.000013817,0.000000000,5001.000000000,-0.000689662,-0.010017752,-0.046807948,0.000000000,4876.000000000,1.000000000,4325386.000000000,1748428317580576.000000000,1748428317580457.000000000
1748428317.596801,5.000000000,4259850.000000000,0.000016391,0.000020051,-0.000002158,0.000000000,5001.000000000,-0.000716721,-0.010006453,-0.046889998,0.000000000,4875.000000000,1.000000000,4325386.000000000,1748428317590583.000000000,1748428317590459.000000000
1748428317.607810,5.000000000,4259850.000000000,0.000004135,0.000007008,0.000028993,0.000000000,5001.000000000,-0.000653384,-0.010045513,-0.046826284,0.000000000,4876.000000000,1.000000000,4325386.000000000,1748428317595592.000000000,1748428317595460.000000000
1748428317.616902,5.000000000,4259850.000000000,0.000007864,-0.000032954,-0.000009880,0.000000000,5001.000000000,-0.000716721,-0.009830658,-0.046770856,0.000000000,4875.000000000,1.000000000,4325386.000000000,1748428317610582.000000000,1748428317610464.000000000
1748428317.625844,5.000000000,4259850.000000000,0.000006802,0.000009134,-0.000001634,0.000000000,5001.000000000,-0.000743937,-0.009941676,-0.046825860,0.000000000,4875.000000000,1.000000000,4325386.000000000,1748428317615587.000000000,1748428317615465.000000000
1748428317.635741,5.000000000,4259850.000000000,-0.000002784,0.000003275,0.000004761,0.000000000,5001.000000000,-0.000753147,-0.009980735,-0.046780460,0.000000000,4876.000000000,1.000000000,4325386.000000000,1748428317630604.000000000,1748428317630469.000000000
1748428317.644854,5.000000000,4259850.000000000,-0.000019838,0.000006203,0.000014885,0.000000000,5001.000000000,-0.000744078,-0.009934464,-0.046899617,0.000000000,4876.000000000,1.000000000,4325386.000000000,1748428317640590.000000000,1748428317640471.000000000
1748428317.654861,5.000000000,4259850.000000000,0.000018247,-0.000012445,-0.000021876,0.000000000,5001.000000000,-0.000807385,-0.009839917,-0.046734203,0.000000000,4875.000000000,1.000000000,4325386.000000000,1748428317650597.000000000,1748428317650474.000000000
1748428317.665744,5.000000000,4259850.000000000,0.000017719,0.000000614,0.000009290,0.000000000,5001.000000000,-0.000662323,-0.009867657,-0.046853330,0.000000000,4875.000000000,1.000000000,4325386.000000000,1748428317660597.000000000,1748428317660476.000000000
1748428317.675015,5.000000000,4259850.000000000,-0.000009446,-0.000005783,0.000052167,0.000000000,5000.000000000,-0.000653261,-0.009969438,-0.046807516,0.000000000,4875.000000000,1.000000000,4325386.000000000,1748428317670611.000000000,1748428317670478.000000000
1748428317.684849,5.000000000,4259850.000000000,0.000009466,-0.000014045,-0.000009891,0.000000000,5001.000000000,-0.000807396,-0.009997192,-0.046816669,0.000000000,4875.000000000,1.000000000,4325386.000000000,1748428317680601.000000000,1748428317680481.000000000
1748428317.695829,5.000000000,4259850.000000000,0.000031306,-0.000017507,0.000017549,0.000000000,5001.000000000,-0.000870859,-0.010034204,-0.046899159,0.000000000,4875.000000000,1.000000000,4325386.000000000,1748428317690604.000000000,1748428317690483.000000000
1748428317.705794,5.000000000,4259850.000000000,-0.000004389,-0.000027628,0.000005297,0.000000000,5001.000000000,-0.001115972,-0.014797877,-0.070248157,0.000000000,7313.000000000,1.000000000,4325386.000000000,1748428317700648.000000000,1748428317700486.000000000
1748428317.718832,5.000000000,4259850.000000000,0.000024913,0.000007536,-0.000011743,0.000000000,5001.000000000,-0.000644189,-0.009969434,-0.046926651,0.000000000,4875.000000000,1.000000000,4325386.000000000,1748428317710607.000000000,1748428317710488.000000000
1748428317.727754,5.000000000,4259850.000000000,-0.000005187,0.000003007,-0.000020279,0.000000000,5002.000000000,-0.000653116,-0.009921141,-0.046779599,0.000000000,4874.000000000,1.000000000,4325386.000000000,1748428317720625.000000000,1748428317720491.000000000
1748428317.737808,5.000000000,4259850.000000000,-0.000002788,-0.000011646,0.000002103,0.000000000,5001.000000000,-0.000635123,-0.009960190,-0.046999972,0.000000000,4875.000000000,1.000000000,4325386.000000000,1748428317730613.000000000,1748428317730493.000000000
1748428317.746848,5.000000000,4259850.000000000,0.000010528,0.000016063,0.000010093,0.000000000,5001.000000000,-0.000626054,-0.009987929,-0.046789188,0.000000000,4875.000000000,1.000000000,4325386.000000000,1748428317740615.000000000,1748428317740495.000000000
1748428317.756749,5.000000000,4259850.000000000,-0.000005987,-0.000040153,-0.000001630,0.000000000,5002.000000000,-0.000762045,-0.010043446,-0.046862505,0.000000000,4875.000000000,1.000000000,4325386.000000000,1748428317745614.000000000,1748428317745497.000000000
1748428317.766764,5.000000000,4259850.000000000,0.000000142,-0.000016442,-0.000000828,0.000000000,5001.000000000,-0.000716706,-0.009904668,-0.046752531,0.000000000,4875.000000000,1.000000000,4325386.000000000,1748428317760620.000000000,1748428317760500.000000000
1748428317.775799,5.000000000,4259850.000000000,-0.000004388,-0.000004719,0.000037001,0.000000000,5002.000000000,-0.000707655,-0.009839919,-0.046770845,0.000000000,4875.000000000,1.000000000,4325386.000000000,1748428317770642.000000000,1748428317770503.000000000
1748428317.785887,5.000000000,4259850.000000000,0.000042230,-0.000012977,0.000006375,0.000000000,5002.000000000,-0.000762053,-0.009978684,-0.046734214,0.000000000,4875.000000000,1.000000000,4325386.000000000,1748428317780696.000000000,1748428317780506.000000000
1748428317.795852,5.000000000,4259850.000000000,0.000011341,-0.000025221,-0.000024535,0.000000000,5002.000000000,-0.000780184,-0.009997179,-0.046770848,0.000000000,4875.000000000,1.000000000,4325386.000000000,1748428317790780.000000000,1748428317790508.000000000
1748428317.805835,5.000000000,4259850.000000000,0.000001206,-0.000027895,0.000016222,0.000000000,5001.000000000,-0.000916476,-0.014955190,-0.069991536,0.000000000,7313.000000000,1.000000000,4325386.000000000,1748428317800638.000000000,1748428317800510.000000000
1748428317.815819,5.000000000,4259850.000000000,0.000001203,-0.000005247,0.000023401,0.000000000,4998.000000000,-0.000571526,-0.009911891,-0.046752103,0.000000000,4874.000000000,1.000000000,4325386.000000000,1748428317810644.000000000,1748428317810512.000000000
1748428317.825728,5.000000000,4259850.000000000,-0.000006250,0.000003010,0.000046049,0.000000000,5001.000000000,-0.000816298,-0.009884141,-0.046889547,0.000000000,4874.000000000,1.000000000,4325386.000000000,1748428317820646.000000000,1748428317820515.000000000
1748428317.836769,5.000000000,4259850.000000000,-0.000001458,0.000013130,-0.000007763,0.000000000,5001.000000000,-0.000734875,-0.009997187,-0.046853319,0.000000000,4875.000000000,1.000000000,4325386.000000000,1748428317830640.000000000,1748428317830517.000000000
1748428317.846745,5.000000000,4259850.000000000,-0.000017976,-0.000010847,-0.000006159,0.000000000,5002.000000000,-0.000743933,-0.009950940,-0.046789184,0.000000000,4875.000000000,1.000000000,4325386.000000000,1748428317840641.000000000,1748428317840520.000000000
1748428317.855780,5.000000000,4259850.000000000,0.000011858,-0.000007111,0.000011415,0.000000000,5001.000000000,-0.000716732,-0.009987957,-0.046660881,0.000000000,4875.000000000,1.000000000,4325386.000000000,1748428317850641.000000000,1748428317850522.000000000
1748428317.866880,5.000000000,4259850.000000000,-0.000021968,-0.000001523,0.000009288,0.000000000,5001.000000000,-0.000716721,-0.010108219,-0.046853341,0.000000000,4875.000000000,1.000000000,4325386.000000000,1748428317860648.000000000,1748428317860524.000000000
1748428317.875855,5.000000000,4259850.000000000,-0.000004912,0.000036036,0.000018350,0.000000000,5001.000000000,-0.000798342,-0.009997187,-0.046807520,0.000000000,4875.000000000,1.000000000,4325386.000000000,1748428317870663.000000000,1748428317870527.000000000
1748428317.887857,5.000000000,4259850.000000000,-0.000001455,-0.000002587,-0.000024273,0.000000000,5001.000000000,-0.000825524,-0.010043465,-0.046853341,0.000000000,4875.000000000,1.000000000,4325386.000000000,1748428317875650.000000000,1748428317875528.000000000
1748428317.896745,5.000000000,4259850.000000000,-0.000032352,-0.000021501,0.000015152,0.000000000,5001.000000000,-0.000635246,-0.010017751,-0.046780460,0.000000000,4876.000000000,1.000000000,4325386.000000000,1748428317890669.000000000,1748428317890532.000000000
1748428317.906849,5.000000000,4259850.000000000,0.000016653,0.000004604,0.000002362,0.000000000,5001.000000000,-0.000698731,-0.009869689,-0.046881281,0.000000000,4876.000000000,1.000000000,4325386.000000000,1748428317900673.000000000,1748428317900534.000000000
1748428317.915830,5.000000000,4259850.000000000,-0.000014780,-0.000029754,0.000002103,0.000000000,5001.000000000,-0.000789268,-0.010043437,-0.046935827,0.000000000,4875.000000000,1.000000000,4325386.000000000,1748428317910667.000000000,1748428317910537.000000000
1748428317.925746,5.000000000,4259850.000000000,-0.000026756,0.000003541,0.000014075,0.000000000,5001.000000000,-0.000707655,-0.010080458,-0.046889998,0.000000000,4875.000000000,1.000000000,4325386.000000000,1748428317920673.000000000,1748428317920539.000000000
1748428317.935797,5.000000000,4259850.000000000,0.000004401,-0.000012445,0.000009286,0.000000000,5001.000000000,-0.000716576,-0.010096895,-0.046871215,0.000000000,4874.000000000,1.000000000,4325386.000000000,1748428317930661.000000000,1748428317930541.000000000
1748428317.944843,5.000000000,4259850.000000000,-0.000020905,0.000026452,-0.000002697,0.000000000,5001.000000000,-0.000725794,-0.010052692,-0.046935808,0.000000000,4875.000000000,1.000000000,4325386.000000000,1748428317940663.000000000,1748428317940544.000000000
1748428317.954850,5.000000000,4259850.000000000,0.000008670,0.000033902,0.000021547,0.000000000,5001.000000000,-0.000743929,-0.009793658,-0.046844173,0.000000000,4875.000000000,1.000000000,4325386.000000000,1748428317950669.000000000,1748428317950546.000000000
1748428317.965732,5.000000000,4259850.000000000,0.000019057,0.000028051,-0.000016816,0.000000000,5002.000000000,-0.000716870,-0.009989989,-0.046752952,0.000000000,4876.000000000,1.000000000,4325386.000000000,1748428317960670.000000000,1748428317960549.000000000
1748428317.977913,5.000000000,4259850.000000000,-0.000017172,0.000029111,-0.000020278,0.000000000,5001.000000000,-0.000644196,-0.010098967,-0.046807516,0.000000000,4875.000000000,1.000000000,4325386.000000000,1748428317970684.000000000,1748428317970551.000000000
1748428317.986796,5.000000000,4259850.000000000,-0.000019841,-0.000030562,-0.000004560,0.000000000,5002.000000000,-0.000580591,-0.009773138,-0.046779592,0.000000000,4874.000000000,1.000000000,4325386.000000000,1748428317980677.000000000,1748428317980554.000000000
1748428317.999813,5.000000000,4259850.000000000,0.000042490,-0.000000458,-0.000002155,0.000000000,5001.000000000,-0.001070614,-0.014936703,-0.070092343,0.000000000,7313.000000000,1.000000000,4325386.000000000,1748428317990709.000000000,1748428317990556.000000000
1748428318.007848,5.000000000,4259850.000000000,-0.000013175,0.000025643,0.000000501,0.000000000,5000.000000000,-0.000644051,-0.009902641,-0.046880387,0.000000000,4874.000000000,1.000000000,4325386.000000000,1748428318000684.000000000,1748428318000558.000000000
1748428318.018851,5.000000000,4259850.000000000,0.000006002,-0.000015903,0.000030343,0.000000000,5001.000000000,-0.000834771,-0.009962228,-0.046844620,0.000000000,4876.000000000,1.000000000,4325386.000000000,1748428318005676.000000000,1748428318005559.000000000
1748428318.027757,5.000000000,4259850.000000000,-0.000007047,-0.000010841,0.000004759,0.000000000,5001.000000000,-0.000725798,-0.009978695,-0.046725035,0.000000000,4875.000000000,1.000000000,4325386.000000000,1748428318020695.000000000,1748428318020563.000000000
1748428318.036826,5.000000000,4259850.000000000,-0.000009454,-0.000003654,-0.000027460,0.000000000,5001.000000000,-0.000870885,-0.009904678,-0.046844184,0.000000000,4875.000000000,1.000000000,4325386.000000000,1748428318025685.000000000,1748428318025564.000000000
1748428318.047002,5.000000000,4259850.000000000,0.000003868,-0.000018836,-0.000010145,0.000000000,5001.000000000,-0.000970603,-0.009849157,-0.046780020,0.000000000,4875.000000000,1.000000000,4325386.000000000,1748428318040693.000000000,1748428318040568.000000000
1748428318.055849,5.000000000,4259850.000000000,0.000036903,-0.000011113,-0.000008818,0.000000000,5001.000000000,-0.000825538,-0.009830647,-0.046853341,0.000000000,4875.000000000,1.000000000,4325386.000000000,1748428318050691.000000000,1748428318050570.000000000
1748428318.065814,5.000000000,4259850.000000000,0.000025183,0.000051753,0.000013019,0.000000000,5001.000000000,-0.000753147,-0.009943719,-0.046844620,0.000000000,4876.000000000,1.000000000,4325386.000000000,1748428318060692.000000000,1748428318060573.000000000
1748428318.075737,5.000000000,4259850.000000000,-0.000001994,-0.000006313,-0.000049846,0.000000000,5001.000000000,-0.000644319,-0.010045513,-0.046872135,0.000000000,4876.000000000,1.000000000,4325386.000000000,1748428318070709.000000000,1748428318070575.000000000
1748428318.085780,5.000000000,4259850.000000000,0.000011597,-0.000020971,-0.000005360,0.000000000,5002.000000000,-0.000680313,-0.009958141,-0.046742938,0.000000000,4874.000000000,1.000000000,4325386.000000000,1748428318080698.000000000,1748428318080578.000000000
1748428318.094846,5.000000000,4259850.000000000,0.000046486,-0.000006578,-0.000001899,0.000000000,5001.000000000,-0.000979924,-0.014936657,-0.070312314,0.000000000,7313.000000000,1.000000000,4325386.000000000,1748428318090703.000000000,1748428318090580.000000000
1748428318.105803,5.000000000,4259850.000000000,-0.000032362,-0.000007117,0.000013823,0.000000000,5002.000000000,-0.000698590,-0.009997192,-0.046715867,0.000000000,4875.000000000,1.000000000,4325386.000000000,1748428318100709.000000000,1748428318100583.000000000
1748428318.115791,5.000000000,4259850.000000000,0.000012656,-0.000006323,0.000010888,0.000000000,5001.000000000,-0.000571641,-0.010163705,-0.046853349,0.000000000,4875.000000000,1.000000000,4325386.000000000,1748428318110705.000000000,1748428318110585.000000000
1748428318.126770,5.000000000,4259850.000000000,0.000008936,-0.000002324,-0.000013355,0.000000000,5001.000000000,-0.000580699,-0.010043453,-0.046825860,0.000000000,4875.000000000,1.000000000,4325386.000000000,1748428318120719.000000000,1748428318120587.000000000
1748428318.135801,5.000000000,4259850.000000000,0.000018791,-0.000037223,0.000010892,0.000000000,5002.000000000,-0.000752983,-0.009904668,-0.046761703,0.000000000,4875.000000000,1.000000000,4325386.000000000,1748428318130710.000000000,1748428318130590.000000000
1748428318.146744,5.000000000,4259850.000000000,0.000006271,-0.000007645,0.000000501,0.000000000,5001.000000000,-0.000888823,-0.010041392,-0.046752103,0.000000000,4874.000000000,1.000000000,4325386.000000000,1748428318135710.000000000,1748428318135591.000000000
1748428318.155762,5.000000000,4259850.000000000,-0.000012647,-0.000028697,0.000014356,0.000000000,5002.000000000,-0.000843684,-0.009932429,-0.046798356,0.000000000,4875.000000000,1.000000000,4325386.000000000,1748428318150724.000000000,1748428318150595.000000000
1748428318.165808,5.000000000,4259850.000000000,0.000014267,0.000009943,0.000005323,0.000000000,5001.000000000,-0.000771104,-0.009932429,-0.046825849,0.000000000,4875.000000000,1.000000000,4325386.000000000,1748428318155759.000000000,1748428318155596.000000000
1748428318.177762,5.000000000,4259850.000000000,-0.000004919,0.000005140,0.000027943,0.000000000,5001.000000000,-0.000771122,-0.009867663,-0.046890002,0.000000000,4875.000000000,1.000000000,4325386.000000000,1748428318165825.000000000,1748428318165598.000000000
1748428318.186764,5.000000000,4259850.000000000,-0.000026761,-0.000004985,0.000018345,0.000000000,5001.000000000,-0.000780363,-0.009999247,-0.046872120,0.000000000,4876.000000000,1.000000000,4325386.000000000,1748428318180736.000000000,1748428318180602.000000000
1748428318.196860,5.000000000,4259850.000000000,-0.000004919,0.000012860,0.000014083,0.000000000,5000.000000000,-0.000716736,-0.009802905,-0.046725035,0.000000000,4875.000000000,1.000000000,4325386.000000000,1748428318190736.000000000,1748428318190604.000000000
1748428318.205804,5.000000000,4259850.000000000,-0.000006786,-0.000013511,-0.000008024,0.000000000,5002.000000000,-0.000716717,-0.009904671,-0.046890002,0.000000000,4875.000000000,1.000000000,4325386.000000000,1748428318200733.000000000,1748428318200607.000000000
1748428318.215811,5.000000000,4259850.000000000,-0.000004654,-0.000003921,-0.000009624,0.000000000,5001.000000000,-0.000662338,-0.010024965,-0.046844173,0.000000000,4875.000000000,1.000000000,4325386.000000000,1748428318210727.000000000,1748428318210609.000000000
1748428318.226749,5.000000000,4259850.000000000,-0.000009184,0.000007270,-0.000009090,0.000000000,5002.000000000,-0.000771122,-0.009913940,-0.046844173,0.000000000,4875.000000000,1.000000000,4325386.000000000,1748428318220748.000000000,1748428318220612.000000000
1748428318.236753,5.000000000,4259850.000000000,0.000008133,-0.000022038,0.000005826,0.000000000,5001.000000000,-0.000834429,-0.009948892,-0.046770431,0.000000000,4874.000000000,1.000000000,4325386.000000000,1748428318230733.000000000,1748428318230614.000000000
1748428318.245782,5.000000000,4259850.000000000,-0.000015569,0.000026447,0.000016484,0.000000000,5001.000000000,-0.000752999,-0.009978699,-0.046880834,0.000000000,4875.000000000,1.000000000,4325386.000000000,1748428318240739.000000000,1748428318240616.000000000
1748428318.256760,5.000000000,4259850.000000000,0.000000405,0.000011001,0.000006895,0.000000000,5001.000000000,-0.000798327,-0.009923176,-0.046734221,0.000000000,4875.000000000,1.000000000,4325386.000000000,1748428318250741.000000000,1748428318250619.000000000
1748428318.265882,5.000000000,4259850.000000000,0.000003870,0.000006466,-0.000016010,0.000000000,5001.000000000,-0.000834429,-0.009939641,-0.046926193,0.000000000,4874.000000000,1.000000000,4325386.000000000,1748428318260743.000000000,1748428318260621.000000000
1748428318.276899,5.000000000,4259850.000000000,-0.000023571,-0.000025500,0.000022082,0.000000000,5002.000000000,-0.000707674,-0.009895409,-0.046926651,0.000000000,4875.000000000,1.000000000,4325386.000000000,1748428318270763.000000000,1748428318270624.000000000
1748428318.285856,5.000000000,4259850.000000000,0.000026246,0.000016057,-0.000024270,0.000000000,5001.000000000,-0.001052352,-0.014916116,-0.070220225,0.000000000,7312.000000000,1.000000000,4325386.000000000,1748428318280783.000000000,1748428318280626.000000000
1748428318.295814,5.000000000,4259850.000000000,0.000006535,-0.000027365,0.000007695,0.000000000,5002.000000000,-0.000761904,-0.009958141,-0.046843730,0.000000000,4874.000000000,1.000000000,4325386.000000000,1748428318285748.000000000,1748428318285628.000000000
1748428318.305855,5.000000000,4259850.000000000,0.000017192,-0.000003387,0.000000502,0.000000000,5002.000000000,-0.000680444,-0.009987934,-0.046825837,0.000000000,4875.000000000,1.000000000,4325386.000000000,1748428318295749.000000000,1748428318295630.000000000
1748428318.315810,5.000000000,4259850.000000000,-0.000010774,-0.000012442,-0.000037053,0.000000000,5001.000000000,-0.000716870,-0.009934464,-0.046752952,0.000000000,4876.000000000,1.000000000,4325386.000000000,1748428318310759.000000000,1748428318310633.000000000
1748428318.326858,5.000000000,4259850.000000000,-0.000006253,0.000038708,0.000011425,0.000000000,5002.000000000,-0.000834612,-0.009950922,-0.046844181,0.000000000,4875.000000000,1.000000000,4325386.000000000,1748428318320773.000000000,1748428318320636.000000000
1748428318.336758,5.000000000,4259850.000000000,0.000025181,0.000009656,-0.000008288,0.000000000,5001.000000000,-0.000752987,-0.009978699,-0.046835020,0.000000000,4875.000000000,1.000000000,4325386.000000000,1748428318330761.000000000,1748428318330638.000000000
1748428318.345853,5.000000000,4259850.000000000,0.000007867,-0.000003920,0.000000235,0.000000000,5002.000000000,-0.000707659,-0.009904683,-0.046725046,0.000000000,4875.000000000,1.000000000,4325386.000000000,1748428318340767.000000000,1748428318340641.000000000
1748428318.355778,5.000000000,4259850.000000000,-0.000004648,0.000012860,0.000025008,0.000000000,5001.000000000,-0.000725790,-0.009895417,-0.046752535,0.000000000,4875.000000000,1.000000000,4325386.000000000,1748428318350767.000000000,1748428318350643.000000000
1748428318.365775,5.000000000,4259850.000000000,0.000005999,-0.000002852,-0.000040255,0.000000000,5001.000000000,-0.000752987,-0.009950930,-0.046917472,0.000000000,4875.000000000,1.000000000,4325386.000000000,1748428318360768.000000000,1748428318360645.000000000
1748428318.376772,5.000000000,4259850.000000000,0.000001473,-0.000007650,-0.000023210,0.000000000,5002.000000000,-0.000843670,-0.009941688,-0.046780035,0.000000000,4875.000000000,1.000000000,4325386.000000000,1748428318370806.000000000,1748428318370648.000000000
1748428318.387760,5.000000000,4259850.000000000,0.000007592,0.000022454,-0.000012817,0.000000000,5001.000000000,-0.000634985,-0.009958141,-0.046706293,0.000000000,4874.000000000,1.000000000,4325386.000000000,1748428318380772.000000000,1748428318380650.000000000
1748428318.399764,5.000000000,4259850.000000000,0.000008134,-0.000000723,-0.000002429,0.000000000,5002.000000000,-0.000662338,-0.010006437,-0.046844173,0.000000000,4875.000000000,1.000000000,4325386.000000000,1748428318390797.000000000,1748428318390678.000000000
1748428318.408796,5.000000000,4259850.000000000,-0.000000654,-0.000010305,-0.000004561,0.000000000,5001.000000000,-0.000698590,-0.009960183,-0.046789199,0.000000000,4875.000000000,1.000000000,4325386.000000000,1748428318400810.000000000,1748428318400680.000000000
1748428318.417761,5.000000000,4259850.000000000,0.000020653,0.000008328,-0.000018944,0.000000000,5001.000000000,-0.000716732,-0.009941688,-0.046770863,0.000000000,4875.000000000,1.000000000,4325386.000000000,1748428318410807.000000000,1748428318410682.000000000
1748428318.426876,5.000000000,4259850.000000000,-0.000003590,0.000016593,-0.000018684,0.000000000,5001.000000000,-0.000780214,-0.009839919,-0.046807516,0.000000000,4875.000000000,1.000000000,4325386.000000000,1748428318415808.000000000,1748428318415683.000000000
1748428318.436800,5.000000000,4259850.000000000,0.000003871,-0.000036420,0.000010885,0.000000000,5001.000000000,-0.000743937,-0.009895421,-0.046761706,0.000000000,4875.000000000,1.000000000,4325386.000000000,1748428318425808.000000000,1748428318425686.000000000
1748428318.445857,5.000000000,4259850.000000000,0.000020656,-0.000009781,-0.000014152,0.000000000,5002.000000000,-0.000671371,-0.009969445,-0.046816692,0.000000000,4875.000000000,1.000000000,4325386.000000000,1748428318435810.000000000,1748428318435689.000000000
1748428318.455803,5.000000000,4259850.000000000,0.000033705,-0.000022836,0.000025009,0.000000000,5001.000000000,-0.000753147,-0.010073275,-0.046798788,0.000000000,4876.000000000,1.000000000,4325386.000000000,1748428318450817.000000000,1748428318450692.000000000
1748428318.465781,5.000000000,4259850.000000000,-0.000020900,-0.000025497,0.000020748,0.000000000,5001.000000000,-0.000734856,-0.009997179,-0.046642561,0.000000000,4875.000000000,1.000000000,4325386.000000000,1748428318460817.000000000,1748428318460694.000000000
1748428318.475858,5.000000000,4259850.000000000,-0.000016115,-0.000015668,-0.000014174,0.000000000,5004.000000000,-0.000616973,-0.010006450,-0.046725035,0.000000000,4875.000000000,1.000000000,4325386.000000000,1748428318470853.000000000,1748428318470700.000000000
1748428318.485814,5.000000000,4259850.000000000,-0.000018238,0.000010198,-0.000017878,0.000000000,5001.000000000,-0.000734852,-0.010034191,-0.046807520,0.000000000,4875.000000000,1.000000000,4325386.000000000,1748428318480822.000000000,1748428318480699.000000000
1748428318.496766,5.000000000,4259850.000000000,-0.000007319,-0.000000456,-0.000019747,0.000000000,5002.000000000,-0.000816465,-0.010163742,-0.046734199,0.000000000,4875.000000000,1.000000000,4325386.000000000,1748428318490826.000000000,1748428318490702.000000000
1748428318.505775,5.000000000,4259850.000000000,0.000005471,0.000014720,-0.000013346,0.000000000,5001.000000000,-0.000825524,-0.010034199,-0.046908338,0.000000000,4875.000000000,1.000000000,4325386.000000000,1748428318500835.000000000,1748428318500704.000000000
1748428318.515875,5.000000000,4259850.000000000,0.000001206,0.000012327,0.000008491,0.000000000,5000.000000000,-0.000798353,-0.009997202,-0.046734203,0.000000000,4875.000000000,1.000000000,4325386.000000000,1748428318510829.000000000,1748428318510706.000000000
1748428318.525847,5.000000000,4259850.000000000,-0.000013173,-0.000019373,-0.000001634,0.000000000,5001.000000000,-0.000843673,-0.010006458,-0.046807516,0.000000000,4875.000000000,1.000000000,4325386.000000000,1748428318520847.000000000,1748428318520709.000000000
1748428318.536808,5.000000000,4259850.000000000,0.000016123,-0.000004985,-0.000004027,0.000000000,5001.000000000,-0.000716714,-0.009876932,-0.046825841,0.000000000,4875.000000000,1.000000000,4325386.000000000,1748428318530854.000000000,1748428318530711.000000000
1748428318.545811,5.000000000,4259850.000000000,0.000009462,-0.000014841,0.000001039,0.000000000,5001.000000000,-0.000780195,-0.009839913,-0.046789199,0.000000000,4875.000000000,1.000000000,4325386.000000000,1748428318540919.000000000,1748428318540714.000000000
1748428318.556804,5.000000000,4259850.000000000,-0.000012912,0.000032578,-0.000003494,0.000000000,5001.000000000,-0.000635116,-0.009886171,-0.046844184,0.000000000,4875.000000000,1.000000000,4325386.000000000,1748428318545952.000000000,1748428318545715.000000000
1748428318.566868,5.000000000,4259850.000000000,-0.000002257,0.000044026,-0.000011215,0.000000000,5001.000000000,-0.000879936,-0.009895417,-0.046743371,0.000000000,4875.000000000,1.000000000,4325386.000000000,1748428318555847.000000000,1748428318555717.000000000
1748428318.577762,5.000000000,4259850.000000000,0.000019053,0.000005399,0.000000773,0.000000000,5001.000000000,-0.000789268,-0.009987934,-0.046899170,0.000000000,4875.000000000,1.000000000,4325386.000000000,1748428318565855.000000000,1748428318565720.000000000
1748428318.586813,5.000000000,4259850.000000000,0.000023310,-0.000011378,0.000001575,0.000000000,5001.000000000,-0.000598857,-0.009812170,-0.046825849,0.000000000,4875.000000000,1.000000000,4325386.000000000,1748428318580863.000000000,1748428318580723.000000000
1748428318.595851,5.000000000,4259850.000000000,-0.000007854,0.000007268,0.000013554,0.000000000,5001.000000000,-0.000689535,-0.009867668,-0.046752535,0.000000000,4875.000000000,1.000000000,4325386.000000000,1748428318590846.000000000,1748428318590726.000000000
1748428318.605825,5.000000000,4259850.000000000,0.000003871,0.000008602,0.000004764,0.000000000,5002.000000000,-0.000635130,-0.009950940,-0.046798348,0.000000000,4875.000000000,1.000000000,4325386.000000000,1748428318600855.000000000,1748428318600729.000000000
1748428318.615758,5.000000000,4259850.000000000,0.000036371,0.000001674,-0.000006963,0.000000000,5001.000000000,-0.000671385,-0.009950934,-0.046770863,0.000000000,4875.000000000,1.000000000,4325386.000000000,1748428318610853.000000000,1748428318610731.000000000
1748428318.625806,5.000000000,4259850.000000000,0.000006538,0.000006472,0.000004492,0.000000000,5001.000000000,-0.000852821,-0.009952914,-0.046789713,0.000000000,4876.000000000,1.000000000,4325386.000000000,1748428318620874.000000000,1748428318620733.000000000
1748428318.635783,5.000000000,4259850.000000000,0.000006002,0.000000343,-0.000012820,0.000000000,5002.000000000,-0.000662346,-0.010071211,-0.046789199,0.000000000,4875.000000000,1.000000000,4325386.000000000,1748428318630856.000000000,1748428318630736.000000000
1748428318.646803,5.000000000,4259850.000000000,-0.000033157,0.000003539,0.000009297,0.000000000,5001.000000000,-0.000816633,-0.009952975,-0.046762124,0.000000000,4876.000000000,1.000000000,4325386.000000000,1748428318640860.000000000,1748428318640738.000000000
1748428318.655866,5.000000000,4259850.000000000,0.000016926,-0.000018840,-0.000005360,0.000000000,5002.000000000,-0.000907326,-0.009971482,-0.046780460,0.000000000,4876.000000000,1.000000000,4325386.000000000,1748428318650864.000000000,1748428318650741.000000000
1748428318.667764,5.000000000,4259850.000000000,0.000019587,-0.000033220,0.000007691,0.000000000,5001.000000000,-0.000798330,-0.009941678,-0.046770863,0.000000000,4875.000000000,1.000000000,4325386.000000000,1748428318660882.000000000,1748428318660743.000000000
1748428318.676005,5.000000000,4259850.000000000,-0.000019575,0.000011263,-0.000037599,0.000000000,5001.000000000,-0.000762060,-0.009978684,-0.046752531,0.000000000,4875.000000000,1.000000000,4325386.000000000,1748428318670888.000000000,1748428318670745.000000000
1748428318.687832,5.000000000,4259850.000000000,-0.000014774,0.000036567,0.000029003,0.000000000,5001.000000000,-0.000616992,-0.009932429,-0.046835013,0.000000000,4875.000000000,1.000000000,4325386.000000000,1748428318675866.000000000,1748428318675746.000000000
1748428318.696803,5.000000000,4259850.000000000,0.000040360,-0.000004987,-0.000016543,0.000000000,5001.000000000,-0.001125026,-0.014908894,-0.070165694,0.000000000,7313.000000000,1.000000000,4325386.000000000,1748428318685919.000000000,1748428318685749.000000000
1748428318.705879,5.000000000,4259850.000000000,0.000003605,0.000007267,-0.000000034,0.000000000,5001.000000000,-0.000725939,-0.009989989,-0.046872120,0.000000000,4876.000000000,1.000000000,4325386.000000000,1748428318695872.000000000,1748428318695751.000000000
1748428318.715795,5.000000000,4259850.000000000,0.000011329,-0.000020435,0.000014607,0.000000000,5001.000000000,-0.000735009,-0.009925212,-0.046771284,0.000000000,4876.000000000,1.000000000,4325386.000000000,1748428318710875.000000000,1748428318710755.000000000
1748428318.726918,5.000000000,4259850.000000000,-0.000008653,0.000012861,0.000023144,0.000000000,5001.000000000,-0.000743922,-0.009895413,-0.046688382,0.000000000,4875.000000000,1.000000000,4325386.000000000,1748428318715877.000000000,1748428318715756.000000000
1748428318.736867,5.000000000,4259850.000000000,-0.000006786,0.000020324,0.000021549,0.000000000,5002.000000000,-0.000689379,-0.009958141,-0.046825413,0.000000000,4874.000000000,1.000000000,4325386.000000000,1748428318730882.000000000,1748428318730760.000000000
