__time,/fmu/out/vehicle_attitude/delta_q_reset[0],/fmu/out/vehicle_attitude/delta_q_reset[1],/fmu/out/vehicle_attitude/delta_q_reset[2],/fmu/out/vehicle_attitude/delta_q_reset[3],/fmu/out/vehicle_attitude/q[0],/fmu/out/vehicle_attitude/q[1],/fmu/out/vehicle_attitude/q[2],/fmu/out/vehicle_attitude/q[3],/fmu/out/vehicle_attitude/quat_reset_counter,/fmu/out/vehicle_attitude/timestamp,/fmu/out/vehicle_attitude/timestamp_sample
1748428316.483865,0.910377204,-0.000000003,0.000000057,-0.413779289,0.661414385,0.071671128,0.077299677,0.742576003,5.000000000,1748428316475331.000000000,1748428316475167.000000000
1748428316.493843,0.910377204,-0.000000003,0.000000057,-0.413779289,0.661419630,0.071668081,0.077300198,0.742571592,5.000000000,1748428316485339.000000000,1748428316485169.000000000
1748428316.505793,0.910377204,-0.000000003,0.000000057,-0.413779289,0.661421657,0.071684003,0.077299371,0.742568314,5.000000000,1748428316495346.000000000,1748428316495172.000000000
1748428316.514747,0.910377204,-0.000000003,0.000000057,-0.413779289,0.661420584,0.071690239,0.077309631,0.742567539,5.000000000,1748428316505339.000000000,1748428316505174.000000000
1748428316.524784,0.910377204,-0.000000003,0.000000057,-0.413779289,0.661416888,0.071686253,0.077302322,0.742572010,5.000000000,1748428316515357.000000000,1748428316515177.000000000
1748428316.534768,0.910377204,-0.000000003,0.000000057,-0.413779289,0.661417603,0.071685545,0.077298909,0.742571771,5.000000000,1748428316525344.000000000,1748428316525179.000000000
1748428316.543840,0.910377204,-0.000000003,0.000000057,-0.413779289,0.661403477,0.071691222,0.077301092,0.742583632,5.000000000,1748428316535344.000000000,1748428316535181.000000000
1748428316.553800,0.910377204,-0.000000003,0.000000057,-0.413779289,0.661402524,0.071676284,0.077306576,0.742585301,5.000000000,1748428316545349.000000000,1748428316545184.000000000
1748428316.563772,0.910377204,-0.000000003,0.000000057,-0.413779289,0.661411285,0.071667582,0.077318251,0.742577195,5.000000000,1748428316555352.000000000,1748428316555186.000000000
1748428316.573871,0.910377204,-0.000000003,0.000000057,-0.413779289,0.661405802,0.071660809,0.077305205,0.742583990,5.000000000,1748428316565351.000000000,1748428316565189.000000000
1748428316.583743,0.910377204,-0.000000003,0.000000057,-0.413779289,0.661410213,0.071661860,0.077320173,0.742578447,5.000000000,1748428316575354.000000000,1748428316575191.000000000
1748428316.593763,0.910377204,-0.000000003,0.000000057,-0.413779289,0.661399662,0.071676292,0.077318154,0.742586672,5.000000000,1748428316585365.000000000,1748428316585194.000000000
1748428316.604821,0.910377204,-0.000000003,0.000000057,-0.413779289,0.661388695,0.071673028,0.077315748,0.742597044,5.000000000,1748428316595367.000000000,1748428316595196.000000000
1748428316.614772,0.910377204,-0.000000003,0.000000057,-0.413779289,0.661392212,0.071678407,0.077323578,0.742592573,5.000000000,1748428316605361.000000000,1748428316605198.000000000
1748428316.624853,0.910377204,-0.000000003,0.000000057,-0.413779289,0.661385655,0.071675986,0.077305637,0.742600501,5.000000000,1748428316615413.000000000,1748428316615201.000000000
1748428316.635800,0.910377204,-0.000000003,0.000000057,-0.413779289,0.661385596,0.071678624,0.077304304,0.742600381,5.000000000,1748428316625394.000000000,1748428316625203.000000000
1748428316.644825,0.910377204,-0.000000003,0.000000057,-0.413779289,0.661382973,0.071674675,0.077308103,0.742602706,5.000000000,1748428316635382.000000000,1748428316635206.000000000
1748428316.653878,0.910377204,-0.000000003,0.000000057,-0.413779289,0.661374569,0.071675070,0.077308528,0.742610097,5.000000000,1748428316645450.000000000,1748428316645208.000000000
1748428316.663848,0.910377204,-0.000000003,0.000000057,-0.413779289,0.661387801,0.071685597,0.077304050,0.742597759,5.000000000,1748428316655520.000000000,1748428316655210.000000000
1748428316.674765,0.910377204,-0.000000003,0.000000057,-0.413779289,0.661399364,0.071687497,0.077319495,0.742585778,5.000000000,1748428316665382.000000000,1748428316665213.000000000
1748428316.684864,0.910377204,-0.000000003,0.000000057,-0.413779289,0.661414564,0.071688533,0.077325203,0.742571473,5.000000000,1748428316675393.000000000,1748428316675215.000000000
1748428316.693927,0.910377204,-0.000000003,0.000000057,-0.413779289,0.661410391,0.071698174,0.077326201,0.742574155,5.000000000,1748428316685405.000000000,1748428316685219.000000000
1748428316.705860,0.910377204,-0.000000003,0.000000057,-0.413779289,0.661412060,0.071700014,0.077332184,0.742571890,5.000000000,1748428316695389.000000000,1748428316695220.000000000
1748428316.714850,0.910377204,-0.000000003,0.000000057,-0.413779289,0.661427915,0.071704745,0.077322349,0.742558360,5.000000000,1748428316705386.000000000,1748428316705222.000000000
1748428316.724860,0.910377204,-0.000000003,0.000000057,-0.413779289,0.661443174,0.071701549,0.077317059,0.742545605,5.000000000,1748428316715451.000000000,1748428316715225.000000000
1748428316.733835,0.910377204,-0.000000003,0.000000057,-0.413779289,0.661458015,0.071701854,0.077313997,0.742532670,5.000000000,1748428316725394.000000000,1748428316725227.000000000
1748428316.743819,0.910377204,-0.000000003,0.000000057,-0.413779289,0.661466002,0.071698584,0.077309683,0.742526352,5.000000000,1748428316735395.000000000,1748428316735230.000000000
1748428316.753786,0.910377204,-0.000000003,0.000000057,-0.413779289,0.661469519,0.071694076,0.077316001,0.742523015,5.000000000,1748428316745394.000000000,1748428316745232.000000000
1748428316.765811,0.910377204,-0.000000003,0.000000057,-0.413779289,0.661475599,0.071703315,0.077301368,0.742518187,5.000000000,1748428316755398.000000000,1748428316755235.000000000
1748428316.773786,0.910377204,-0.000000003,0.000000057,-0.413779289,0.661481500,0.071699440,0.077293277,0.742514074,5.000000000,1748428316765402.000000000,1748428316765237.000000000
1748428316.784862,0.910377204,-0.000000003,0.000000057,-0.413779289,0.661475360,0.071710989,0.077284157,0.742519438,5.000000000,1748428316775404.000000000,1748428316775239.000000000
1748428316.794811,0.910377204,-0.000000003,0.000000057,-0.413779289,0.661468863,0.071705155,0.077280730,0.742526174,5.000000000,1748428316785412.000000000,1748428316785242.000000000
1748428316.805006,0.910377204,-0.000000003,0.000000057,-0.413779289,0.661468267,0.071715847,0.077265225,0.742527246,5.000000000,1748428316795418.000000000,1748428316795244.000000000
1748428316.814874,0.910377204,-0.000000003,0.000000057,-0.413779289,0.661474526,0.071699731,0.077273645,0.742522359,5.000000000,1748428316805426.000000000,1748428316805247.000000000
1748428316.824847,0.910377204,-0.000000003,0.000000057,-0.413779289,0.661476254,0.071679749,0.077276051,0.742522478,5.000000000,1748428316815416.000000000,1748428316815249.000000000
1748428316.834857,0.910377204,-0.000000003,0.000000057,-0.413779289,0.661473632,0.071685515,0.077284425,0.742523372,5.000000000,1748428316825414.000000000,1748428316825251.000000000
1748428316.844815,0.910377204,-0.000000003,0.000000057,-0.413779289,0.661476076,0.071663596,0.077275783,0.742524207,5.000000000,1748428316835416.000000000,1748428316835254.000000000
1748428316.853832,0.910377204,-0.000000003,0.000000057,-0.413779289,0.661470652,0.071667857,0.077276938,0.742528558,5.000000000,1748428316845418.000000000,1748428316845256.000000000
1748428316.863775,0.910377204,-0.000000003,0.000000057,-0.413779289,0.661478937,0.071675330,0.077271909,0.742520928,5.000000000,1748428316855426.000000000,1748428316855259.000000000
1748428316.873918,0.910377204,-0.000000003,0.000000057,-0.413779289,0.661479831,0.071675740,0.077287681,0.742518425,5.000000000,1748428316865425.000000000,1748428316865261.000000000
1748428316.883766,0.910377204,-0.000000003,0.000000057,-0.413779289,0.661484420,0.071681485,0.077283271,0.742514253,5.000000000,1748428316875428.000000000,1748428316875264.000000000
1748428316.894896,0.910377204,-0.000000003,0.000000057,-0.413779289,0.661470890,0.071690984,0.077281281,0.742525697,5.000000000,1748428316885456.000000000,1748428316885266.000000000
1748428316.903878,0.910377204,-0.000000003,0.000000057,-0.413779289,0.661484241,0.071691714,0.077285059,0.742513299,5.000000000,1748428316895451.000000000,1748428316895268.000000000
1748428316.915788,0.910377204,-0.000000003,0.000000057,-0.413779289,0.661469877,0.071685351,0.077289380,0.742526293,5.000000000,1748428316905465.000000000,1748428316905271.000000000
1748428316.924817,0.910377204,-0.000000003,0.000000057,-0.413779289,0.661468863,0.071715273,0.077280745,0.742525220,5.000000000,1748428316915436.000000000,1748428316915274.000000000
1748428316.933755,0.910377204,-0.000000003,0.000000057,-0.413779289,0.661467135,0.071701847,0.077295803,0.742526412,5.000000000,1748428316925440.000000000,1748428316925276.000000000
1748428316.943839,0.910377204,-0.000000003,0.000000057,-0.413779289,0.661486447,0.071674332,0.077309690,0.742510378,5.000000000,1748428316935440.000000000,1748428316935278.000000000
1748428316.953862,0.910377204,-0.000000003,0.000000057,-0.413779289,0.661491752,0.071680672,0.077310510,0.742505014,5.000000000,1748428316945445.000000000,1748428316945281.000000000
1748428316.964953,0.910377204,-0.000000003,0.000000057,-0.413779289,0.661506832,0.071683459,0.077296570,0.742492795,5.000000000,1748428316955445.000000000,1748428316955283.000000000
1748428316.974761,0.910377204,-0.000000003,0.000000057,-0.413779289,0.661507428,0.071685202,0.077311702,0.742490530,5.000000000,1748428316965448.000000000,1748428316965285.000000000
1748428316.984811,0.910377204,-0.000000003,0.000000057,-0.413779289,0.661505878,0.071679309,0.077312306,0.742492318,5.000000000,1748428316975450.000000000,1748428316975288.000000000
1748428316.994852,0.910377204,-0.000000003,0.000000057,-0.413779289,0.661509216,0.071692586,0.077314503,0.742487907,5.000000000,1748428316990456.000000000,1748428316990291.000000000
1748428317.006765,0.910377204,-0.000000003,0.000000057,-0.413779289,0.661511958,0.071690798,0.077308528,0.742486238,5.000000000,1748428316995460.000000000,1748428316995293.000000000
1748428317.015743,0.910377204,-0.000000003,0.000000057,-0.413779289,0.661516309,0.071699530,0.077295169,0.742482901,5.000000000,1748428317005510.000000000,1748428317005296.000000000
1748428317.025777,0.910377204,-0.000000003,0.000000057,-0.413779289,0.661513746,0.071705103,0.077292204,0.742484927,5.000000000,1748428317015482.000000000,1748428317015297.000000000
1748428317.033965,0.910377204,-0.000000003,0.000000057,-0.413779289,0.661526799,0.071707286,0.077276833,0.742474675,5.000000000,1748428317025566.000000000,1748428317025300.000000000
1748428317.045784,0.910377204,-0.000000003,0.000000057,-0.413779289,0.661532164,0.071716018,0.077279724,0.742468834,5.000000000,1748428317035618.000000000,1748428317035302.000000000
1748428317.053846,0.910377204,-0.000000003,0.000000057,-0.413779289,0.661534250,0.071713939,0.077283360,0.742466807,5.000000000,1748428317045475.000000000,1748428317045304.000000000
1748428317.064771,0.910377204,-0.000000003,0.000000057,-0.413779289,0.661532462,0.071706399,0.077270344,0.742470384,5.000000000,1748428317055482.000000000,1748428317055307.000000000
1748428317.073930,0.910377204,-0.000000003,0.000000057,-0.413779289,0.661538422,0.071711540,0.077280447,0.742463589,5.000000000,1748428317065477.000000000,1748428317065310.000000000
1748428317.083840,0.910377204,-0.000000003,0.000000057,-0.413779289,0.661541998,0.071727969,0.077280797,0.742458761,5.000000000,1748428317075476.000000000,1748428317075312.000000000
1748428317.094779,0.910377204,-0.000000003,0.000000057,-0.413779289,0.661555231,0.071726069,0.077271610,0.742448092,5.000000000,1748428317085476.000000000,1748428317085314.000000000
1748428317.104803,0.910377204,-0.000000003,0.000000057,-0.413779289,0.661549509,0.071722776,0.077272259,0.742453456,5.000000000,1748428317095507.000000000,1748428317095317.000000000
1748428317.114807,0.910377204,-0.000000003,0.000000057,-0.413779289,0.661553621,0.071731173,0.077258065,0.742450535,5.000000000,1748428317105485.000000000,1748428317105319.000000000
1748428317.123817,0.910377204,-0.000000003,0.000000057,-0.413779289,0.661569417,0.071732819,0.077248655,0.742437243,5.000000000,1748428317115487.000000000,1748428317115322.000000000
1748428317.133868,0.910377204,-0.000000003,0.000000057,-0.413779289,0.661565006,0.071731061,0.077254847,0.742440701,5.000000000,1748428317125488.000000000,1748428317125324.000000000
1748428317.143813,0.910377204,-0.000000003,0.000000057,-0.413779289,0.661570609,0.071734659,0.077247195,0.742436111,5.000000000,1748428317135489.000000000,1748428317135326.000000000
1748428317.153842,0.910377204,-0.000000003,0.000000057,-0.413779289,0.661569536,0.071744390,0.077230833,0.742437899,5.000000000,1748428317145494.000000000,1748428317145329.000000000
1748428317.163743,0.910377204,-0.000000003,0.000000057,-0.413779289,0.661574244,0.071733035,0.077241220,0.742433667,5.000000000,1748428317155496.000000000,1748428317155331.000000000
1748428317.174889,0.910377204,-0.000000003,0.000000057,-0.413779289,0.661576629,0.071753852,0.077245623,0.742429018,5.000000000,1748428317165498.000000000,1748428317165334.000000000
1748428317.185754,0.910377204,-0.000000003,0.000000057,-0.413779289,0.661588728,0.071741723,0.077246383,0.742419422,5.000000000,1748428317175496.000000000,1748428317175336.000000000
1748428317.195751,0.910377204,-0.000000003,0.000000057,-0.413779289,0.661596000,0.071752802,0.077231161,0.742413402,5.000000000,1748428317185504.000000000,1748428317185339.000000000
1748428317.204803,0.910377204,-0.000000003,0.000000057,-0.413779289,0.661609590,0.071742140,0.077256091,0.742399752,5.000000000,1748428317195547.000000000,1748428317195341.000000000
1748428317.214851,0.910377204,-0.000000003,0.000000057,-0.413779289,0.661616504,0.071743622,0.077249527,0.742394090,5.000000000,1748428317205506.000000000,1748428317205343.000000000
1748428317.225832,0.910377204,-0.000000003,0.000000057,-0.413779289,0.661606729,0.071731634,0.077255055,0.742403388,5.000000000,1748428317215507.000000000,1748428317215345.000000000
1748428317.235755,0.910377204,-0.000000003,0.000000057,-0.413779289,0.661604583,0.071748421,0.077247344,0.742404521,5.000000000,1748428317225511.000000000,1748428317225348.000000000
1748428317.245766,0.910377204,-0.000000003,0.000000057,-0.413779289,0.661613882,0.071731478,0.077243976,0.742398262,5.000000000,1748428317235513.000000000,1748428317235350.000000000
1748428317.254808,0.910377204,-0.000000003,0.000000057,-0.413779289,0.661619961,0.071722314,0.077256851,0.742392361,5.000000000,1748428317245517.000000000,1748428317245353.000000000
1748428317.264743,0.910377204,-0.000000003,0.000000057,-0.413779289,0.661630869,0.071733832,0.077254109,0.742381811,5.000000000,1748428317255519.000000000,1748428317255355.000000000
1748428317.274767,0.910377204,-0.000000003,0.000000057,-0.413779289,0.661634088,0.071738541,0.077251896,0.742378771,5.000000000,1748428317265520.000000000,1748428317265358.000000000
1748428317.284808,0.910377204,-0.000000003,0.000000057,-0.413779289,0.661625624,0.071748562,0.077265263,0.742383897,5.000000000,1748428317275526.000000000,1748428317275360.000000000
1748428317.294745,0.910377204,-0.000000003,0.000000057,-0.413779289,0.661632657,0.071753219,0.077256463,0.742378056,5.000000000,1748428317285524.000000000,1748428317285362.000000000
1748428317.305785,0.910377204,-0.000000003,0.000000057,-0.413779289,0.661649823,0.071746796,0.077249192,0.742364168,5.000000000,1748428317295601.000000000,1748428317295365.000000000
1748428317.314820,0.910377204,-0.000000003,0.000000057,-0.413779289,0.661645353,0.071749866,0.077249348,0.742367864,5.000000000,1748428317305530.000000000,1748428317305367.000000000
1748428317.324790,0.910377204,-0.000000003,0.000000057,-0.413779289,0.661655664,0.071736827,0.077263013,0.742358506,5.000000000,1748428317315532.000000000,1748428317315370.000000000
1748428317.333807,0.910377204,-0.000000003,0.000000057,-0.413779289,0.661658108,0.071750715,0.077259026,0.742355406,5.000000000,1748428317325535.000000000,1748428317325372.000000000
1748428317.343728,0.910377204,-0.000000003,0.000000057,-0.413779289,0.661664605,0.071737431,0.077263512,0.742350459,5.000000000,1748428317335537.000000000,1748428317335375.000000000
1748428317.353760,0.910377204,-0.000000003,0.000000057,-0.413779289,0.661670029,0.071736760,0.077252075,0.742346883,5.000000000,1748428317345540.000000000,1748428317345377.000000000
1748428317.363806,0.910377204,-0.000000003,0.000000057,-0.413779289,0.661668897,0.071750782,0.077250540,0.742346585,5.000000000,1748428317355541.000000000,1748428317355379.000000000
1748428317.373857,0.910377204,-0.000000003,0.000000057,-0.413779289,0.661676705,0.071748614,0.077256359,0.742339313,5.000000000,1748428317365544.000000000,1748428317365382.000000000
1748428317.384808,0.910377204,-0.000000003,0.000000057,-0.413779289,0.661671758,0.071754977,0.077270426,0.742341578,5.000000000,1748428317375546.000000000,1748428317375384.000000000
1748428317.396914,0.910377204,-0.000000003,0.000000057,-0.413779289,0.661675930,0.071762040,0.077281743,0.742335975,5.000000000,1748428317385612.000000000,1748428317385410.000000000
1748428317.405812,0.910377204,-0.000000003,0.000000057,-0.413779289,0.661690712,0.071763024,0.077281974,0.742322683,5.000000000,1748428317395683.000000000,1748428317395412.000000000
1748428317.416747,0.910377204,-0.000000003,0.000000057,-0.413779289,0.661703467,0.071750574,0.077289358,0.742311776,5.000000000,1748428317405668.000000000,1748428317405415.000000000
1748428317.424832,0.910377204,-0.000000003,0.000000057,-0.413779289,0.661708415,0.071768545,0.077292636,0.742305338,5.000000000,1748428317415737.000000000,1748428317415417.000000000
1748428317.435795,0.910377204,-0.000000003,0.000000057,-0.413779289,0.661723256,0.071767829,0.077285409,0.742292881,5.000000000,1748428317425592.000000000,1748428317425419.000000000
1748428317.444813,0.910377204,-0.000000003,0.000000057,-0.413779289,0.661715806,0.071775630,0.077264972,0.742300868,5.000000000,1748428317435599.000000000,1748428317435422.000000000
1748428317.454827,0.910377204,-0.000000003,0.000000057,-0.413779289,0.661729217,0.071787953,0.077272132,0.742286980,5.000000000,1748428317445586.000000000,1748428317445424.000000000
1748428317.463803,0.910377204,-0.000000003,0.000000057,-0.413779289,0.661724806,0.071786918,0.077279054,0.742290378,5.000000000,1748428317455593.000000000,1748428317455427.000000000
1748428317.474821,0.910377204,-0.000000003,0.000000057,-0.413779289,0.661732972,0.071787447,0.077277683,0.742283106,5.000000000,1748428317465594.000000000,1748428317465429.000000000
1748428317.484761,0.910377204,-0.000000003,0.000000057,-0.413779289,0.661740363,0.071806423,0.077266224,0.742275894,5.000000000,1748428317475594.000000000,1748428317475432.000000000
1748428317.494745,0.910377204,-0.000000003,0.000000057,-0.413779289,0.661752582,0.071802355,0.077266261,0.742265403,5.000000000,1748428317485628.000000000,1748428317485434.000000000
1748428317.503915,0.910377204,-0.000000003,0.000000057,-0.413779289,0.661763012,0.071794420,0.077274315,0.742256045,5.000000000,1748428317495618.000000000,1748428317495436.000000000
1748428317.513808,0.910377204,-0.000000003,0.000000057,-0.413779289,0.661753118,0.071775720,0.077252641,0.742268860,5.000000000,1748428317505602.000000000,1748428317505439.000000000
1748428317.523811,0.910377204,-0.000000003,0.000000057,-0.413779289,0.661761701,0.071788259,0.077257477,0.742259622,5.000000000,1748428317515604.000000000,1748428317515441.000000000
1748428317.533819,0.910377204,-0.000000003,0.000000057,-0.413779289,0.661757648,0.071795136,0.077266611,0.742261529,5.000000000,1748428317525612.000000000,1748428317525444.000000000
1748428317.543806,0.910377204,-0.000000003,0.000000057,-0.413779289,0.661776125,0.071790233,0.077277094,0.742244422,5.000000000,1748428317535607.000000000,1748428317535446.000000000
1748428317.553740,0.910377204,-0.000000003,0.000000057,-0.413779289,0.661768913,0.071783371,0.077283673,0.742250919,5.000000000,1748428317545612.000000000,1748428317545448.000000000
1748428317.564809,0.910377204,-0.000000003,0.000000057,-0.413779289,0.661766171,0.071781926,0.077284157,0.742253423,5.000000000,1748428317555613.000000000,1748428317555451.000000000
1748428317.573845,0.910377204,-0.000000003,0.000000057,-0.413779289,0.661782444,0.071802594,0.077291049,0.742236197,5.000000000,1748428317565658.000000000,1748428317565453.000000000
1748428317.586818,0.910377204,-0.000000003,0.000000057,-0.413779289,0.661795437,0.071806230,0.077285029,0.742224872,5.000000000,1748428317575620.000000000,1748428317575456.000000000
1748428317.595747,0.910377204,-0.000000003,0.000000057,-0.413779289,0.661796033,0.071800947,0.077279963,0.742225409,5.000000000,1748428317585620.000000000,1748428317585458.000000000
1748428317.605900,0.910377204,-0.000000003,0.000000057,-0.413779289,0.661787093,0.071795657,0.077296846,0.742232144,5.000000000,1748428317595640.000000000,1748428317595460.000000000
1748428317.614829,0.910377204,-0.000000003,0.000000057,-0.413779289,0.661805153,0.071786195,0.077290706,0.742217600,5.000000000,1748428317605636.000000000,1748428317605463.000000000
1748428317.623857,0.910377204,-0.000000003,0.000000057,-0.413779289,0.661812484,0.071796350,0.077289872,0.742210090,5.000000000,1748428317615631.000000000,1748428317615465.000000000
1748428317.633863,0.910377204,-0.000000003,0.000000057,-0.413779289,0.661813617,0.071796335,0.077297367,0.742208362,5.000000000,1748428317625630.000000000,1748428317625468.000000000
1748428317.643742,0.910377204,-0.000000003,0.000000057,-0.413779289,0.661814034,0.071787745,0.077305906,0.742207944,5.000000000,1748428317635634.000000000,1748428317635470.000000000
1748428317.653809,0.910377204,-0.000000003,0.000000057,-0.413779289,0.661806583,0.071784623,0.077299029,0.742215633,5.000000000,1748428317645635.000000000,1748428317645473.000000000
1748428317.663833,0.910377204,-0.000000003,0.000000057,-0.413779289,0.661816895,0.071790859,0.077302828,0.742205441,5.000000000,1748428317655636.000000000,1748428317655475.000000000
1748428317.674847,0.910377204,-0.000000003,0.000000057,-0.413779289,0.661815703,0.071783103,0.077307664,0.742206752,5.000000000,1748428317665641.000000000,1748428317665478.000000000
1748428317.683764,0.910377204,-0.000000003,0.000000057,-0.413779289,0.661807418,0.071790762,0.077282198,0.742215931,5.000000000,1748428317675641.000000000,1748428317675480.000000000
1748428317.694762,0.910377204,-0.000000003,0.000000057,-0.413779289,0.661814451,0.071793124,0.077276953,0.742210090,5.000000000,1748428317685672.000000000,1748428317685482.000000000
1748428317.703865,0.910377204,-0.000000003,0.000000057,-0.413779289,0.661824226,0.071803600,0.077281818,0.742199838,5.000000000,1748428317695706.000000000,1748428317695485.000000000
1748428317.716865,0.910377204,-0.000000003,0.000000057,-0.413779289,0.661825240,0.071813732,0.077277854,0.742198288,5.000000000,1748428317705651.000000000,1748428317705487.000000000
1748428317.725807,0.910377204,-0.000000003,0.000000057,-0.413779289,0.661817014,0.071824424,0.077282578,0.742204070,5.000000000,1748428317715651.000000000,1748428317715489.000000000
1748428317.734850,0.910377204,-0.000000003,0.000000057,-0.413779289,0.661835253,0.071830578,0.077283479,0.742187142,5.000000000,1748428317725657.000000000,1748428317725492.000000000
1748428317.744979,0.910377204,-0.000000003,0.000000057,-0.413779289,0.661839843,0.071834318,0.077277072,0.742183387,5.000000000,1748428317735655.000000000,1748428317735494.000000000
1748428317.754755,0.910377204,-0.000000003,0.000000057,-0.413779289,0.661840141,0.071841761,0.077271931,0.742182970,5.000000000,1748428317745657.000000000,1748428317745497.000000000
1748428317.763858,0.910377204,-0.000000003,0.000000057,-0.413779289,0.661839724,0.071844868,0.077262454,0.742184043,5.000000000,1748428317755661.000000000,1748428317755499.000000000
1748428317.773832,0.910377204,-0.000000003,0.000000057,-0.413779289,0.661839485,0.071852043,0.077263154,0.742183387,5.000000000,1748428317765663.000000000,1748428317765501.000000000
1748428317.784786,0.910377204,-0.000000003,0.000000057,-0.413779289,0.661838233,0.071854725,0.077255942,0.742185056,5.000000000,1748428317775701.000000000,1748428317775504.000000000
1748428317.794769,0.910377204,-0.000000003,0.000000057,-0.413779289,0.661832154,0.071839161,0.077272765,0.742190242,5.000000000,1748428317785793.000000000,1748428317785506.000000000
1748428317.804742,0.910377204,-0.000000003,0.000000057,-0.413779289,0.661845922,0.071833938,0.077284135,0.742177308,5.000000000,1748428317795899.000000000,1748428317795509.000000000
1748428317.814039,0.910377204,-0.000000003,0.000000057,-0.413779289,0.661855400,0.071842067,0.077280350,0.742168486,5.000000000,1748428317805684.000000000,1748428317805514.000000000
1748428317.824888,0.910377204,-0.000000003,0.000000057,-0.413779289,0.661860108,0.071848243,0.077278771,0.742163777,5.000000000,1748428317815693.000000000,1748428317815514.000000000
1748428317.833890,0.910377204,-0.000000003,0.000000057,-0.413779289,0.661854208,0.071844205,0.077284142,0.742168844,5.000000000,1748428317825679.000000000,1748428317825516.000000000
1748428317.844897,0.910377204,-0.000000003,0.000000057,-0.413779289,0.661859870,0.071839981,0.077298723,0.742162704,5.000000000,1748428317835711.000000000,1748428317835518.000000000
1748428317.853807,0.910377204,-0.000000003,0.000000057,-0.413779289,0.661867499,0.071826488,0.077307373,0.742156386,5.000000000,1748428317845685.000000000,1748428317845521.000000000
1748428317.864751,0.910377204,-0.000000003,0.000000057,-0.413779289,0.661869407,0.071839929,0.077311635,0.742152870,5.000000000,1748428317855686.000000000,1748428317855523.000000000
1748428317.874810,0.910377204,-0.000000003,0.000000057,-0.413779289,0.661875248,0.071833618,0.077321805,0.742147207,5.000000000,1748428317865688.000000000,1748428317865526.000000000
1748428317.884757,0.910377204,-0.000000003,0.000000057,-0.413779289,0.661879480,0.071815655,0.077331699,0.742144167,5.000000000,1748428317875694.000000000,1748428317875528.000000000
1748428317.894899,0.910377204,-0.000000003,0.000000057,-0.413779289,0.661881149,0.071800269,0.077349901,0.742142260,5.000000000,1748428317885699.000000000,1748428317885531.000000000
1748428317.904756,0.910377204,-0.000000003,0.000000057,-0.413779289,0.661889791,0.071821496,0.077331729,0.742134392,5.000000000,1748428317895699.000000000,1748428317895533.000000000
1748428317.913856,0.910377204,-0.000000003,0.000000057,-0.413779289,0.661883891,0.071815044,0.077339388,0.742139459,5.000000000,1748428317905695.000000000,1748428317905536.000000000
1748428317.923821,0.910377204,-0.000000003,0.000000057,-0.413779289,0.661886632,0.071822867,0.077338591,0.742136359,5.000000000,1748428317915702.000000000,1748428317915538.000000000
1748428317.933810,0.910377204,-0.000000003,0.000000057,-0.413779289,0.661877036,0.071811609,0.077338599,0.742146075,5.000000000,1748428317925703.000000000,1748428317925540.000000000
1748428317.943813,0.910377204,-0.000000003,0.000000057,-0.413779289,0.661877155,0.071813561,0.077327564,0.742146850,5.000000000,1748428317935707.000000000,1748428317935543.000000000
1748428317.953843,0.910377204,-0.000000003,0.000000057,-0.413779289,0.661888361,0.071796216,0.077344611,0.742136776,5.000000000,1748428317945708.000000000,1748428317945545.000000000
1748428317.963814,0.910377204,-0.000000003,0.000000057,-0.413779289,0.661872983,0.071787603,0.077350006,0.742150784,5.000000000,1748428317955712.000000000,1748428317955547.000000000
1748428317.976762,0.910377204,-0.000000003,0.000000057,-0.413779289,0.661883414,0.071791850,0.077348225,0.742141187,5.000000000,1748428317965716.000000000,1748428317965550.000000000
1748428317.984857,0.910377204,-0.000000003,0.000000057,-0.413779289,0.661895216,0.071767278,0.077365592,0.742131293,5.000000000,1748428317975715.000000000,1748428317975552.000000000
1748428317.996774,0.910377204,-0.000000003,0.000000057,-0.413779289,0.661895871,0.071778081,0.077376589,0.742128551,5.000000000,1748428317990750.000000000,1748428317990556.000000000
1748428318.006864,0.910377204,-0.000000003,0.000000057,-0.413779289,0.661897480,0.071783595,0.077372976,0.742126882,5.000000000,1748428317995719.000000000,1748428317995558.000000000
1748428318.015739,0.910377204,-0.000000003,0.000000057,-0.413779289,0.661889017,0.071775422,0.077373616,0.742135167,5.000000000,1748428318005721.000000000,1748428318005559.000000000
1748428318.025817,0.910377204,-0.000000003,0.000000057,-0.413779289,0.661909461,0.071764298,0.077373058,0.742118001,5.000000000,1748428318015723.000000000,1748428318015562.000000000
1748428318.035771,0.910377204,-0.000000003,0.000000057,-0.413779289,0.661922097,0.071759962,0.077364072,0.742108166,5.000000000,1748428318025731.000000000,1748428318025564.000000000
1748428318.044862,0.910377204,-0.000000003,0.000000057,-0.413779289,0.661938310,0.071745425,0.077361882,0.742095351,5.000000000,1748428318035730.000000000,1748428318035567.000000000
1748428318.054740,0.910377204,-0.000000003,0.000000057,-0.413779289,0.661946893,0.071738221,0.077360533,0.742088437,5.000000000,1748428318045732.000000000,1748428318045569.000000000
1748428318.064771,0.910377204,-0.000000003,0.000000057,-0.413779289,0.661948442,0.071747877,0.077373058,0.742084920,5.000000000,1748428318055736.000000000,1748428318055572.000000000
1748428318.073814,0.910377204,-0.000000003,0.000000057,-0.413779289,0.661941350,0.071729988,0.077398196,0.742090344,5.000000000,1748428318065737.000000000,1748428318065574.000000000
1748428318.083798,0.910377204,-0.000000003,0.000000057,-0.413779289,0.661960125,0.071719758,0.077394918,0.742074907,5.000000000,1748428318075739.000000000,1748428318075576.000000000
1748428318.093817,0.910377204,-0.000000003,0.000000057,-0.413779289,0.661969721,0.071719192,0.077406578,0.742065191,5.000000000,1748428318085774.000000000,1748428318085579.000000000
1748428318.104740,0.910377204,-0.000000003,0.000000057,-0.413779289,0.661984444,0.071735479,0.077412784,0.742049873,5.000000000,1748428318095748.000000000,1748428318095581.000000000
1748428318.113842,0.910377204,-0.000000003,0.000000057,-0.413779289,0.661982298,0.071729898,0.077416770,0.742051899,5.000000000,1748428318105748.000000000,1748428318105584.000000000
1748428318.124878,0.910377204,-0.000000003,0.000000057,-0.413779289,0.661986709,0.071722411,0.077405937,0.742049813,5.000000000,1748428318115750.000000000,1748428318115586.000000000
1748428318.134747,0.910377204,-0.000000003,0.000000057,-0.413779289,0.662002385,0.071711801,0.077407047,0.742036760,5.000000000,1748428318125755.000000000,1748428318125588.000000000
1748428318.144751,0.910377204,-0.000000003,0.000000057,-0.413779289,0.662001491,0.071733661,0.077402726,0.742035806,5.000000000,1748428318135758.000000000,1748428318135591.000000000
1748428318.153818,0.910377204,-0.000000003,0.000000057,-0.413779289,0.661992550,0.071736380,0.077403188,0.742043495,5.000000000,1748428318145760.000000000,1748428318145593.000000000
1748428318.163883,0.910377204,-0.000000003,0.000000057,-0.413779289,0.661988974,0.071741194,0.077398382,0.742046714,5.000000000,1748428318155803.000000000,1748428318155596.000000000
1748428318.175762,0.910377204,-0.000000003,0.000000057,-0.413779289,0.661980093,0.071734518,0.077400617,0.742055118,5.000000000,1748428318165869.000000000,1748428318165598.000000000
1748428318.184849,0.910377204,-0.000000003,0.000000057,-0.413779289,0.661979198,0.071726799,0.077398464,0.742056847,5.000000000,1748428318175777.000000000,1748428318175601.000000000
1748428318.195756,0.910377204,-0.000000003,0.000000057,-0.413779289,0.661983609,0.071726792,0.077389777,0.742053807,5.000000000,1748428318185781.000000000,1748428318185604.000000000
1748428318.203857,0.910377204,-0.000000003,0.000000057,-0.413779289,0.661977410,0.071712352,0.077397451,0.742060006,5.000000000,1748428318195786.000000000,1748428318195605.000000000
1748428318.213854,0.910377204,-0.000000003,0.000000057,-0.413779289,0.661979496,0.071700536,0.077398524,0.742059052,5.000000000,1748428318205770.000000000,1748428318205608.000000000
1748428318.224853,0.910377204,-0.000000003,0.000000057,-0.413779289,0.661989152,0.071696445,0.077381521,0.742052615,5.000000000,1748428318215776.000000000,1748428318215610.000000000
1748428318.234803,0.910377204,-0.000000003,0.000000057,-0.413779289,0.661986828,0.071696438,0.077387989,0.742054105,5.000000000,1748428318225779.000000000,1748428318225613.000000000
1748428318.244004,0.910377204,-0.000000003,0.000000057,-0.413779289,0.661975205,0.071702145,0.077384308,0.742064238,5.000000000,1748428318235783.000000000,1748428318235615.000000000
1748428318.255747,0.910377204,-0.000000003,0.000000057,-0.413779289,0.661964357,0.071696542,0.077390023,0.742073894,5.000000000,1748428318245784.000000000,1748428318245618.000000000
1748428318.264800,0.910377204,-0.000000003,0.000000057,-0.413779289,0.661957741,0.071692675,0.077408388,0.742078304,5.000000000,1748428318255787.000000000,1748428318255620.000000000
1748428318.274846,0.910377204,-0.000000003,0.000000057,-0.413779289,0.661973715,0.071684532,0.077407382,0.742064893,5.000000000,1748428318265791.000000000,1748428318265622.000000000
1748428318.284741,0.910377204,-0.000000003,0.000000057,-0.413779289,0.661966860,0.071675234,0.077397890,0.742072880,5.000000000,1748428318275824.000000000,1748428318275625.000000000
1748428318.293821,0.910377204,-0.000000003,0.000000057,-0.413779289,0.661975503,0.071686402,0.077407993,0.742063105,5.000000000,1748428318285794.000000000,1748428318285628.000000000
1748428318.303796,0.910377204,-0.000000003,0.000000057,-0.413779289,0.661974013,0.071691148,0.077414900,0.742063224,5.000000000,1748428318295799.000000000,1748428318295630.000000000
1748428318.314830,0.910377204,-0.000000003,0.000000057,-0.413779289,0.661978841,0.071691804,0.077440716,0.742056191,5.000000000,1748428318305796.000000000,1748428318305632.000000000
1748428318.325859,0.910377204,-0.000000003,0.000000057,-0.413779289,0.662008703,0.071701840,0.077434637,0.742029130,5.000000000,1748428318315799.000000000,1748428318315634.000000000
1748428318.333854,0.910377204,-0.000000003,0.000000057,-0.413779289,0.662001252,0.071683407,0.077436015,0.742037416,5.000000000,1748428318325805.000000000,1748428318325637.000000000
1748428318.344814,0.910377204,-0.000000003,0.000000057,-0.413779289,0.662011504,0.071691886,0.077434562,0.742027700,5.000000000,1748428318335807.000000000,1748428318335639.000000000
1748428318.353861,0.910377204,-0.000000003,0.000000057,-0.413779289,0.662022293,0.071701653,0.077431209,0.742017448,5.000000000,1748428318345808.000000000,1748428318345642.000000000
1748428318.363862,0.910377204,-0.000000003,0.000000057,-0.413779289,0.662025392,0.071702361,0.077451013,0.742012560,5.000000000,1748428318355812.000000000,1748428318355644.000000000
1748428318.374857,0.910377204,-0.000000003,0.000000057,-0.413779289,0.662039995,0.071711645,0.077452324,0.741998494,5.000000000,1748428318365814.000000000,1748428318365646.000000000
1748428318.385875,0.910377204,-0.000000003,0.000000057,-0.413779289,0.662039757,0.071728520,0.077447504,0.741997540,5.000000000,1748428318375890.000000000,1748428318375649.000000000
1748428318.396902,0.910377204,-0.000000003,0.000000057,-0.413779289,0.662048817,0.071722649,0.077458054,0.741988957,5.000000000,1748428318390838.000000000,1748428318390678.000000000
1748428318.406827,0.910377204,-0.000000003,0.000000057,-0.413779289,0.662054479,0.071717247,0.077475362,0.741982639,5.000000000,1748428318395845.000000000,1748428318395679.000000000
1748428318.415865,0.910377204,-0.000000003,0.000000057,-0.413779289,0.662061930,0.071698770,0.077467583,0.741978467,5.000000000,1748428318405844.000000000,1748428318405681.000000000
1748428318.424829,0.910377204,-0.000000003,0.000000057,-0.413779289,0.662077487,0.071690395,0.077484891,0.741963565,5.000000000,1748428318415851.000000000,1748428318415683.000000000
1748428318.434819,0.910377204,-0.000000003,0.000000057,-0.413779289,0.662070036,0.071702324,0.077485591,0.741969109,5.000000000,1748428318425852.000000000,1748428318425686.000000000
1748428318.443796,0.910377204,-0.000000003,0.000000057,-0.413779289,0.662071049,0.071709141,0.077485338,0.741967499,5.000000000,1748428318435854.000000000,1748428318435689.000000000
1748428318.453871,0.910377204,-0.000000003,0.000000057,-0.413779289,0.662064016,0.071700349,0.077480502,0.741975129,5.000000000,1748428318445857.000000000,1748428318445691.000000000
1748428318.464746,0.910377204,-0.000000003,0.000000057,-0.413779289,0.662054002,0.071716167,0.077500552,0.741980493,5.000000000,1748428318455859.000000000,1748428318455693.000000000
1748428318.474777,0.910377204,-0.000000003,0.000000057,-0.413779289,0.662059069,0.071720585,0.077504709,0.741975129,5.000000000,1748428318465879.000000000,1748428318465696.000000000
1748428318.484758,0.910377204,-0.000000003,0.000000057,-0.413779289,0.662053108,0.071717292,0.077495798,0.741981685,5.000000000,1748428318475867.000000000,1748428318475698.000000000
1748428318.494818,0.910377204,-0.000000003,0.000000057,-0.413779289,0.662062705,0.071710095,0.077505104,0.741972804,5.000000000,1748428318485867.000000000,1748428318485700.000000000
1748428318.503820,0.910377204,-0.000000003,0.000000057,-0.413779289,0.662075579,0.071710579,0.077501714,0.741961598,5.000000000,1748428318495868.000000000,1748428318495703.000000000
1748428318.514797,0.910377204,-0.000000003,0.000000057,-0.413779289,0.662089944,0.071710438,0.077524975,0.741946399,5.000000000,1748428318505870.000000000,1748428318505706.000000000
1748428318.524778,0.910377204,-0.000000003,0.000000057,-0.413779289,0.662088156,0.071705461,0.077537552,0.741947234,5.000000000,1748428318515874.000000000,1748428318515708.000000000
1748428318.535756,0.910377204,-0.000000003,0.000000057,-0.413779289,0.662083030,0.071715467,0.077519983,0.741952658,5.000000000,1748428318525874.000000000,1748428318525710.000000000
1748428318.543846,0.910377204,-0.000000003,0.000000057,-0.413779289,0.662090302,0.071733959,0.077525415,0.741943717,5.000000000,1748428318535929.000000000,1748428318535713.000000000
1748428318.554742,0.910377204,-0.000000003,0.000000057,-0.413779289,0.662094235,0.071722679,0.077531636,0.741940677,5.000000000,1748428318545996.000000000,1748428318545715.000000000
1748428318.564850,0.910377204,-0.000000003,0.000000057,-0.413779289,0.662090063,0.071694471,0.077536039,0.741946638,5.000000000,1748428318555886.000000000,1748428318555717.000000000
1748428318.575735,0.910377204,-0.000000003,0.000000057,-0.413779289,0.662081182,0.071703099,0.077535950,0.741953790,5.000000000,1748428318565931.000000000,1748428318565720.000000000
1748428318.584847,0.910377204,-0.000000003,0.000000057,-0.413779289,0.662098229,0.071700491,0.077537939,0.741938591,5.000000000,1748428318575898.000000000,1748428318575722.000000000
1748428318.593925,0.910377204,-0.000000003,0.000000057,-0.413779289,0.662099540,0.071714483,0.077539220,0.741935968,5.000000000,1748428318585890.000000000,1748428318585725.000000000
1748428318.604787,0.910377204,-0.000000003,0.000000057,-0.413779289,0.662095428,0.071710758,0.077535316,0.741940379,5.000000000,1748428318595896.000000000,1748428318595727.000000000
1748428318.613842,0.910377204,-0.000000003,0.000000057,-0.413779289,0.662099302,0.071699947,0.077524088,0.741939127,5.000000000,1748428318605890.000000000,1748428318605730.000000000
1748428318.624773,0.910377204,-0.000000003,0.000000057,-0.413779289,0.662098289,0.071701288,0.077549890,0.741937220,5.000000000,1748428318615894.000000000,1748428318615732.000000000
1748428318.633862,0.910377204,-0.000000003,0.000000057,-0.413779289,0.662097156,0.071685210,0.077562630,0.741938531,5.000000000,1748428318625899.000000000,1748428318625734.000000000
1748428318.644853,0.910377204,-0.000000003,0.000000057,-0.413779289,0.662101567,0.071698941,0.077556744,0.741933823,5.000000000,1748428318635903.000000000,1748428318635737.000000000
1748428318.654849,0.910377204,-0.000000003,0.000000057,-0.413779289,0.662111521,0.071685784,0.077562772,0.741925538,5.000000000,1748428318645911.000000000,1748428318645739.000000000
1748428318.665861,0.910377204,-0.000000003,0.000000057,-0.413779289,0.662129343,0.071673855,0.077568427,0.741910279,5.000000000,1748428318655918.000000000,1748428318655742.000000000
1748428318.675776,0.910377204,-0.000000003,0.000000057,-0.413779289,0.662113011,0.071708165,0.077563018,0.741922021,5.000000000,1748428318665913.000000000,1748428318665744.000000000
1748428318.685777,0.910377204,-0.000000003,0.000000057,-0.413779289,0.662119031,0.071675397,0.077567481,0.741919339,5.000000000,1748428318675911.000000000,1748428318675746.000000000
1748428318.694842,0.910377204,-0.000000003,0.000000057,-0.413779289,0.662129998,0.071694873,0.077564530,0.741908014,5.000000000,1748428318685962.000000000,1748428318685749.000000000
1748428318.703796,0.910377204,-0.000000003,0.000000057,-0.413779289,0.662138462,0.071688749,0.077564694,0.741901100,5.000000000,1748428318695916.000000000,1748428318695751.000000000
1748428318.713818,0.910377204,-0.000000003,0.000000057,-0.413779289,0.662141025,0.071679778,0.077548511,0.741901338,5.000000000,1748428318705917.000000000,1748428318705754.000000000
1748428318.723911,0.910377204,-0.000000003,0.000000057,-0.413779289,0.662130952,0.071681693,0.077546522,0.741910338,5.000000000,1748428318715921.000000000,1748428318715756.000000000
1748428318.735749,0.910377204,-0.000000003,0.000000057,-0.413779289,0.662125707,0.071694009,0.077555135,0.741912961,5.000000000,1748428318725923.000000000,1748428318725758.000000000
1748428318.744850,0.910377204,-0.000000003,0.000000057,-0.413779289,0.662127495,0.071681462,0.077547595,0.741913378,5.000000000,1748428318735925.000000000,1748428318735761.000000000
1748428318.754810,0.910377204,-0.000000003,0.000000057,-0.413779289,0.662128568,0.071670786,0.077545106,0.741913676,5.000000000,1748428318745931.000000000,1748428318745763.000000000
1748428318.763820,0.910377204,-0.000000003,0.000000057,-0.413779289,0.662125766,0.071661837,0.077552959,0.741916239,5.000000000,1748428318755933.000000000,1748428318755766.000000000
1748428318.774855,0.910377204,-0.000000003,0.000000057,-0.413779289,0.662135959,0.071678765,0.077560060,0.741904736,5.000000000,1748428318765944.000000000,1748428318765768.000000000
1748428318.784804,0.910377204,-0.000000003,0.000000057,-0.413779289,0.662125766,0.071667798,0.077547066,0.741916239,5.000000000,1748428318775959.000000000,1748428318775771.000000000
1748428318.796822,0.910377204,-0.000000003,0.000000057,-0.413779289,0.662146211,0.071692571,0.077562630,0.741894007,5.000000000,1748428318785945.000000000,1748428318785773.000000000
1748428318.805816,0.910377204,-0.000000003,0.000000057,-0.413779289,0.662173212,0.071684204,0.077561431,0.741870821,5.000000000,1748428318795940.000000000,1748428318795776.000000000
1748428318.814935,0.910377204,-0.000000003,0.000000057,-0.413779289,0.662179589,0.071670689,0.077546798,0.741868019,5.000000000,1748428318805952.000000000,1748428318805778.000000000
1748428318.823853,0.910377204,-0.000000003,0.000000057,-0.413779289,0.662184596,0.071659617,0.077561900,0.741862953,5.000000000,1748428318815944.000000000,1748428318815781.000000000
1748428318.833874,0.910377204,-0.000000003,0.000000057,-0.413779289,0.662177742,0.071679302,0.077570111,0.741866350,5.000000000,1748428318825945.000000000,1748428318825783.000000000
1748428318.843853,0.910377204,-0.000000003,0.000000057,-0.413779289,0.662192106,0.071677878,0.077561319,0.741854608,5.000000000,1748428318835950.000000000,1748428318835785.000000000
1748428318.853845,0.910377204,-0.000000003,0.000000057,-0.413779289,0.662186027,0.071677424,0.077562235,0.741859972,5.000000000,1748428318845950.000000000,1748428318845788.000000000
1748428318.863865,0.910377204,-0.000000003,0.000000057,-0.413779289,0.662196577,0.071687691,0.077555396,0.741850197,5.000000000,1748428318855952.000000000,1748428318855790.000000000
1748428318.874809,0.910377204,-0.000000003,0.000000057,-0.413779289,0.662203729,0.071664676,0.077568121,0.741844714,5.000000000,1748428318865958.000000000,1748428318865793.000000000
1748428318.884815,0.910377204,-0.000000003,0.000000057,-0.413779289,0.662192523,0.071669400,0.077572353,0.741853833,5.000000000,1748428318875989.000000000,1748428318875795.000000000
1748428318.893842,0.910377204,-0.000000003,0.000000057,-0.413779289,0.662204146,0.071660303,0.077580966,0.741843522,5.000000000,1748428318885961.000000000,1748428318885797.000000000
1748428318.903865,0.910377204,-0.000000003,0.000000057,-0.413779289,0.662207961,0.071639977,0.077587463,0.741841376,5.000000000,1748428318895966.000000000,1748428318895800.000000000
1748428318.913893,0.910377204,-0.000000003,0.000000057,-0.413779289,0.662224948,0.071644761,0.077605151,0.741823912,5.000000000,1748428318905971.000000000,1748428318905802.000000000
1748428318.925766,0.910377204,-0.000000003,0.000000057,-0.413779289,0.662240863,0.071658351,0.077587076,0.741810262,5.000000000,1748428318916030.000000000,1748428318915805.000000000
1748428318.933856,0.910377204,-0.000000003,0.000000057,-0.413779289,0.662246525,0.071634315,0.077578984,0.741808414,5.000000000,1748428318926101.000000000,1748428318925807.000000000
1748428318.945811,0.910377204,-0.000000003,0.000000057,-0.413779289,0.662271202,0.071635336,0.077562958,0.741787910,5.000000000,1748428318935981.000000000,1748428318935810.000000000
1748428318.954844,0.910377204,-0.000000003,0.000000057,-0.413779289,0.662274420,0.071635514,0.077555940,0.741785765,5.000000000,1748428318945984.000000000,1748428318945812.000000000
1748428318.963873,0.910377204,-0.000000003,0.000000057,-0.413779289,0.662270904,0.071647391,0.077553719,0.741787970,5.000000000,1748428318955995.000000000,1748428318955815.000000000
1748428318.974831,0.910377204,-0.000000003,0.000000057,-0.413779289,0.662290037,0.071641572,0.077580683,0.741768658,5.000000000,1748428318965980.000000000,1748428318965817.000000000
1748428318.986809,0.910377204,-0.000000003,0.000000057,-0.413779289,0.662288487,0.071624681,0.077589929,0.741770685,5.000000000,1748428318976041.000000000,1748428318975819.000000000
1748428318.998764,0.910377204,-0.000000003,0.000000057,-0.413779289,0.662286043,0.071614869,0.077587210,0.741774082,5.000000000,1748428318990982.000000000,1748428318990823.000000000
1748428319.007789,0.910377204,-0.000000003,0.000000057,-0.413779289,0.662290394,0.071624920,0.077606916,0.741767168,5.000000000,1748428318995984.000000000,1748428318995824.000000000
1748428319.017764,0.910377204,-0.000000003,0.000000057,-0.413779289,0.662283003,0.071638025,0.077596389,0.741773665,5.000000000,1748428319005997.000000000,1748428319005826.000000000
1748428319.025840,0.910377204,-0.000000003,0.000000057,-0.413779289,0.662281096,0.071639106,0.077594832,0.741775393,5.000000000,1748428319015995.000000000,1748428319015829.000000000
1748428319.035883,0.910377204,-0.000000003,0.000000057,-0.413779289,0.662277400,0.071631461,0.077609561,0.741777897,5.000000000,1748428319025995.000000000,1748428319025831.000000000
1748428319.045793,0.910377204,-0.000000003,0.000000057,-0.413779289,0.662280858,0.071627647,0.077601530,0.741775930,5.000000000,1748428319035997.000000000,1748428319035834.000000000
1748428319.054868,0.910377204,-0.000000003,0.000000057,-0.413779289,0.662290275,0.071618743,0.077617429,0.741766810,5.000000000,1748428319046004.000000000,1748428319045836.000000000
1748428319.063880,0.910377204,-0.000000003,0.000000057,-0.413779289,0.662289679,0.071599357,0.077606581,0.741770327,5.000000000,1748428319056022.000000000,1748428319055839.000000000
1748428319.076741,0.910377204,-0.000000003,0.000000057,-0.413779289,0.662304699,0.071588218,0.077613458,0.741757214,5.000000000,1748428319066021.000000000,1748428319065841.000000000
1748428319.085840,0.910377204,-0.000000003,0.000000057,-0.413779289,0.662311494,0.071575470,0.077605926,0.741753161,5.000000000,1748428319076011.000000000,1748428319075843.000000000
1748428319.094868,0.910377204,-0.000000003,0.000000057,-0.413779289,0.662312388,0.071587794,0.077599935,0.741751850,5.000000000,1748428319086011.000000000,1748428319085846.000000000
1748428319.104924,0.910377204,-0.000000003,0.000000057,-0.413779289,0.662321031,0.071575671,0.077603534,0.741744876,5.000000000,1748428319096012.000000000,1748428319095848.000000000
1748428319.113865,0.910377204,-0.000000003,0.000000057,-0.413779289,0.662335932,0.071578912,0.077600181,0.741731644,5.000000000,1748428319106023.000000000,1748428319105851.000000000
1748428319.123861,0.910377204,-0.000000003,0.000000057,-0.413779289,0.662307978,0.071582869,0.077595145,0.741756737,5.000000000,1748428319116017.000000000,1748428319115853.000000000
1748428319.134757,0.910377204,-0.000000003,0.000000057,-0.413779289,0.662301898,0.071579546,0.077594846,0.741762578,5.000000000,1748428319126018.000000000,1748428319125855.000000000
1748428319.143847,0.910377204,-0.000000003,0.000000057,-0.413779289,0.662292004,0.071596734,0.077581555,0.741771102,5.000000000,1748428319136023.000000000,1748428319135858.000000000
1748428319.153846,0.910377204,-0.000000003,0.000000057,-0.413779289,0.662288666,0.071607366,0.077576801,0.741773605,5.000000000,1748428319146023.000000000,1748428319145860.000000000
1748428319.163850,0.910377204,-0.000000003,0.000000057,-0.413779289,0.662269056,0.071602114,0.077577636,0.741791546,5.000000000,1748428319156024.000000000,1748428319155863.000000000
1748428319.174772,0.910377204,-0.000000003,0.000000057,-0.413779289,0.662275136,0.071587585,0.077589467,0.741786182,5.000000000,1748428319166068.000000000,1748428319165865.000000000
1748428319.184865,0.910377204,-0.000000003,0.000000057,-0.413779289,0.662284553,0.071589455,0.077603891,0.741776109,5.000000000,1748428319176030.000000000,1748428319175867.000000000
1748428319.194772,0.910377204,-0.000000003,0.000000057,-0.413779289,0.662292778,0.071582980,0.077605665,0.741769195,5.000000000,1748428319186036.000000000,1748428319185870.000000000
1748428319.205754,0.910377204,-0.000000003,0.000000057,-0.413779289,0.662289023,0.071587555,0.077615649,0.741771042,5.000000000,1748428319196038.000000000,1748428319195873.000000000
1748428319.214813,0.910377204,-0.000000003,0.000000057,-0.413779289,0.662301600,0.071593642,0.077624165,0.741758406,5.000000000,1748428319206043.000000000,1748428319205875.000000000
1748428319.224781,0.910377204,-0.000000003,0.000000057,-0.413779289,0.662316620,0.071589097,0.077615157,0.741746306,5.000000000,1748428319216039.000000000,1748428319215877.000000000
1748428319.235862,0.910377204,-0.000000003,0.000000057,-0.413779289,0.662330747,0.071575463,0.077619761,0.741734624,5.000000000,1748428319226048.000000000,1748428319225880.000000000
1748428319.244876,0.910377204,-0.000000003,0.000000057,-0.413779289,0.662340164,0.071588740,0.077630319,0.741723776,5.000000000,1748428319236044.000000000,1748428319235882.000000000
1748428319.255753,0.910377204,-0.000000003,0.000000057,-0.413779289,0.662352026,0.071584657,0.077630095,0.741713643,5.000000000,1748428319246046.000000000,1748428319245884.000000000
1748428319.264763,0.910377204,-0.000000003,0.000000057,-0.413779289,0.662359774,0.071588539,0.077623457,0.741707027,5.000000000,1748428319256063.000000000,1748428319255887.000000000
1748428319.274854,0.910377204,-0.000000003,0.000000057,-0.413779289,0.662352383,0.071563445,0.077625401,0.741715789,5.000000000,1748428319266088.000000000,1748428319265889.000000000
1748428319.283870,0.910377204,-0.000000003,0.000000057,-0.413779289,0.662360728,0.071572050,0.077639766,0.741706073,5.000000000,1748428319276060.000000000,1748428319275892.000000000
1748428319.293843,0.910377204,-0.000000003,0.000000057,-0.413779289,0.662359118,0.071578510,0.077625073,0.741708398,5.000000000,1748428319286059.000000000,1748428319285894.000000000
1748428319.303863,0.910377204,-0.000000003,0.000000057,-0.413779289,0.662354410,0.071571387,0.077629782,0.741712809,5.000000000,1748428319296127.000000000,1748428319295896.000000000
1748428319.313948,0.910377204,-0.000000003,0.000000057,-0.413779289,0.662379265,0.071557105,0.077641658,0.741690755,5.000000000,1748428319306207.000000000,1748428319305899.000000000
1748428319.323865,0.910377204,-0.000000003,0.000000057,-0.413779289,0.662371516,0.071544752,0.077615328,0.741701603,5.000000000,1748428319316072.000000000,1748428319315901.000000000
1748428319.335763,0.910377204,-0.000000003,0.000000057,-0.413779289,0.662377775,0.071545094,0.077618495,0.741695702,5.000000000,1748428319326112.000000000,1748428319325904.000000000
1748428319.344811,0.910377204,-0.000000003,0.000000057,-0.413779289,0.662381232,0.071552090,0.077630118,0.741690695,5.000000000,1748428319336086.000000000,1748428319335906.000000000
1748428319.354821,0.910377204,-0.000000003,0.000000057,-0.413779289,0.662378371,0.071540192,0.077630170,0.741694331,5.000000000,1748428319346072.000000000,1748428319345909.000000000
1748428319.365759,0.910377204,-0.000000003,0.000000057,-0.413779289,0.662402332,0.071547471,0.077628441,0.741672456,5.000000000,1748428319356126.000000000,1748428319355911.000000000
1748428319.374988,0.910377204,-0.000000003,0.000000057,-0.413779289,0.662406802,0.071556509,0.077613682,0.741669059,5.000000000,1748428319366075.000000000,1748428319365913.000000000
1748428319.385858,0.910377204,-0.000000003,0.000000057,-0.413779289,0.662401795,0.071564227,0.077623010,0.741671920,5.000000000,1748428319376085.000000000,1748428319375916.000000000
1748428319.394778,0.910377204,-0.000000003,0.000000057,-0.413779289,0.662430048,0.071564533,0.077606671,0.741648316,5.000000000,1748428319386081.000000000,1748428319385918.000000000
1748428319.402853,0.910377204,-0.000000003,0.000000057,-0.413779289,0.662454009,0.071570113,0.077592023,0.741627872,5.000000000,1748428319396107.000000000,1748428319395942.000000000
1748428319.415759,0.910377204,-0.000000003,0.000000057,-0.413779289,0.662461042,0.071559288,0.077585235,0.741623402,5.000000000,1748428319406108.000000000,1748428319405944.000000000
1748428319.426817,0.910377204,-0.000000003,0.000000057,-0.413779289,0.662459075,0.071571775,0.077565752,0.741626024,5.000000000,1748428319416111.000000000,1748428319415946.000000000
1748428319.435860,0.910377204,-0.000000003,0.000000057,-0.413779289,0.662440956,0.071578316,0.077550068,0.741643131,5.000000000,1748428319426112.000000000,1748428319425949.000000000
1748428319.445832,0.910377204,-0.000000003,0.000000057,-0.413779289,0.662447155,0.071589746,0.077548407,0.741636693,5.000000000,1748428319436121.000000000,1748428319435951.000000000
1748428319.454760,0.910377204,-0.000000003,0.000000057,-0.413779289,0.662441373,0.071578898,0.077553272,0.741642356,5.000000000,1748428319446117.000000000,1748428319445954.000000000
1748428319.464930,0.910377204,-0.000000003,0.000000057,-0.413779289,0.662429214,0.071558349,0.077565014,0.741653979,5.000000000,1748428319456157.000000000,1748428319455956.000000000
1748428319.474851,0.910377204,-0.000000003,0.000000057,-0.413779289,0.662426174,0.071556091,0.077564687,0.741656959,5.000000000,1748428319466133.000000000,1748428319465959.000000000
1748428319.485771,0.910377204,-0.000000003,0.000000057,-0.413779289,0.662445724,0.071554065,0.077565819,0.741639555,5.000000000,1748428319476130.000000000,1748428319475961.000000000
1748428319.493860,0.910377204,-0.000000003,0.000000057,-0.413779289,0.662436485,0.071545705,0.077592768,0.741645813,5.000000000,1748428319486126.000000000,1748428319485963.000000000
1748428319.503867,0.910377204,-0.000000003,0.000000057,-0.413779289,0.662452221,0.071542390,0.077591293,0.741632283,5.000000000,1748428319496134.000000000,1748428319495966.000000000
1748428319.514746,0.910377204,-0.000000003,0.000000057,-0.413779289,0.662473381,0.071556546,0.077584535,0.741612673,5.000000000,1748428319506132.000000000,1748428319505968.000000000
1748428319.523959,0.910377204,-0.000000003,0.000000057,-0.413779289,0.662496448,0.071548812,0.077582777,0.741593063,5.000000000,1748428319516134.000000000,1748428319515971.000000000
1748428319.534858,0.910377204,-0.000000003,0.000000057,-0.413779289,0.662503600,0.071562134,0.077564895,0.741587222,5.000000000,1748428319526139.000000000,1748428319525973.000000000
1748428319.543860,0.910377204,-0.000000003,0.000000057,-0.413779289,0.662517369,0.071537822,0.077564649,0.741577268,5.000000000,1748428319536142.000000000,1748428319535975.000000000
1748428319.554819,0.910377204,-0.000000003,0.000000057,-0.413779289,0.662530124,0.071538970,0.077565432,0.741565764,5.000000000,1748428319546160.000000000,1748428319545978.000000000
1748428319.564839,0.910377204,-0.000000003,0.000000057,-0.413779289,0.662522972,0.071542628,0.077565834,0.741571665,5.000000000,1748428319556157.000000000,1748428319555980.000000000
1748428319.574813,0.910377204,-0.000000003,0.000000057,-0.413779289,0.662527502,0.071536794,0.077564068,0.741568327,5.000000000,1748428319566143.000000000,1748428319565983.000000000
1748428319.584747,0.910377204,-0.000000003,0.000000057,-0.413779289,0.662528276,0.071535476,0.077564828,0.741567791,5.000000000,1748428319576152.000000000,1748428319575985.000000000
1748428319.595747,0.910377204,-0.000000003,0.000000057,-0.413779289,0.662540197,0.071539819,0.077573307,0.741555750,5.000000000,1748428319586153.000000000,1748428319585988.000000000
1748428319.604807,0.910377204,-0.000000003,0.000000057,-0.413779289,0.662541628,0.071545787,0.077557348,0.741555572,5.000000000,1748428319596157.000000000,1748428319595990.000000000
1748428319.615757,0.910377204,-0.000000003,0.000000057,-0.413779289,0.662528574,0.071535833,0.077545099,0.741569579,5.000000000,1748428319606156.000000000,1748428319605992.000000000
1748428319.623861,0.910377204,-0.000000003,0.000000057,-0.413779289,0.662541807,0.071551323,0.077536955,0.741557002,5.000000000,1748428319616161.000000000,1748428319615995.000000000
1748428319.634808,0.910377204,-0.000000003,0.000000057,-0.413779289,0.662543416,0.071560755,0.077520832,0.741556346,5.000000000,1748428319626160.000000000,1748428319625997.000000000
1748428319.643891,0.910377204,-0.000000003,0.000000057,-0.413779289,0.662546813,0.071562327,0.077532545,0.741551995,5.000000000,1748428319636164.000000000,1748428319636000.000000000
1748428319.654810,0.910377204,-0.000000003,0.000000057,-0.413779289,0.662570357,0.071544446,0.077533774,0.741532564,5.000000000,1748428319646196.000000000,1748428319646002.000000000
1748428319.664918,0.910377204,-0.000000003,0.000000057,-0.413779289,0.662578642,0.071553007,0.077536531,0.741524041,5.000000000,1748428319656178.000000000,1748428319656005.000000000
1748428319.673868,0.910377204,-0.000000003,0.000000057,-0.413779289,0.662589371,0.071545251,0.077531286,0.741515756,5.000000000,1748428319666187.000000000,1748428319666007.000000000
1748428319.684809,0.910377204,-0.000000003,0.000000057,-0.413779289,0.662597775,0.071556218,0.077531114,0.741507173,5.000000000,1748428319676255.000000000,1748428319676009.000000000
1748428319.693856,0.910377204,-0.000000003,0.000000057,-0.413779289,0.662602305,0.071560510,0.077536352,0.741502166,5.000000000,1748428319686313.000000000,1748428319686012.000000000
1748428319.704801,0.910377204,-0.000000003,0.000000057,-0.413779289,0.662602782,0.071563520,0.077529736,0.741502166,5.000000000,1748428319696183.000000000,1748428319696014.000000000
1748428319.713867,0.910377204,-0.000000003,0.000000057,-0.413779289,0.662599444,0.071552813,0.077528417,0.741506338,5.000000000,1748428319706193.000000000,1748428319706017.000000000
1748428319.724848,0.910377204,-0.000000003,0.000000057,-0.413779289,0.662593186,0.071544915,0.077551745,0.741510272,5.000000000,1748428319716201.000000000,1748428319716019.000000000
1748428319.734772,0.910377204,-0.000000003,0.000000057,-0.413779289,0.662594259,0.071538694,0.077551357,0.741509914,5.000000000,1748428319726185.000000000,1748428319726022.000000000
1748428319.746773,0.910377204,-0.000000003,0.000000057,-0.413779289,0.662587702,0.071541667,0.077546038,0.741515994,5.000000000,1748428319736192.000000000,1748428319736024.000000000
