__time,/fmu/out/vehicle_angular_velocity/timestamp,/fmu/out/vehicle_angular_velocity/timestamp_sample,/fmu/out/vehicle_angular_velocity/xyz[0],/fmu/out/vehicle_angular_velocity/xyz[1],/fmu/out/vehicle_angular_velocity/xyz[2],/fmu/out/vehicle_angular_velocity/xyz_derivative[0],/fmu/out/vehicle_angular_velocity/xyz_derivative[1],/fmu/out/vehicle_angular_velocity/xyz_derivative[2]
1748428316.492828,1748428316487753.000000000,1748428316487670.000000000,0.000979193,-0.000699532,-0.001960915,0.168702289,-0.165930375,0.270862281
1748428316.504848,1748428316497754.000000000,1748428316497672.000000000,-0.000573217,-0.001416420,0.003490595,-0.154053882,0.042965841,0.633355856
1748428316.512879,1748428316507756.000000000,1748428316507675.000000000,0.001114023,-0.000789125,-0.000570781,-0.153419673,0.068575099,-0.208022907
1748428316.522814,1748428316517762.000000000,1748428316517677.000000000,-0.003925837,0.003944921,0.005440005,-0.462552249,0.618176401,0.650747240
1748428316.533835,1748428316527758.000000000,1748428316527680.000000000,0.001032909,0.000008866,-0.000079635,0.213638768,-0.124296650,-0.237286121
1748428316.542891,1748428316537762.000000000,1748428316537682.000000000,0.002020048,0.000557579,0.003683457,0.114214636,0.301909208,0.261850536
1748428316.551864,1748428316547763.000000000,1748428316547684.000000000,-0.001049130,0.000905178,-0.000662454,-0.267744511,-0.175157979,-0.176937833
1748428316.561865,1748428316557767.000000000,1748428316557687.000000000,-0.000374082,0.003197779,0.000339559,0.097397834,0.239627138,0.146756351
1748428316.571826,1748428316567769.000000000,1748428316567689.000000000,0.000795285,-0.000010426,0.001791049,0.212824464,-0.193625361,0.284169853
1748428316.581821,1748428316577772.000000000,1748428316577692.000000000,0.000603263,-0.000666435,0.000739094,-0.042866185,-0.204314232,-0.056245137
1748428316.591953,1748428316587776.000000000,1748428316587694.000000000,-0.000280994,-0.000985861,0.002396903,-0.091392331,0.034462355,0.133330181
1748428316.602908,1748428316597777.000000000,1748428316597696.000000000,0.000511584,0.000061936,0.003487275,0.121949263,-0.008426256,0.060301177
1748428316.612856,1748428316607780.000000000,1748428316607699.000000000,0.000396730,0.000340387,0.000836037,-0.192276388,0.131532386,-0.051285993
1748428316.623774,1748428316617786.000000000,1748428316617701.000000000,-0.000057958,-0.001916383,0.002206921,0.065015160,-0.288128555,0.172891989
1748428316.633858,1748428316627785.000000000,1748428316627704.000000000,-0.001465438,0.001057906,0.001569864,-0.035942353,0.180906370,-0.065375760
1748428316.642796,1748428316637818.000000000,1748428316637706.000000000,0.002537422,-0.001126043,0.001707495,0.517409980,-0.164374277,-0.064534709
1748428316.653745,1748428316647885.000000000,1748428316647709.000000000,0.001617687,-0.000421319,-0.000548733,0.065857746,-0.050966512,-0.064061970
1748428316.662803,1748428316657958.000000000,1748428316657711.000000000,0.001308516,-0.000583206,-0.001498355,0.126276016,0.070118681,-0.317081928
1748428316.672855,1748428316667796.000000000,1748428316667714.000000000,0.001233096,0.001163416,-0.002601465,0.032893151,0.067876108,0.018040938
1748428316.683767,1748428316677798.000000000,1748428316677716.000000000,0.001021822,-0.000024534,-0.005599021,0.013869395,-0.093319267,-0.275462061
1748428316.692890,1748428316687806.000000000,1748428316687719.000000000,0.002970183,-0.000215471,-0.000630162,0.411377788,0.094635367,0.180176109
1748428316.705184,1748428316697804.000000000,1748428316697721.000000000,0.002453942,-0.000176457,0.000408135,0.008633942,-0.018164257,-0.035239756
1748428316.713819,1748428316707807.000000000,1748428316707723.000000000,-0.000314880,-0.000564460,-0.004493987,0.073138207,0.111204617,-0.486457556
1748428316.723761,1748428316717807.000000000,1748428316717726.000000000,0.000217981,-0.000886078,-0.002070081,0.152415693,0.038386274,0.247456759
1748428316.732784,1748428316727810.000000000,1748428316727728.000000000,-0.000610072,-0.000520188,-0.003981014,0.083991379,-0.040455472,-0.151780576
1748428316.741996,1748428316737811.000000000,1748428316737733.000000000,-0.001886941,-0.001793609,-0.001579299,-0.248318374,-0.257847935,0.028841004
1748428316.752770,1748428316747811.000000000,1748428316747733.000000000,-0.002626034,0.000752204,0.000191221,-0.260979027,0.183180854,0.116317995
1748428316.762854,1748428316757815.000000000,1748428316757735.000000000,-0.001307959,-0.000957123,0.001321553,0.083657824,0.082322732,0.283245325
1748428316.771837,1748428316767818.000000000,1748428316767738.000000000,-0.003520962,-0.002204311,0.000115909,-0.526005626,0.008634185,0.013571496
1748428316.783848,1748428316777820.000000000,1748428316777740.000000000,-0.000169108,-0.000192487,0.004747352,0.095735192,0.325249344,0.452449352
1748428316.793797,1748428316787824.000000000,1748428316787742.000000000,0.000390050,-0.000890919,-0.000663477,0.093726285,-0.122125506,-0.319424093
1748428316.802856,1748428316797825.000000000,1748428316797745.000000000,-0.002549091,-0.005057870,-0.000981977,-0.113292463,-0.398720831,-0.162290394
1748428316.813814,1748428316807830.000000000,1748428316807747.000000000,0.000244111,0.003265431,0.001791316,0.301822156,0.495788068,0.266082227
1748428316.823123,1748428316817829.000000000,1748428316817750.000000000,-0.001761226,0.004582145,0.000113678,-0.102085240,0.222485200,-0.202689365
1748428316.833777,1748428316827832.000000000,1748428316827752.000000000,0.000775682,0.001519570,-0.000398344,0.137508005,-0.089252509,-0.138005033
1748428316.842854,1748428316837834.000000000,1748428316837755.000000000,-0.001277779,0.001824900,0.002162764,-0.142319649,0.094215259,0.278460532
1748428316.852854,1748428316847837.000000000,1748428316847757.000000000,-0.000852916,-0.000630390,-0.000329195,-0.013855015,-0.111399725,-0.218380451
1748428316.861865,1748428316857840.000000000,1748428316857759.000000000,-0.000189158,-0.000039968,0.000762059,0.102835827,0.042517785,0.130997211
1748428316.871856,1748428316867844.000000000,1748428316867762.000000000,0.000102134,0.003209076,0.001429468,-0.231998503,0.435243934,0.070092790
1748428316.881862,1748428316877845.000000000,1748428316877764.000000000,0.000293370,-0.003613979,-0.000777244,-0.127506375,-0.685720563,-0.170959026
1748428316.893749,1748428316887847.000000000,1748428316887767.000000000,-0.001566722,-0.005020548,0.002153070,-0.123809673,-0.432917625,0.266596437
1748428316.902835,1748428316897849.000000000,1748428316897769.000000000,0.000508651,0.002951440,-0.000588413,0.017460914,0.665425003,-0.161979571
1748428316.913782,1748428316907855.000000000,1748428316907771.000000000,0.001126809,0.000750763,0.004016857,-0.152084067,-0.184476867,0.555220604
1748428316.923857,1748428316917854.000000000,1748428316917774.000000000,0.002322406,-0.005848637,0.001908088,0.145454496,-0.536875606,-0.080831252
1748428316.931855,1748428316927859.000000000,1748428316927776.000000000,-0.000928561,0.006125988,0.001702290,-0.145683482,0.840411365,0.021761620
1748428316.941984,1748428316937860.000000000,1748428316937779.000000000,-0.000386814,0.005852232,-0.002128016,0.011107684,0.150529221,-0.033807687
1748428316.951798,1748428316947861.000000000,1748428316947781.000000000,0.001121188,-0.003339163,-0.001511123,0.144115299,-0.735192537,0.052671503
1748428316.964794,1748428316957865.000000000,1748428316957784.000000000,-0.001251332,-0.000027445,-0.001863277,-0.065821402,0.435743272,0.045022491
1748428316.972810,1748428316967867.000000000,1748428316967786.000000000,-0.000271373,0.001430177,0.000554597,-0.031856991,0.248945057,0.102483265
1748428316.983757,1748428316977869.000000000,1748428316977788.000000000,-0.000212875,-0.001425524,0.000422214,0.110489048,-0.248040646,-0.089685723
1748428316.994772,1748428316990371.000000000,1748428316990291.000000000,-0.000912589,-0.000583335,0.000039652,-0.413678437,-0.082739860,0.163214907
1748428317.004845,1748428316997874.000000000,1748428316997793.000000000,-0.002573089,-0.000859316,0.000696897,-0.388720930,0.066428766,0.153713644
1748428317.013852,1748428317007913.000000000,1748428317007796.000000000,-0.001602635,-0.002706005,0.005113081,0.023435155,-0.093055472,0.580220997
1748428317.023842,1748428317017912.000000000,1748428317017798.000000000,-0.001688464,-0.001539869,0.000816387,-0.138228461,0.076320171,-0.002001129
1748428317.032787,1748428317027982.000000000,1748428317027800.000000000,0.001125165,-0.002270106,-0.004112879,0.126006618,-0.007519312,-0.624901354
1748428317.043840,1748428317038057.000000000,1748428317037804.000000000,0.001095179,0.000077635,0.000538443,0.154266506,0.093885228,0.458000869
1748428317.052823,1748428317047890.000000000,1748428317047806.000000000,0.000056714,-0.001980055,-0.000944243,0.009277894,-0.164543405,-0.033916961
1748428317.061865,1748428317057890.000000000,1748428317057808.000000000,-0.000721524,0.000353545,0.004954617,0.072604567,0.249160752,0.649486601
1748428317.071870,1748428317067892.000000000,1748428317067810.000000000,0.001457287,-0.001015797,-0.001978127,0.196050376,-0.335295439,-0.371315211
1748428317.082850,1748428317077894.000000000,1748428317077812.000000000,-0.000945008,0.001234691,0.000157687,-0.252572894,0.351925910,0.019018199
1748428317.093863,1748428317087896.000000000,1748428317087815.000000000,-0.001824212,-0.000824456,-0.002568436,-0.114510179,0.043788396,-0.208677351
1748428317.102816,1748428317097902.000000000,1748428317097817.000000000,0.000820145,0.000917568,0.001859982,0.233262435,0.118491888,0.440177083
1748428317.112859,1748428317107904.000000000,1748428317107820.000000000,-0.002419181,-0.003122384,0.000884792,-0.319082618,-0.268189251,0.070831105
1748428317.121861,1748428317117902.000000000,1748428317117822.000000000,-0.002542776,-0.001925298,0.001342202,-0.223599300,0.023279749,0.233124405
1748428317.132814,1748428317127906.000000000,1748428317127824.000000000,-0.001615932,-0.001242098,0.000416787,-0.132669315,-0.128616795,0.075306594
1748428317.141871,1748428317137907.000000000,1748428317137827.000000000,0.000925235,-0.004085160,0.000464989,0.320622295,-0.527823329,0.014420072
1748428317.152802,1748428317147913.000000000,1748428317147832.000000000,-0.002593784,0.000191866,-0.001914787,-0.362731576,0.364808619,-0.237641841
1748428317.161945,1748428317157913.000000000,1748428317157832.000000000,0.002403770,0.000508336,0.001831875,0.366766095,0.021003289,0.198438585
1748428317.173834,1748428317167916.000000000,1748428317167834.000000000,0.001559992,-0.001315066,0.000281676,0.053379651,0.042884510,-0.092608877
1748428317.183815,1748428317177918.000000000,1748428317177837.000000000,-0.001402014,0.000527112,-0.003189102,-0.170503795,0.157978281,-0.202446118
1748428317.194761,1748428317187921.000000000,1748428317187840.000000000,-0.001969216,-0.002157637,-0.000859459,-0.226381600,0.052161936,0.098439194
1748428317.202863,1748428317197975.000000000,1748428317197841.000000000,0.002001174,0.003936632,-0.002582437,0.274890721,0.314291894,-0.052019726
1748428317.213766,1748428317207923.000000000,1748428317207844.000000000,-0.001480991,0.001027462,-0.000832519,-0.405583024,-0.063312739,0.176549539
1748428317.224797,1748428317217927.000000000,1748428317217846.000000000,-0.000369970,-0.000044716,0.003125427,0.061114840,-0.021141026,0.298329741
1748428317.233815,1748428317227929.000000000,1748428317227849.000000000,-0.000089760,0.000196311,0.001047990,0.012204257,0.275730729,-0.028083462
1748428317.243827,1748428317237931.000000000,1748428317237851.000000000,-0.002451947,0.000697926,-0.001940789,-0.137065753,0.004460083,-0.243657902
1748428317.252752,1748428317247937.000000000,1748428317247854.000000000,0.001951207,0.001821618,-0.002077264,0.241286561,0.102404423,-0.040385403
1748428317.262816,1748428317257937.000000000,1748428317257856.000000000,-0.001587634,-0.002903821,-0.000120606,-0.305199295,-0.386735141,0.165465996
1748428317.272805,1748428317267940.000000000,1748428317267858.000000000,-0.000040042,-0.000671273,-0.000284170,0.124756314,0.141216844,-0.040264104
1748428317.283765,1748428317277943.000000000,1748428317277861.000000000,0.002814231,0.002296900,0.001958819,0.177449062,0.381922126,0.089053638
1748428317.292800,1748428317287944.000000000,1748428317287863.000000000,-0.001327641,-0.001657581,-0.000781451,-0.399999946,-0.191459209,-0.242692381
1748428317.303861,1748428317297945.000000000,1748428317297866.000000000,-0.002720213,-0.003500801,-0.003528259,-0.151406780,-0.318492293,-0.214799777
1748428317.312977,1748428317307952.000000000,1748428317307868.000000000,0.000287501,0.003261205,-0.001766111,0.047971074,0.658563018,-0.076139472
1748428317.322834,1748428317317951.000000000,1748428317317870.000000000,-0.000277070,-0.001133770,0.000088018,0.029868402,-0.568070769,0.016340679
1748428317.331859,1748428317327954.000000000,1748428317327873.000000000,0.000435685,-0.001019183,-0.000348268,-0.045513391,-0.002065494,-0.081995353
1748428317.341857,1748428317337958.000000000,1748428317337875.000000000,0.000980878,0.002480799,-0.001147315,0.027277971,0.252206475,-0.049138244
1748428317.351864,1748428317347959.000000000,1748428317347878.000000000,-0.001954688,-0.000130361,0.000724331,0.061343856,-0.069456831,0.298619926
1748428317.362769,1748428317357961.000000000,1748428317357880.000000000,0.000496655,0.000621419,0.000329284,0.125193402,0.223388165,0.064834014
1748428317.372804,1748428317367965.000000000,1748428317367883.000000000,0.001858032,-0.000823429,0.000106839,0.066566713,-0.032698549,-0.066157773
1748428317.383767,1748428317377966.000000000,1748428317377885.000000000,0.003126612,0.000263919,0.000884781,0.066037372,0.145511746,0.093071781
1748428317.394869,1748428317387990.000000000,1748428317387910.000000000,0.001371746,-0.000121377,-0.003358154,-0.108758971,-0.157292753,-0.423137963
1748428317.404763,1748428317398040.000000000,1748428317397913.000000000,0.000542890,-0.000202652,-0.005359415,-0.039915349,-0.078754857,-0.369289607
1748428317.414809,1748428317408106.000000000,1748428317407915.000000000,-0.001401887,0.001816523,-0.001041513,-0.135051444,0.045248441,0.344966918
1748428317.423780,1748428317418000.000000000,1748428317417918.000000000,0.003436204,-0.002589326,-0.001093622,0.489040196,-0.060750619,0.085832685
1748428317.433851,1748428317428006.000000000,1748428317427920.000000000,-0.001039518,0.000259423,0.000627138,-0.316559494,0.321657121,0.247164667
1748428317.443758,1748428317438002.000000000,1748428317437922.000000000,-0.001432446,-0.004375312,-0.000102558,-0.143514186,-0.432849914,0.006081170
1748428317.452815,1748428317448005.000000000,1748428317447925.000000000,0.000722825,-0.000348270,-0.001323622,0.125436440,0.209183604,-0.143890262
1748428317.462787,1748428317458010.000000000,1748428317457927.000000000,0.000966027,-0.000910050,0.000152838,-0.089586072,-0.157059804,0.224825785
1748428317.472879,1748428317468013.000000000,1748428317467930.000000000,-0.001248145,-0.002431479,0.000200656,-0.144147575,-0.066593565,0.016817933
1748428317.482878,1748428317478014.000000000,1748428317477932.000000000,-0.000312948,-0.000758341,-0.000672388,-0.201984853,0.151704863,0.000844847
1748428317.492833,1748428317488052.000000000,1748428317487935.000000000,-0.003313195,-0.002028508,-0.002763483,-0.405846268,-0.310591221,-0.188240886
1748428317.502817,1748428317498016.000000000,1748428317497937.000000000,-0.000633583,0.002352486,-0.000188920,-0.053624664,0.361072719,0.305639982
1748428317.512747,1748428317508019.000000000,1748428317507939.000000000,-0.001560386,-0.003883682,0.000109820,0.174835131,-0.582153261,-0.002556679
1748428317.522866,1748428317518022.000000000,1748428317517942.000000000,0.000608691,0.001869943,0.000466021,0.064231463,0.484353393,0.131897286
1748428317.531838,1748428317528024.000000000,1748428317527944.000000000,0.001456984,0.001201875,-0.002461529,-0.017058661,0.097916529,-0.549502075
1748428317.542748,1748428317538026.000000000,1748428317537947.000000000,0.001178241,0.000321749,-0.000172372,-0.010097642,-0.073965356,0.357474357
1748428317.551879,1748428317548036.000000000,1748428317547949.000000000,-0.002074280,0.000872549,0.001236683,-0.363789469,-0.135958359,-0.013700925
1748428317.563771,1748428317558032.000000000,1748428317557951.000000000,0.003021309,-0.002341944,-0.000375493,0.410390615,-0.357796431,-0.202511460
1748428317.572838,1748428317568035.000000000,1748428317567954.000000000,0.001247893,-0.001796517,-0.003611064,-0.109560736,-0.007166388,-0.292487234
1748428317.584852,1748428317578038.000000000,1748428317577956.000000000,-0.001480026,-0.001333358,-0.001733100,-0.149260506,0.061149549,0.167521194
1748428317.593976,1748428317588041.000000000,1748428317587959.000000000,0.000639897,0.002538395,0.000673862,0.125143245,0.391036898,0.366858393
1748428317.603764,1748428317598045.000000000,1748428317597961.000000000,-0.002938923,0.000961052,0.002226591,-0.549786925,-0.182965800,0.223823622
1748428317.613768,1748428317608045.000000000,1748428317607964.000000000,0.000247971,-0.001990072,-0.002429421,0.263337195,-0.501706362,-0.277761400
1748428317.622761,1748428317618046.000000000,1748428317617966.000000000,-0.000056622,-0.000757685,-0.000848201,0.030058047,0.207314774,0.262860090
1748428317.632761,1748428317628048.000000000,1748428317627968.000000000,0.000356762,0.001910790,0.001026168,-0.179690748,0.253554672,0.182189435
1748428317.641852,1748428317638052.000000000,1748428317637971.000000000,-0.001662928,0.002155501,0.000229805,-0.298180193,-0.034182321,-0.091524474
1748428317.651853,1748428317648053.000000000,1748428317647973.000000000,0.002436859,-0.000033629,-0.001127098,0.310000032,-0.132510722,-0.204806209
1748428317.662765,1748428317658057.000000000,1748428317657976.000000000,-0.000238740,0.000904221,0.001332814,-0.070229158,0.256600976,0.082290210
1748428317.671861,1748428317668062.000000000,1748428317667978.000000000,-0.001718525,0.000906680,-0.000045589,-0.168057054,0.091851532,0.012129972
1748428317.681869,1748428317678061.000000000,1748428317677980.000000000,-0.001014638,-0.003419129,0.001987373,0.173126981,-0.281634659,0.019673940
1748428317.692802,1748428317688064.000000000,1748428317687983.000000000,0.000486302,-0.002263883,-0.001327842,0.167266667,0.107412048,-0.188698769
1748428317.702781,1748428317698066.000000000,1748428317697985.000000000,0.000922547,-0.001259332,-0.001483104,0.130420178,-0.103158034,-0.078448638
1748428317.716765,1748428317708068.000000000,1748428317707988.000000000,0.001153845,0.001226390,0.000979778,-0.042830341,0.398008794,0.131595403
1748428317.724777,1748428317718070.000000000,1748428317717990.000000000,0.001608740,-0.001512357,-0.001534268,0.054113030,-0.141357988,-0.261190474
1748428317.734760,1748428317725572.000000000,1748428317725492.000000000,0.001244975,-0.001959186,-0.001023184,-0.063308209,-0.118509255,0.085235558
1748428317.744761,1748428317738078.000000000,1748428317737995.000000000,0.000291851,0.001131658,0.000320828,0.144394070,0.363772660,0.252405792
1748428317.752816,1748428317748078.000000000,1748428317747997.000000000,-0.002051849,-0.002971236,0.003196069,-0.450923532,-0.052152876,0.366128713
1748428317.762809,1748428317758081.000000000,1748428317758000.000000000,-0.000385293,-0.004114568,-0.000233729,0.108264036,-0.031514354,-0.136910245
1748428317.772856,1748428317768081.000000000,1748428317768002.000000000,0.002065109,0.000707310,0.002094380,0.317880243,0.336600423,0.183500707
1748428317.782882,1748428317778136.000000000,1748428317778004.000000000,0.001438163,-0.001181990,-0.000241894,0.124694876,-0.257601708,-0.085794590
1748428317.792864,1748428317788212.000000000,1748428317788011.000000000,-0.002922378,0.002614825,0.000957032,-0.375527054,0.261295795,-0.095556989
1748428317.802865,1748428317798108.000000000,1748428317798009.000000000,0.001068539,0.001648979,-0.003718501,0.233209953,-0.072657272,-0.314844310
1748428317.813825,1748428317808093.000000000,1748428317808012.000000000,-0.000270406,-0.000009389,-0.000323713,-0.144423246,-0.048603632,0.078550547
1748428317.822767,1748428317818096.000000000,1748428317818014.000000000,-0.000130231,-0.000620161,-0.002290539,-0.128258064,0.002574301,-0.177714974
1748428317.832812,1748428317828096.000000000,1748428317828017.000000000,0.001059884,0.001677022,-0.000311951,0.082287386,0.200372860,-0.144154593
1748428317.843801,1748428317838099.000000000,1748428317838019.000000000,0.000104175,0.000277669,-0.000468896,-0.190386415,-0.242997199,0.120788835
1748428317.852779,1748428317848103.000000000,1748428317848022.000000000,0.001001875,0.003300072,-0.001675187,0.217650369,0.104137525,-0.072892711
1748428317.862848,1748428317858105.000000000,1748428317858024.000000000,0.001218078,-0.002312197,-0.000322997,-0.037068579,-0.554156661,0.006872757
1748428317.873867,1748428317868106.000000000,1748428317868027.000000000,0.001616179,0.002122303,-0.000782198,0.354941040,0.291893214,-0.118150540
1748428317.882804,1748428317878110.000000000,1748428317878029.000000000,-0.001263684,0.003411885,-0.002123768,-0.298201710,0.142669261,-0.105419822
1748428317.893806,1748428317888113.000000000,1748428317888031.000000000,-0.000134791,0.001382978,-0.000664466,0.004509843,-0.347503185,0.052221883
1748428317.902813,1748428317898111.000000000,1748428317898033.000000000,0.003105278,-0.003856735,-0.001135486,0.449108005,-0.363132924,-0.014757136
1748428317.912820,1748428317908117.000000000,1748428317908036.000000000,-0.000831333,-0.000772423,0.001625140,-0.259267032,-0.065494068,0.336597711
1748428317.922777,1748428317918118.000000000,1748428317918038.000000000,-0.000457668,0.000292025,0.002428311,0.010748264,0.217394471,0.196631372
1748428317.932743,1748428317928122.000000000,1748428317928041.000000000,0.000709948,0.000312442,0.001750236,0.126687467,-0.256343901,0.010745876
1748428317.941921,1748428317938123.000000000,1748428317938043.000000000,-0.002134103,-0.000885524,0.000641350,-0.049258217,-0.072058178,-0.066001900
1748428317.952788,1748428317948130.000000000,1748428317948046.000000000,0.001792365,0.004071622,-0.000374800,0.469083339,0.341401130,0.043718778
1748428317.962767,1748428317958129.000000000,1748428317958048.000000000,0.002565964,0.001413590,0.000539801,0.284239501,-0.292097747,-0.092269272
1748428317.974870,1748428317968132.000000000,1748428317968051.000000000,-0.002281058,-0.000697789,-0.000701205,-0.463655442,-0.227362305,-0.035327002
1748428317.983814,1748428317978133.000000000,1748428317978053.000000000,-0.000382815,0.001472223,-0.000962225,0.174588844,0.086429268,0.249871910
1748428317.995774,1748428317990666.000000000,1748428317990556.000000000,0.001490804,0.000657078,0.000933911,0.199517056,0.029377861,0.088626541
1748428318.005866,1748428317995636.000000000,1748428317995558.000000000,0.004329750,0.000278031,-0.000811754,0.466403306,0.021106502,-0.200867280
1748428318.013825,1748428318008140.000000000,1748428318008060.000000000,-0.002230412,0.001349831,0.000013786,-0.439737052,-0.041085254,-0.153877690
1748428318.024897,1748428318018142.000000000,1748428318018063.000000000,-0.002380580,0.000838106,-0.000961854,-0.110838123,0.116432652,0.056692742
1748428318.032869,1748428318028151.000000000,1748428318028065.000000000,-0.002023138,-0.002688397,-0.002083479,-0.090995684,-0.119751543,-0.038149368
1748428318.043814,1748428318038148.000000000,1748428318038067.000000000,-0.000047826,0.001315526,-0.005521293,0.378834009,0.078237526,-0.282373011
1748428318.052838,1748428318048151.000000000,1748428318048070.000000000,0.000747718,0.001264711,-0.001108186,0.251072973,-0.004805564,0.226522982
1748428318.062809,1748428318058154.000000000,1748428318058072.000000000,0.003618759,0.002480653,-0.001010801,0.371038973,0.105840705,-0.005430294
1748428318.072753,1748428318068155.000000000,1748428318068075.000000000,-0.000187985,0.002242850,-0.001072027,-0.177879617,-0.235833794,-0.127161667
1748428318.082751,1748428318078158.000000000,1748428318078077.000000000,0.000319753,0.001550398,-0.002664519,0.164241746,0.065675594,-0.074446283
1748428318.092889,1748428318088178.000000000,1748428318088080.000000000,0.002943481,0.001626689,-0.001062620,0.399088383,0.151066557,0.023213089
1748428318.102897,1748428318098161.000000000,1748428318098082.000000000,0.000409487,-0.003660149,-0.001988115,-0.145567939,-0.409248143,0.002182300
1748428318.112754,1748428318108165.000000000,1748428318108084.000000000,0.001955801,0.001621946,0.000532446,0.412285239,0.207862779,0.198377877
1748428318.123786,1748428318118168.000000000,1748428318118087.000000000,0.000124129,0.000386457,-0.003426134,0.069818713,-0.098363765,-0.309632838
1748428318.132819,1748428318128169.000000000,1748428318128089.000000000,-0.000872412,-0.001526222,0.000684047,0.101501189,-0.289584070,0.420619905
1748428318.143808,1748428318138172.000000000,1748428318138091.000000000,0.002713693,-0.000915273,-0.000326734,0.289899975,0.296484053,-0.135178983
1748428318.152757,1748428318148174.000000000,1748428318148094.000000000,-0.001405348,-0.003415775,0.004890081,-0.353871435,-0.395789444,0.428481758
1748428318.162769,1748428318158237.000000000,1748428318158096.000000000,-0.000668399,0.000793873,0.002158276,-0.104410365,0.271551400,-0.062329836
1748428318.173815,1748428318168307.000000000,1748428318168099.000000000,-0.000185039,0.002555508,0.003133869,0.189769238,0.151878387,0.233782873
1748428318.183763,1748428318178187.000000000,1748428318178101.000000000,-0.004599737,-0.001002562,0.000698498,-0.542088330,-0.227537349,-0.367905557
1748428318.193866,1748428318188182.000000000,1748428318188104.000000000,-0.001428890,0.001098228,-0.001068575,0.143608108,0.345866650,-0.243300229
1748428318.202828,1748428318198186.000000000,1748428318198106.000000000,-0.002425901,-0.000025928,0.000167969,-0.248565197,-0.116790973,0.055193305
1748428318.212819,1748428318208189.000000000,1748428318208108.000000000,0.000077045,0.002176986,-0.000659284,0.114024207,0.063547201,-0.020692924
1748428318.223802,1748428318218191.000000000,1748428318218111.000000000,-0.004406995,-0.002040887,-0.000492950,-0.303529948,-0.379718244,0.042252798
1748428318.233792,1748428318228193.000000000,1748428318228113.000000000,-0.001136386,0.000336680,0.003523351,0.093604371,0.033958837,0.492719680
1748428318.242730,1748428318238196.000000000,1748428318238116.000000000,0.001404567,0.001759873,0.003367055,0.148719087,0.348937660,0.044488672
1748428318.253766,1748428318248199.000000000,1748428318248118.000000000,-0.000355451,0.000913845,0.003551945,-0.010153143,0.001210202,-0.058828779
1748428318.262895,1748428318258201.000000000,1748428318258121.000000000,0.003184760,0.002803025,-0.000255977,0.260373235,-0.010562652,-0.280776888
1748428318.274790,1748428318265704.000000000,1748428318265622.000000000,0.000505553,-0.000054516,-0.000807732,-0.218644723,-0.218498379,-0.136255458
1748428318.282902,1748428318278208.000000000,1748428318278125.000000000,-0.001100022,0.001835425,-0.001448624,0.269586056,0.260862052,-0.250998855
1748428318.292742,1748428318288206.000000000,1748428318288128.000000000,0.001758755,-0.002698323,0.002572927,0.235060185,-0.452690065,0.403445125
1748428318.302869,1748428318298211.000000000,1748428318298130.000000000,0.003562336,0.002369948,-0.002766439,0.106240191,0.505025804,-0.431897312
1748428318.312770,1748428318308213.000000000,1748428318308133.000000000,0.001410815,0.000876189,-0.002118161,-0.256063759,-0.119082764,-0.175785825
1748428318.323876,1748428318318215.000000000,1748428318318135.000000000,-0.001274395,0.001093661,-0.004926682,-0.344160080,0.202494293,-0.013910197
1748428318.332818,1748428318328219.000000000,1748428318328137.000000000,-0.000362371,0.001285703,0.001048043,-0.200975046,0.027275153,0.337304324
1748428318.342854,1748428318338220.000000000,1748428318338140.000000000,0.000014153,-0.002589231,0.000584937,0.080168009,-0.279349506,-0.032878537
1748428318.352765,1748428318348223.000000000,1748428318348142.000000000,-0.000851068,-0.001913675,-0.003394647,-0.065729335,0.130649790,-0.275451303
1748428318.362762,1748428318358226.000000000,1748428318358145.000000000,0.003671066,0.000795046,-0.005328404,0.154228985,0.213539183,-0.415709227
1748428318.373812,1748428318368228.000000000,1748428318368147.000000000,0.000964274,0.000267372,-0.000933982,-0.210764498,-0.032804128,0.378031433
1748428318.384937,1748428318378229.000000000,1748428318378150.000000000,-0.000507805,-0.000876360,0.002389316,-0.257072479,0.221206620,0.340322465
1748428318.396749,1748428318390755.000000000,1748428318390678.000000000,0.000701469,0.000523038,-0.000316674,0.028288439,-0.059722956,0.058551122
1748428318.404863,1748428318398261.000000000,1748428318398180.000000000,0.000707671,0.002086117,-0.001188026,0.017144095,0.199600801,-0.086535469
1748428318.414751,1748428318408267.000000000,1748428318408182.000000000,-0.001365229,0.001826129,-0.002418224,-0.001757780,0.176909611,0.006412901
1748428318.422899,1748428318418264.000000000,1748428318418184.000000000,0.001809797,0.002780109,0.000339047,0.228461429,0.053865585,0.440359831
1748428318.432884,1748428318428269.000000000,1748428318428187.000000000,0.000452130,-0.003178989,0.001227482,-0.069473028,-0.733537555,0.174596697
1748428318.442760,1748428318438269.000000000,1748428318438189.000000000,0.000249438,0.000155569,0.001065880,-0.047343198,0.271049649,-0.033782896
1748428318.452910,1748428318448272.000000000,1748428318448192.000000000,0.001369537,-0.001729118,0.001900410,0.171995118,-0.349278718,0.068933085
1748428318.462767,1748428318458276.000000000,1748428318458194.000000000,0.001319614,0.000562231,0.005607720,-0.020726524,0.029883217,0.350101501
1748428318.472894,1748428318468277.000000000,1748428318468196.000000000,0.002116516,0.001741813,-0.002870198,0.107461415,0.361436367,-0.558329046
1748428318.482954,1748428318478276.000000000,1748428318478199.000000000,-0.001594946,0.001114892,0.001982559,-0.261333704,0.065862320,0.230117425
1748428318.493762,1748428318488291.000000000,1748428318488201.000000000,0.002319887,0.000081568,-0.004462229,0.381682009,-0.263148189,-0.556735814
1748428318.502808,1748428318498283.000000000,1748428318498204.000000000,0.000546017,-0.000208016,-0.003223643,0.033085652,-0.078512423,-0.118104018
1748428318.512917,1748428318508285.000000000,1748428318508206.000000000,0.002558927,0.002984985,-0.000982494,0.165825933,0.250139445,0.119321615
1748428318.522914,1748428318518287.000000000,1748428318518208.000000000,0.000140184,0.000917716,0.000952131,-0.091162048,-0.213415682,0.296503574
1748428318.534810,1748428318528294.000000000,1748428318528211.000000000,0.001278033,-0.002458217,-0.000097686,0.062174179,-0.201504678,-0.219942644
1748428318.542738,1748428318538358.000000000,1748428318538213.000000000,0.000433293,-0.003396418,-0.001215333,-0.068685509,0.014854088,-0.167081833
1748428318.552768,1748428318548431.000000000,1748428318548216.000000000,-0.001467113,0.001885264,0.001381653,-0.225854665,0.305712789,0.069224127
1748428318.563809,1748428318558299.000000000,1748428318558218.000000000,-0.000793613,0.002898159,-0.001316877,-0.012486961,-0.025898498,-0.326311141
1748428318.573851,1748428318568303.000000000,1748428318568220.000000000,0.002364269,-0.001107860,0.000767074,0.429754972,-0.472043335,-0.093436383
1748428318.583815,1748428318578301.000000000,1748428318578223.000000000,-0.000280775,0.000734828,-0.000548351,-0.199763522,0.163034081,0.060995486
1748428318.592826,1748428318588305.000000000,1748428318588225.000000000,0.000593187,-0.000878970,-0.001421815,-0.056999233,-0.131545931,0.035253562
1748428318.602816,1748428318598307.000000000,1748428318598228.000000000,-0.000971287,-0.000104277,0.002905586,-0.028929578,0.025822300,0.288787156
1748428318.612755,1748428318608312.000000000,1748428318608230.000000000,-0.000651219,0.000170002,-0.000268285,0.158763081,-0.094065845,-0.251435846
1748428318.622806,1748428318618313.000000000,1748428318618233.000000000,0.001854150,0.001961817,-0.000200226,0.277208507,0.257628024,-0.045077551
1748428318.632772,1748428318628315.000000000,1748428318628235.000000000,0.001877593,0.002906722,0.001613429,0.216718659,-0.052106053,0.169725329
1748428318.643853,1748428318638321.000000000,1748428318638237.000000000,-0.000915015,-0.000175346,-0.001205277,-0.350539654,-0.103226423,-0.260962456
1748428318.652859,1748428318648321.000000000,1748428318648240.000000000,0.001097749,-0.000939545,-0.001992296,0.270804942,-0.132456213,0.021361889
1748428318.664921,1748428318658323.000000000,1748428318658242.000000000,-0.001471846,0.001477913,-0.001353133,-0.354771823,0.003774532,0.164022699
1748428318.672864,1748428318668326.000000000,1748428318668245.000000000,0.000072732,-0.002644053,-0.001753219,-0.105821170,-0.096248589,-0.304810882
1748428318.684788,1748428318678333.000000000,1748428318678248.000000000,-0.002030085,0.002988059,0.001915466,-0.145515576,0.284101009,0.212643176
1748428318.692880,1748428318688328.000000000,1748428318688250.000000000,0.001499374,-0.001517217,-0.000728722,0.165521607,-0.070674568,0.017526221
1748428318.702825,1748428318698332.000000000,1748428318698252.000000000,-0.000028328,0.000927232,-0.000933006,-0.017125398,0.201804027,0.027676243
1748428318.712786,1748428318708334.000000000,1748428318708254.000000000,-0.003923411,-0.000149748,0.003613130,-0.319321573,-0.123184107,0.470171124
1748428318.722913,1748428318718336.000000000,1748428318718257.000000000,-0.001561183,0.000484980,0.003382872,0.013674272,0.199877501,0.080178045
1748428318.733928,1748428318728341.000000000,1748428318728259.000000000,-0.000624535,0.000003904,0.002943362,-0.092989109,-0.080445163,0.157050088
1748428318.743819,1748428318738343.000000000,1748428318738262.000000000,-0.001083391,-0.000076684,0.000699021,-0.244928271,-0.002833682,-0.246513590
1748428318.752869,1748428318748344.000000000,1748428318748264.000000000,-0.003778370,0.002969774,-0.000057013,-0.319549024,0.417500526,0.043073792
1748428318.762758,1748428318758349.000000000,1748428318758267.000000000,-0.001792274,0.002342824,0.003036768,-0.079787299,0.132878780,0.368790597
1748428318.773793,1748428318768349.000000000,1748428318768269.000000000,0.001900747,-0.001740595,-0.001703760,0.113296762,-0.384832412,-0.284413785
1748428318.782871,1748428318778352.000000000,1748428318778271.000000000,0.000402202,-0.001745134,0.001188575,0.033543926,-0.014859089,0.118514255
1748428318.795763,1748428318788353.000000000,1748428318788274.000000000,0.002085573,-0.002358588,-0.003968126,0.022900308,-0.095081724,-0.392478108
1748428318.803980,1748428318798355.000000000,1748428318798276.000000000,-0.001140223,0.002018845,-0.006380663,0.026713436,0.380491495,-0.249352247
1748428318.814770,1748428318805862.000000000,1748428318805778.000000000,-0.002027608,-0.000177276,-0.000966506,-0.326020867,-0.145172179,0.354859680
1748428318.822806,1748428318818363.000000000,1748428318818281.000000000,0.002973564,0.003866157,0.000212452,0.508547723,0.358785123,0.130977035
1748428318.832781,1748428318828364.000000000,1748428318828283.000000000,0.000053073,-0.001199618,0.001923931,-0.370100558,-0.275769114,0.132505402
1748428318.842739,1748428318838367.000000000,1748428318838286.000000000,-0.000871397,-0.001174887,-0.000535963,-0.063896030,0.055487245,-0.078524925
1748428318.852763,1748428318848369.000000000,1748428318848288.000000000,0.000050300,-0.000068489,-0.000645976,0.041357629,-0.055815998,0.101063237
1748428318.862767,1748428318858371.000000000,1748428318858291.000000000,0.000204082,0.000455236,-0.000199836,0.061334442,0.323867321,-0.059579682
1748428318.872991,1748428318868373.000000000,1748428318868293.000000000,-0.000484600,0.003201083,0.001040833,-0.065352276,0.081887893,0.188274756
1748428318.883870,1748428318878440.000000000,1748428318878295.000000000,0.001215777,0.000703270,0.000739357,0.142332450,-0.049758378,-0.000373910
1748428318.892742,1748428318888376.000000000,1748428318888298.000000000,0.000441451,0.002218268,-0.003544514,-0.023072720,0.038894355,-0.415972799
1748428318.902822,1748428318898380.000000000,1748428318898300.000000000,-0.000000067,0.004372234,0.000233760,0.197851926,0.288952202,0.129536152
1748428318.912754,1748428318908395.000000000,1748428318908303.000000000,-0.000999504,0.000327236,-0.004641949,-0.197763667,-0.206465766,-0.336537868
1748428318.923822,1748428318918460.000000000,1748428318918305.000000000,-0.000712755,-0.002814788,-0.002684763,-0.047072623,-0.152241766,-0.041365128
1748428318.932822,1748428318928529.000000000,1748428318928307.000000000,-0.001558767,0.000131594,-0.001437803,0.055957966,0.088385396,0.246731743
1748428318.942912,1748428318938391.000000000,1748428318938310.000000000,-0.001829081,-0.001833863,-0.002389606,-0.044957049,-0.194324583,0.121504150
1748428318.953954,1748428318945891.000000000,1748428318945812.000000000,-0.001893052,-0.001384574,-0.000630160,0.023840247,0.070376426,0.117605880
1748428318.962809,1748428318958396.000000000,1748428318958315.000000000,0.000927900,-0.000527979,-0.001152883,0.189023882,0.310647905,-0.032381006
1748428318.973824,1748428318968399.000000000,1748428318968317.000000000,0.002157504,0.003208117,-0.002241834,0.116239272,0.360469997,-0.009843787
1748428318.984876,1748428318978397.000000000,1748428318978320.000000000,0.001363806,0.004358626,0.000322755,0.141208231,0.127988428,0.030133571
1748428318.997822,1748428318993401.000000000,1748428318993323.000000000,0.000992200,0.000141758,0.001186830,0.179783583,-0.192921877,0.116910860
1748428319.005867,1748428318998404.000000000,1748428318998324.000000000,0.002308562,0.000348413,0.000283211,0.156998515,-0.081692003,-0.085583672
1748428319.015815,1748428319008406.000000000,1748428319008327.000000000,-0.000811637,-0.004325245,0.002582662,-0.191767946,-0.382251620,0.069776960
1748428319.024796,1748428319018410.000000000,1748428319018329.000000000,0.002979085,0.000966344,0.000766247,0.357719749,0.322001964,-0.219814569
1748428319.034762,1748428319028414.000000000,1748428319028332.000000000,-0.000362276,0.001958038,0.000535051,-0.129289269,-0.022652833,-0.088166744
1748428319.043844,1748428319038415.000000000,1748428319038334.000000000,-0.002922634,0.000917673,0.002052200,-0.297061533,0.115423873,0.379810452
1748428319.053823,1748428319048417.000000000,1748428319048336.000000000,0.000132517,0.004926445,-0.000072961,-0.008330164,0.374435753,-0.001754361
1748428319.062815,1748428319058421.000000000,1748428319058339.000000000,-0.002080770,0.000411886,-0.001613803,-0.174338505,-0.369505882,-0.062700123
1748428319.075811,1748428319065920.000000000,1748428319065841.000000000,-0.002836082,0.000307079,-0.002720764,-0.145312145,-0.202282980,-0.311014950
1748428319.084819,1748428319075923.000000000,1748428319075843.000000000,-0.003741003,0.000726604,-0.001995531,-0.103144802,0.136857972,-0.045764595
1748428319.093779,1748428319088428.000000000,1748428319088346.000000000,-0.000273657,-0.000835237,-0.000458236,0.117891505,0.073712558,-0.033481438
1748428319.103773,1748428319098428.000000000,1748428319098349.000000000,-0.000787983,0.002347945,-0.000719273,0.038940385,0.318122119,-0.027050991
1748428319.112772,1748428319108431.000000000,1748428319108351.000000000,-0.000062476,0.000122733,0.001557330,-0.046130143,-0.027093466,0.303993642
1748428319.122758,1748428319118434.000000000,1748428319118354.000000000,-0.002449821,-0.000417804,0.005802283,-0.232736483,-0.041527417,0.156680882
1748428319.132813,1748428319128436.000000000,1748428319128356.000000000,-0.002055225,-0.000407254,0.003451871,-0.159947440,-0.145311415,-0.085370742
1748428319.142823,1748428319138439.000000000,1748428319138358.000000000,0.000869335,-0.003599367,0.001282229,0.082215287,-0.225594506,-0.265048265
1748428319.152768,1748428319148442.000000000,1748428319148361.000000000,0.001227782,0.000327660,0.004532974,-0.019637305,0.528672159,0.190760434
1748428319.162820,1748428319158444.000000000,1748428319158363.000000000,0.000386791,0.001977433,0.003179997,0.194204092,0.266320974,-0.206567362
1748428319.172754,1748428319168514.000000000,1748428319168366.000000000,0.000825669,0.004071861,-0.001047944,0.074959792,0.249183685,-0.334822148
1748428319.183772,1748428319178446.000000000,1748428319178368.000000000,0.001707906,0.002593969,-0.003186640,0.123375222,-0.075068548,-0.180446923
1748428319.192924,1748428319188448.000000000,1748428319188370.000000000,0.000131399,-0.001297404,-0.001909951,0.065911762,-0.400257826,-0.045135692
1748428319.204834,1748428319195954.000000000,1748428319195873.000000000,0.001180255,0.001328995,0.001042116,0.140418991,0.186995670,0.212626591
1748428319.212847,1748428319208457.000000000,1748428319208375.000000000,0.000517969,-0.001560858,-0.001714002,-0.287459344,-0.120752022,-0.195401683
1748428319.223854,1748428319215957.000000000,1748428319215877.000000000,-0.001176102,0.001727655,-0.004587543,-0.221655458,0.470304459,-0.255267888
1748428319.234844,1748428319228460.000000000,1748428319228380.000000000,-0.001041053,0.001867184,-0.003403805,0.063570179,-0.010929739,-0.107532263
1748428319.243752,1748428319238462.000000000,1748428319238383.000000000,0.001706726,-0.001310119,-0.000242526,0.084343448,-0.271794140,0.145234391
1748428319.253838,1748428319248465.000000000,1748428319248385.000000000,0.000754480,-0.001921096,-0.001428468,-0.131037280,-0.183215275,0.174646914
1748428319.262901,1748428319258466.000000000,1748428319258387.000000000,0.000462020,0.002071331,-0.001935837,-0.015931174,0.206079349,-0.173272401
1748428319.272862,1748428319268467.000000000,1748428319268390.000000000,-0.002257811,0.001170102,0.001646427,0.004781470,-0.177869543,0.196188703
1748428319.282820,1748428319278471.000000000,1748428319278392.000000000,0.000644874,-0.000786324,-0.001024453,0.154834315,-0.276440382,-0.346361697
1748428319.292761,1748428319288489.000000000,1748428319288395.000000000,-0.000883267,-0.002054805,0.002619897,-0.170887068,-0.101821892,0.480597109
1748428319.302770,1748428319298558.000000000,1748428319298397.000000000,-0.004219272,0.002759538,0.000022838,-0.565616131,0.429827958,-0.114007317
1748428319.313810,1748428319308628.000000000,1748428319308399.000000000,-0.000666336,0.000946734,-0.003342964,0.007412144,-0.362695545,-0.101999253
1748428319.322830,1748428319318481.000000000,1748428319318402.000000000,-0.000583185,-0.000321286,0.002801015,0.288976490,-0.205845058,0.450251222
1748428319.333838,1748428319328486.000000000,1748428319328404.000000000,-0.000761526,0.000073176,-0.001046557,-0.002679278,-0.047919489,-0.082089260
1748428319.342863,1748428319338489.000000000,1748428319338407.000000000,0.002972868,-0.000840772,0.001702623,0.508656144,-0.060531985,0.169658706
1748428319.353808,1748428319345990.000000000,1748428319345909.000000000,-0.001837339,0.000581344,-0.000024516,-0.285863310,0.064035580,-0.186482772
1748428319.363874,1748428319358496.000000000,1748428319358414.000000000,0.000381270,-0.003096387,-0.005023089,0.095079690,-0.372542351,-0.374479532
1748428319.372872,1748428319368492.000000000,1748428319368414.000000000,-0.000559329,-0.001800441,0.000187348,-0.150397688,-0.019637441,0.393261373
1748428319.383821,1748428319378494.000000000,1748428319378416.000000000,-0.001518149,-0.001080148,0.001026161,-0.437122762,-0.034999181,-0.012041307
1748428319.392860,1748428319388505.000000000,1748428319388419.000000000,-0.001560819,-0.002010149,-0.003727985,-0.171878055,0.027178004,-0.225013107
1748428319.402760,1748428319398527.000000000,1748428319398443.000000000,-0.003150370,-0.003203555,-0.006566937,-0.211743385,-0.063265279,-0.278909862
1748428319.413864,1748428319408528.000000000,1748428319408445.000000000,-0.003103965,-0.000225028,0.000155374,-0.079137631,0.171312958,0.552615106
1748428319.424864,1748428319418531.000000000,1748428319418447.000000000,-0.002278045,-0.000929174,0.005823022,-0.121125020,0.134929463,0.679481745
1748428319.434765,1748428319428534.000000000,1748428319428450.000000000,-0.000442563,-0.003148412,0.002658011,0.116393715,-0.183145165,-0.223194182
1748428319.444778,1748428319438537.000000000,1748428319438452.000000000,0.001601087,-0.001077597,-0.000155470,0.279179960,0.170494601,-0.396226674
1748428319.452931,1748428319448540.000000000,1748428319448454.000000000,-0.000792429,0.001555330,0.003582613,-0.095624886,0.060652144,0.323651314
1748428319.463841,1748428319458558.000000000,1748428319458457.000000000,-0.000796250,0.003377104,0.002260558,0.064661175,-0.019647913,-0.171390742
1748428319.473786,1748428319468540.000000000,1748428319468459.000000000,0.000601493,0.000520125,-0.001074639,0.096391648,-0.269689828,-0.423988700
1748428319.484763,1748428319478546.000000000,1748428319478462.000000000,0.000132348,0.001351129,0.001061205,0.033128563,0.005488929,0.498846233
1748428319.492745,1748428319488544.000000000,1748428319488464.000000000,-0.000663665,0.005206997,-0.000434121,-0.251534373,0.186039343,-0.224596187
1748428319.502765,1748428319498547.000000000,1748428319498466.000000000,0.000797864,-0.001823280,-0.004560674,0.050661348,-0.552541435,-0.301426262
1748428319.512798,1748428319508551.000000000,1748428319508469.000000000,-0.000395407,-0.002542887,-0.004450537,-0.137787759,-0.050419677,-0.092846371
1748428319.522794,1748428319518552.000000000,1748428319518471.000000000,-0.002135176,-0.001537992,-0.002042230,-0.211602718,0.003285465,0.151716128
1748428319.532869,1748428319528555.000000000,1748428319528474.000000000,-0.001421332,0.000082207,-0.000970268,-0.039329410,0.344006032,0.019999076
1748428319.542842,1748428319538558.000000000,1748428319538476.000000000,-0.003306201,0.000607722,-0.000708475,0.039610025,-0.060558032,0.327854484
1748428319.553767,1748428319548561.000000000,1748428319548479.000000000,-0.000545144,0.001268455,-0.000391442,0.123407066,0.298859626,0.158669114
1748428319.563778,1748428319558559.000000000,1748428319558481.000000000,0.000433051,-0.001547272,-0.000068679,0.034974072,-0.344245702,0.024865931
1748428319.572882,1748428319568563.000000000,1748428319568484.000000000,0.000118555,-0.000390895,0.001853023,0.043078221,-0.060793862,0.256170839
1748428319.582813,1748428319578565.000000000,1748428319578486.000000000,-0.001705871,0.003138479,0.000077201,-0.141734004,0.365117133,-0.188759923
1748428319.593852,1748428319588569.000000000,1748428319588488.000000000,0.000803121,-0.000500067,0.000836399,0.287409782,-0.247488827,0.297152579
1748428319.602866,1748428319598571.000000000,1748428319598491.000000000,-0.001413886,-0.002097768,0.000569721,-0.145394474,-0.047700580,-0.099082895
1748428319.614774,1748428319606073.000000000,1748428319605992.000000000,-0.000229754,-0.001502483,0.001523362,0.128073230,-0.003602142,0.143077746
1748428319.622816,1748428319618576.000000000,1748428319618495.000000000,0.000164640,-0.003700830,-0.000410111,0.041600790,-0.262103915,-0.310490400
1748428319.633835,1748428319628578.000000000,1748428319628498.000000000,0.001099304,-0.003796471,-0.000683590,0.249199972,-0.175318465,-0.043757059
1748428319.642813,1748428319638582.000000000,1748428319638500.000000000,-0.000202201,0.000172601,-0.001899812,0.019729273,0.151248887,-0.127588287
1748428319.653763,1748428319648637.000000000,1748428319648503.000000000,-0.001689691,0.003227158,-0.002480325,-0.138354033,0.297590524,0.177050486
1748428319.663765,1748428319658590.000000000,1748428319658505.000000000,-0.000186067,-0.001418717,-0.002211581,0.031806540,-0.420863420,-0.002690726
1748428319.672815,1748428319668616.000000000,1748428319668508.000000000,0.001797991,0.000759592,-0.002161293,0.419651121,0.097375929,0.011236875
1748428319.682873,1748428319678680.000000000,1748428319678510.000000000,-0.000470034,-0.002074416,0.000722714,-0.199370086,-0.193502098,0.122396462
1748428319.692801,1748428319688751.000000000,1748428319688512.000000000,0.000555463,-0.000343023,-0.000011022,0.118956111,-0.038523443,0.077257380
1748428319.702857,1748428319698598.000000000,1748428319698515.000000000,-0.001286089,0.001163547,0.000523518,-0.117551491,0.339362890,-0.034196429
1748428319.712813,1748428319708603.000000000,1748428319708517.000000000,-0.000421695,0.005017820,0.001984931,0.104651041,0.512155712,-0.037641343
1748428319.723771,1748428319718605.000000000,1748428319718520.000000000,0.000608013,0.002251678,0.001369005,0.125414670,-0.196900442,-0.038719486
1748428319.733780,1748428319728607.000000000,1748428319728526.000000000,0.000556712,-0.001814477,0.002321628,0.026295008,-0.545868814,0.263921857
1748428319.745816,1748428319738606.000000000,1748428319738525.000000000,-0.000259973,0.001300457,0.004501685,-0.019794343,0.403506100,0.264500231
1748428319.753869,1748428319748607.000000000,1748428319748528.000000000,0.000631441,0.003716198,-0.000547171,0.088766232,0.149504453,-0.240544826
1748428319.764757,1748428319756108.000000000,1748428319756029.000000000,-0.000964536,0.002385899,-0.001399837,-0.178224504,0.093366049,-0.021705993
1748428319.772880,1748428319768611.000000000,1748428319768533.000000000,0.001885940,-0.001723184,0.001150882,0.410863787,-0.357124954,0.165357888
1748428319.782817,1748428319778615.000000000,1748428319778534.000000000,-0.000301907,0.004194092,-0.003757206,-0.090937942,0.531144977,-0.293280214
1748428319.792859,1748428319788616.000000000,1748428319788537.000000000,-0.001244831,0.000696159,-0.002911744,-0.071586974,-0.256747216,-0.097465053
1748428319.803782,1748428319798619.000000000,1748428319798539.000000000,-0.002441168,-0.002193223,-0.001707845,-0.220904544,-0.188099489,0.020784361
1748428319.812802,1748428319808623.000000000,1748428319808542.000000000,0.001236178,-0.001503924,0.000623112,0.330551207,0.148827329,0.192151964
1748428319.822812,1748428319818626.000000000,1748428319818546.000000000,-0.001760615,-0.000402351,0.000111498,-0.272277236,0.264914036,-0.081631899
1748428319.832884,1748428319828626.000000000,1748428319828546.000000000,0.002055479,0.003354223,0.000811009,0.494944751,0.469414562,0.057903398
1748428319.842815,1748428319838630.000000000,1748428319838549.000000000,0.000820327,0.004116476,0.000851957,-0.081439033,0.140083194,-0.053953595
1748428319.852899,1748428319848632.000000000,1748428319848551.000000000,-0.000814397,-0.002623925,0.002209658,-0.149411961,-0.599691451,0.319007158
1748428319.862846,1748428319858636.000000000,1748428319858554.000000000,-0.003277437,-0.002816553,-0.000535219,-0.101813070,-0.207769021,-0.217071384
1748428319.873985,1748428319868635.000000000,1748428319868556.000000000,-0.000831492,-0.001386175,-0.001751491,-0.042100858,0.071937561,-0.190429911
1748428319.882827,1748428319878637.000000000,1748428319878558.000000000,0.001727125,0.000047450,0.000529728,0.210218653,0.047667012,0.387583345
1748428319.893752,1748428319888642.000000000,1748428319888562.000000000,-0.001090176,-0.001258539,-0.000526989,-0.289043009,-0.057811923,0.081238873
1748428319.903870,1748428319898646.000000000,1748428319898563.000000000,0.000880986,-0.002405288,-0.002434887,0.205644086,-0.141697586,-0.272723585
1748428319.912828,1748428319908646.000000000,1748428319908566.000000000,0.001527456,-0.002914289,-0.000897505,0.097728722,0.133302227,-0.071045995
1748428319.922817,1748428319918648.000000000,1748428319918568.000000000,-0.000098944,0.001151454,0.001683349,-0.241849825,0.139229685,0.218988493
1748428319.932931,1748428319928651.000000000,1748428319928570.000000000,0.001125525,0.000708338,-0.003094676,0.195223927,0.206163198,-0.369858146
1748428319.943780,1748428319938653.000000000,1748428319938573.000000000,-0.003055575,0.002398381,-0.000611381,-0.426876009,0.053255659,0.237901449
1748428319.952824,1748428319948655.000000000,1748428319948575.000000000,0.002533241,0.000442105,0.003024019,0.482177943,0.039994355,0.378022999
1748428319.963774,1748428319958657.000000000,1748428319958579.000000000,-0.000296162,-0.003595925,-0.000172726,-0.060362104,-0.515835106,0.058991529
1748428319.973818,1748428319968659.000000000,1748428319968580.000000000,-0.001692483,-0.000884051,-0.000929408,-0.132665545,0.253249049,0.061955240
1748428319.983883,1748428319978661.000000000,1748428319978583.000000000,-0.000815505,0.004422147,0.003314914,0.063337468,0.243597880,0.366879374
1748428319.996857,1748428319993666.000000000,1748428319993587.000000000,-0.001747467,-0.000484530,-0.001579770,0.078565404,-0.122012906,-0.294907004
1748428320.006795,1748428319998667.000000000,1748428319998588.000000000,-0.000157466,-0.005781968,-0.000236130,0.128443494,-0.671315134,0.031236753
1748428320.014873,1748428320008669.000000000,1748428320008590.000000000,-0.002309744,-0.001681438,0.000379801,-0.266566962,0.141539216,0.030813105
1748428320.025811,1748428320018673.000000000,1748428320018592.000000000,-0.003874988,0.000182284,0.002972060,-0.295572758,0.163502976,0.496315062
1748428320.035817,1748428320026175.000000000,1748428320026094.000000000,-0.001153221,-0.000146308,-0.000336828,0.026085798,-0.078232251,-0.256924540
1748428320.042850,1748428320038676.000000000,1748428320038597.000000000,-0.001318325,-0.000538837,-0.001213583,-0.249197498,0.093437865,-0.205421045
1748428320.052805,1748428320048711.000000000,1748428320048600.000000000,0.003641120,-0.002184181,0.001269383,0.254003584,-0.258530259,0.269119292
1748428320.062833,1748428320058776.000000000,1748428320058602.000000000,-0.002686484,-0.003115968,-0.000699070,-0.570420027,-0.290078461,0.081766166
1748428320.072870,1748428320068849.000000000,1748428320068604.000000000,-0.001958007,-0.000933081,-0.002185196,-0.137429073,0.307840973,-0.256596893
1748428320.082827,1748428320078686.000000000,1748428320078607.000000000,-0.002263310,-0.000710645,-0.002183571,-0.119239435,-0.156745568,-0.031745616
1748428320.092854,1748428320088692.000000000,1748428320088609.000000000,0.001666898,-0.003208297,-0.001494248,0.172943860,0.003910081,0.119606614
1748428320.102831,1748428320098691.000000000,1748428320098612.000000000,-0.001607370,0.001592449,-0.002443851,-0.165849507,0.262443423,-0.425971508
1748428320.112876,1748428320108694.000000000,1748428320108614.000000000,0.000718872,-0.003898467,-0.000715250,0.202310339,-0.446918488,0.162472844
1748428320.122916,1748428320118696.000000000,1748428320118617.000000000,-0.000867341,0.002218060,0.001198049,-0.136278346,0.456086099,0.264169127
1748428320.133923,1748428320128700.000000000,1748428320128619.000000000,0.000652844,0.002478742,-0.000376908,0.203084350,0.163855180,-0.068691976
1748428320.142849,1748428320138703.000000000,1748428320138622.000000000,-0.000112435,-0.000633104,0.003811834,-0.143226624,-0.352016389,0.422130316
1748428320.156943,1748428320146203.000000000,1748428320146123.000000000,-0.001171281,0.001962036,-0.000085261,-0.102306925,0.258588046,-0.254018813
1748428320.165815,1748428320156207.000000000,1748428320156126.000000000,-0.001954431,0.001674835,0.000353513,-0.119823866,-0.103399277,0.051188670
1748428320.174861,1748428320168712.000000000,1748428320168629.000000000,0.002294243,-0.001493650,0.000785601,0.531120658,-0.464999169,-0.141024336
1748428320.183819,1748428320178710.000000000,1748428320178631.000000000,0.000945545,0.002513536,-0.003322153,-0.063088574,0.311696738,-0.391494036
1748428320.192867,1748428320188713.000000000,1748428320188634.000000000,0.000594481,-0.001591028,-0.001257598,-0.055423774,-0.326817483,0.103573136
1748428320.202860,1748428320198715.000000000,1748428320198636.000000000,0.001126285,-0.003208280,-0.000127753,0.004735162,-0.197917297,-0.010598281
1748428320.212818,1748428320208717.000000000,1748428320208638.000000000,-0.000090462,-0.003509091,-0.002371933,-0.072494544,0.013115196,-0.234676853
1748428320.222843,1748428320218721.000000000,1748428320218641.000000000,0.002127576,-0.003793269,-0.004233597,0.274000168,-0.020137310,-0.139583036
1748428320.232825,1748428320228724.000000000,1748428320228643.000000000,-0.000695839,-0.000207469,-0.001682196,0.031567022,0.144993335,-0.110896029
1748428320.245844,1748428320236225.000000000,1748428320236145.000000000,-0.000943138,0.002485089,-0.001299694,0.099811815,0.237274036,0.002103648
1748428320.253827,1748428320248726.000000000,1748428320248648.000000000,0.000117974,0.000206063,0.000023673,0.260466009,-0.093255162,-0.146214545
1748428320.263776,1748428320258729.000000000,1748428320258651.000000000,0.001732775,0.001819558,0.002728099,0.257753104,0.067875341,0.191548064
1748428320.272823,1748428320268732.000000000,1748428320268653.000000000,-0.000350921,-0.000798999,0.004269607,-0.180279732,-0.188512146,0.219801381
1748428320.285760,1748428320276234.000000000,1748428320276155.000000000,-0.001672072,0.000764029,0.000959696,-0.121075183,0.152437821,-0.358313650
1748428320.293837,1748428320288739.000000000,1748428320288658.000000000,0.000635931,0.000115592,-0.006696327,0.044663802,-0.081459038,-0.662618756
1748428320.303881,1748428320296239.000000000,1748428320296160.000000000,-0.000061108,-0.001985786,-0.002053021,-0.052165538,-0.189771339,0.206965059
1748428320.313797,1748428320308743.000000000,1748428320308663.000000000,-0.001214598,0.003373724,-0.000941552,-0.238995776,0.085456148,-0.015869964
1748428320.322838,1748428320318749.000000000,1748428320318665.000000000,-0.003141804,-0.001876218,-0.003834883,-0.247929707,-0.530882776,-0.099269003
1748428320.332843,1748428320328747.000000000,1748428320328667.000000000,0.003627554,0.002471703,-0.002288847,0.622379124,0.336116105,0.067056820
1748428320.342875,1748428320338751.000000000,1748428320338670.000000000,-0.001163748,0.000953066,-0.003779613,-0.155719489,-0.228249982,-0.086334929
1748428320.352904,1748428320348751.000000000,1748428320348672.000000000,0.001650092,-0.000049307,0.001848651,0.218458444,-0.223208740,0.353951335
1748428320.362872,1748428320358753.000000000,1748428320358675.000000000,0.001360448,0.000973691,0.004204060,-0.074541219,-0.025919471,0.513816953
1748428320.373883,1748428320368757.000000000,1748428320368677.000000000,-0.001321564,-0.000353159,0.001740090,-0.297516495,-0.114379570,-0.333984613
1748428320.382822,1748428320378759.000000000,1748428320378679.000000000,-0.002716517,-0.003739043,-0.000588823,-0.346886903,-0.256648988,-0.083542034
1748428320.392872,1748428320388762.000000000,1748428320388682.000000000,-0.002216400,0.000888209,-0.003398496,-0.064985193,0.319750428,-0.179744869
1748428320.402900,1748428320398764.000000000,1748428320398684.000000000,-0.001947138,-0.000083189,0.001217576,0.042278353,-0.192778513,0.493013322
1748428320.414847,1748428320408787.000000000,1748428320408708.000000000,-0.000000994,-0.001489897,-0.003242130,0.024349356,-0.262932003,-0.463252336
1748428320.423901,1748428320418790.000000000,1748428320418710.000000000,-0.001448676,0.000940371,-0.002904393,0.011431121,0.185716376,0.052583907
1748428320.433784,1748428320428838.000000000,1748428320428713.000000000,0.000133056,-0.003745364,-0.002340360,0.120785922,-0.267533243,-0.044079967
1748428320.443894,1748428320438975.000000000,1748428320438715.000000000,-0.000216227,-0.000499376,-0.004483170,0.008359359,0.124239340,-0.189412892
1748428320.452907,1748428320448971.000000000,1748428320448720.000000000,0.000955714,0.000907739,0.002083723,0.163083732,-0.012747060,0.744652510
1748428320.463793,1748428320458800.000000000,1748428320458720.000000000,0.000528986,-0.000804809,-0.003027459,0.115507193,-0.321141809,-0.387040019
1748428320.472820,1748428320468802.000000000,1748428320468722.000000000,-0.002691526,0.003621147,0.000606020,-0.079290517,0.387130737,0.400259227
1748428320.482832,1748428320478804.000000000,1748428320478725.000000000,0.002715260,0.001569848,-0.000905625,0.312462658,0.170990765,-0.047452517
1748428320.492859,1748428320488810.000000000,1748428320488727.000000000,0.001738908,0.000125111,0.001675616,0.069611877,0.062703148,0.075061105
1748428320.502868,1748428320498810.000000000,1748428320498730.000000000,-0.001609405,-0.001059807,0.000688498,-0.159427509,0.039341182,0.098557137
1748428320.512889,1748428320508813.000000000,1748428320508732.000000000,0.000956141,0.002987657,-0.001682210,0.072388500,0.403145045,-0.107009195
1748428320.523928,1748428320518815.000000000,1748428320518734.000000000,-0.001613873,-0.001917745,-0.000602174,-0.144135490,-0.383343399,0.071132876
1748428320.532865,1748428320528823.000000000,1748428320528737.000000000,-0.001941961,-0.001840168,0.000500826,-0.209751248,-0.117315672,0.215840071
